{"timestamp":1013499576,"gyro_rad":[0.0046650628,0.0031932378,0.0010357536],"gyro_integral_dt":4997,"accelerometer_timestamp_relative":0,"accelerometer_m_s2":[0.0221093707,-0.0400969386,-9.853726387],"accelerometer_integral_dt":4997,"accelerometer_clipping":0}
{"timestamp":1013512174,"gyro_rad":[0.0050047454,0.0031963021,-0.0016646817],"gyro_integral_dt":4999,"accelerometer_timestamp_relative":0,"accelerometer_m_s2":[0.0883531496,-0.0528375544,-9.7853393555],"accelerometer_integral_dt":4999,"accelerometer_clipping":0}
{"timestamp":1013509188,"gyro_rad":[0.0077694515,0.0081666978,0.001571611],"gyro_integral_dt":4999,"accelerometer_timestamp_relative":0,"accelerometer_m_s2":[0.1006097794,-0.0158722047,-9.7721071243],"accelerometer_integral_dt":4999,"accelerometer_clipping":0}
{"timestamp":1013521189,"gyro_rad":[0.0021911659,-0.0007453594,-0.0015138868],"gyro_integral_dt":4996,"accelerometer_timestamp_relative":0,"accelerometer_m_s2":[0.0885589868,0.0294655543,-9.8129234314],"accelerometer_integral_dt":4996,"accelerometer_clipping":0}
{"timestamp":1013519673,"gyro_rad":[0.0064437394,0.0119471224,0.0005769008],"gyro_integral_dt":5012,"accelerometer_timestamp_relative":0,"accelerometer_m_s2":[0.1204186454,0.0357282013,-9.7814207077],"accelerometer_integral_dt":5012,"accelerometer_clipping":0}
{"timestamp":1013530130,"gyro_rad":[0.0048652785,-0.003969328,-0.0021296961],"gyro_integral_dt":4980,"accelerometer_timestamp_relative":0,"accelerometer_m_s2":[0.091410704,0.0133213112,-9.8140268326],"accelerometer_integral_dt":4980,"accelerometer_clipping":0}
{"timestamp":1013528904,"gyro_rad":[0.0054343352,0.0138941193,-0.0005832537],"gyro_integral_dt":4796,"accelerometer_timestamp_relative":0,"accelerometer_m_s2":[0.0613181479,0.1010229886,-9.8314876556],"accelerometer_integral_dt":4796,"accelerometer_clipping":0}
{"timestamp":1013538197,"gyro_rad":[0.003937799,0.0009900302,-0.0010293776],"gyro_integral_dt":4988,"accelerometer_timestamp_relative":0,"accelerometer_m_s2":[0.0430576764,0.0186990574,-9.7339715958],"accelerometer_integral_dt":4988,"accelerometer_clipping":0}
{"timestamp":1013537468,"gyro_rad":[0.0024047836,0.0058082589,-0.000688377],"gyro_integral_dt":4996,"accelerometer_timestamp_relative":0,"accelerometer_m_s2":[-0.0094719911,0.114564456,-9.7685279846],"accelerometer_integral_dt":4996,"accelerometer_clipping":0}
{"timestamp":1013544026,"gyro_rad":[0.0062005608,0.0077706091,0.0026455633],"gyro_integral_dt":4997,"accelerometer_timestamp_relative":0,"accelerometer_m_s2":[0.0050883493,-0.0148525797,-9.7862529755],"accelerometer_integral_dt":4997,"accelerometer_clipping":0}
{"timestamp":1013543220,"gyro_rad":[0.0000966289,0.0006632555,-0.0008970658],"gyro_integral_dt":4990,"accelerometer_timestamp_relative":0,"accelerometer_m_s2":[-0.044558838,0.0489940643,-9.8086919785],"accelerometer_integral_dt":4990,"accelerometer_clipping":0}
{"timestamp":1013556410,"gyro_rad":[0.0049648308,0.0116509311,0.0026086639],"gyro_integral_dt":4996,"accelerometer_timestamp_relative":0,"accelerometer_m_s2":[-0.0403459221,-0.0297913402,-9.7746429443],"accelerometer_integral_dt":4996,"accelerometer_clipping":0}
{"timestamp":1013554972,"gyro_rad":[0.0040525827,-0.0045938375,-0.0012228364],"gyro_integral_dt":4994,"accelerometer_timestamp_relative":0,"accelerometer_m_s2":[-0.0083583593,-0.0183008853,-9.7573165894],"accelerometer_integral_dt":4994,"accelerometer_clipping":0}
{"timestamp":1013571374,"gyro_rad":[0.0043563959,-0.0025538234,-0.0006889505],"gyro_integral_dt":4993,"accelerometer_timestamp_relative":0,"accelerometer_m_s2":[0.0511770546,-0.0490876772,-9.7516803741],"accelerometer_integral_dt":4993,"accelerometer_clipping":0}
{"timestamp":1013580142,"gyro_rad":[0.0013300553,0.0064912662,-0.0003773284],"gyro_integral_dt":4996,"accelerometer_timestamp_relative":0,"accelerometer_m_s2":[0.0343942679,-0.0625846013,-9.8250141144],"accelerometer_integral_dt":4996,"accelerometer_clipping":0}
{"timestamp":1013578618,"gyro_rad":[0.0094345463,0.0030169424,-0.0006856372],"gyro_integral_dt":4996,"accelerometer_timestamp_relative":0,"accelerometer_m_s2":[0.0918816701,-0.0246826056,-9.7973451614],"accelerometer_integral_dt":4996,"accelerometer_clipping":0}
{"timestamp":1013591702,"gyro_rad":[0.0018946659,0.0009469464,-0.0026462153],"gyro_integral_dt":4994,"accelerometer_timestamp_relative":0,"accelerometer_m_s2":[0.0879386738,-0.0516995229,-9.7830820084],"accelerometer_integral_dt":4994,"accelerometer_clipping":0}
{"timestamp":1013591555,"gyro_rad":[0.0061790259,0.0099851992,0.0016113111],"gyro_integral_dt":4994,"accelerometer_timestamp_relative":0,"accelerometer_m_s2":[0.0995962173,0.0323716849,-9.7957029343],"accelerometer_integral_dt":4994,"accelerometer_clipping":0}
{"timestamp":1013600207,"gyro_rad":[0.0023497415,-0.0008832014,-0.0031374723],"gyro_integral_dt":4996,"accelerometer_timestamp_relative":0,"accelerometer_m_s2":[0.1016494259,0.0324263982,-9.7828617096],"accelerometer_integral_dt":4996,"accelerometer_clipping":0}
{"timestamp":1013598819,"gyro_rad":[0.0063928468,0.011138496,0.0015186851],"gyro_integral_dt":4996,"accelerometer_timestamp_relative":0,"accelerometer_m_s2":[0.0915327072,0.0522152707,-9.7986879349],"accelerometer_integral_dt":4996,"accelerometer_clipping":0}
{"timestamp":1013619870,"gyro_rad":[0.0021250425,0.00960497,-0.0002056774],"gyro_integral_dt":4995,"accelerometer_timestamp_relative":0,"accelerometer_m_s2":[0.0475465171,0.0414425544,-9.7537002563],"accelerometer_integral_dt":4995,"accelerometer_clipping":0}
{"timestamp":1013620441,"gyro_rad":[0.0057870927,0.0026069789,-0.0008746802],"gyro_integral_dt":4996,"accelerometer_timestamp_relative":0,"accelerometer_m_s2":[-0.0024818564,0.1161181331,-9.7717447281],"accelerometer_integral_dt":4996,"accelerometer_clipping":0}
{"timestamp":1013619947,"gyro_rad":[0.0022941893,0.0049489392,-0.0010881489],"gyro_integral_dt":4995,"accelerometer_timestamp_relative":0,"accelerometer_m_s2":[0.0043035438,0.0350983925,-9.8196372986],"accelerometer_integral_dt":4995,"accelerometer_clipping":0}
{"timestamp":1013620671,"gyro_rad":[0.003957062,0.0092371991,0.0017842561],"gyro_integral_dt":4995,"accelerometer_timestamp_relative":0,"accelerometer_m_s2":[-0.0048585557,0.0279879682,-9.8232059479],"accelerometer_integral_dt":4995,"accelerometer_clipping":0}
{"timestamp":1013629227,"gyro_rad":[-0.0004702692,-0.000085363,-0.0011087389],"gyro_integral_dt":4996,"accelerometer_timestamp_relative":0,"accelerometer_m_s2":[-0.0313261375,-0.0356562436,-9.7725086212],"accelerometer_integral_dt":4996,"accelerometer_clipping":0}
{"timestamp":1013638185,"gyro_rad":[0.0067871888,0.0094918329,0.0019535983],"gyro_integral_dt":4992,"accelerometer_timestamp_relative":0,"accelerometer_m_s2":[-0.0043085162,-0.0054691415,-9.7513504028],"accelerometer_integral_dt":4992,"accelerometer_clipping":0}
{"timestamp":1013638609,"gyro_rad":[0.0030976844,-0.003178234,-0.0018721871],"gyro_integral_dt":4999,"accelerometer_timestamp_relative":0,"accelerometer_m_s2":[-0.0260278843,-0.031009756,-9.7913198471],"accelerometer_integral_dt":4999,"accelerometer_clipping":0}
{"timestamp":1013639489,"gyro_rad":[0.0022624803,0.011322584,0.0011147363],"gyro_integral_dt":4995,"accelerometer_timestamp_relative":0,"accelerometer_m_s2":[0.0304701664,-0.0277478416,-9.7841043472],"accelerometer_integral_dt":4995,"accelerometer_clipping":0}
{"timestamp":1013644155,"gyro_rad":[0.0048793838,-0.0010233332,-0.0013677753],"gyro_integral_dt":4993,"accelerometer_timestamp_relative":0,"accelerometer_m_s2":[0.0297420453,-0.0413024127,-9.8050498962],"accelerometer_integral_dt":4993,"accelerometer_clipping":0}
{"timestamp":1013662079,"gyro_rad":[0.0039251493,0.0045882259,-0.0009063297],"gyro_integral_dt":4997,"accelerometer_timestamp_relative":0,"accelerometer_m_s2":[0.0702526867,-0.0206742026,-9.8022813797],"accelerometer_integral_dt":4997,"accelerometer_clipping":0}
{"timestamp":1013661317,"gyro_rad":[0.0080586066,0.0059412322,0.0013928867],"gyro_integral_dt":4993,"accelerometer_timestamp_relative":0,"accelerometer_m_s2":[0.1106862351,-0.0292869583,-9.773314476],"accelerometer_integral_dt":4993,"accelerometer_clipping":0}
{"timestamp":1013662255,"gyro_rad":[0.0029652878,0.000035916,-0.0020197215],"gyro_integral_dt":4999,"accelerometer_timestamp_relative":0,"accelerometer_m_s2":[0.0831144378,0.0453817435,-9.7707538605],"accelerometer_integral_dt":4999,"accelerometer_clipping":0}
{"timestamp":1013667887,"gyro_rad":[0.0064355112,0.0114917615,0.0005244846],"gyro_integral_dt":4994,"accelerometer_timestamp_relative":0,"accelerometer_m_s2":[0.1090116203,-0.0060555111,-9.7978048325],"accelerometer_integral_dt":4994,"accelerometer_clipping":0}
{"timestamp":1013673588,"gyro_rad":[0.0028890406,-0.0031836629,-0.0018883229],"gyro_integral_dt":4996,"accelerometer_timestamp_relative":0,"accelerometer_m_s2":[0.086352393,0.0589323789,-9.8125953674],"accelerometer_integral_dt":4996,"accelerometer_clipping":0}
{"timestamp":1013680292,"gyro_rad":[0.0049807797,0.0141589409,0.0006099741],"gyro_integral_dt":4994,"accelerometer_timestamp_relative":0,"accelerometer_m_s2":[0.0809253231,0.0628320426,-9.8145055771],"accelerometer_integral_dt":4994,"accelerometer_clipping":0}
{"timestamp":1013690704,"gyro_rad":[0.0044716834,-0.0020168088,-0.0014842206],"gyro_integral_dt":4994,"accelerometer_timestamp_relative":0,"accelerometer_m_s2":[0.0411331616,0.0643121824,-9.7700662613],"accelerometer_integral_dt":4994,"accelerometer_clipping":0}
{"timestamp":1013689860,"gyro_rad":[0.003998362,0.0085823191,-0.001154764],"gyro_integral_dt":4997,"accelerometer_timestamp_relative":0,"accelerometer_m_s2":[0.0098266238,0.0967900082,-9.7463493347],"accelerometer_integral_dt":4997,"accelerometer_clipping":0}
{"timestamp":1013700474,"gyro_rad":[0.0064740009,0.0043506939,-0.0001153197],"gyro_integral_dt":4996,"accelerometer_timestamp_relative":0,"accelerometer_m_s2":[-0.0102101639,0.0428014323,-9.8270311356],"accelerometer_integral_dt":4996,"accelerometer_clipping":0}
{"timestamp":1013699592,"gyro_rad":[0.0009796394,0.0036985469,-0.0016327972],"gyro_integral_dt":4995,"accelerometer_timestamp_relative":0,"accelerometer_m_s2":[-0.03287296,0.0291868001,-9.8339338303],"accelerometer_integral_dt":4995,"accelerometer_clipping":0}
{"timestamp":1013700219,"gyro_rad":[0.0031664327,0.0101474579,0.0011831407],"gyro_integral_dt":4997,"accelerometer_timestamp_relative":0,"accelerometer_m_s2":[-0.0439609066,0.0052300529,-9.7948074341],"accelerometer_integral_dt":4997,"accelerometer_clipping":0}
{"timestamp":1013709905,"gyro_rad":[0.0026134017,-0.0032308304,-0.0023840223],"gyro_integral_dt":4992,"accelerometer_timestamp_relative":0,"accelerometer_m_s2":[-0.0019757529,-0.0376705863,-9.7593183517],"accelerometer_integral_dt":4992,"accelerometer_clipping":0}
{"timestamp":1013720447,"gyro_rad":[0.0059297252,0.0127401538,0.0007726522],"gyro_integral_dt":5001,"accelerometer_timestamp_relative":0,"accelerometer_m_s2":[0.0018989498,-0.0080937315,-9.7900905609],"accelerometer_integral_dt":5001,"accelerometer_clipping":0}
{"timestamp":1013719702,"gyro_rad":[0.0029847606,-0.0040006828,-0.0016222527],"gyro_integral_dt":4991,"accelerometer_timestamp_relative":0,"accelerometer_m_s2":[0.0292758457,-0.0596632436,-9.7803955078],"accelerometer_integral_dt":4991,"accelerometer_clipping":0}
{"timestamp":1013725836,"gyro_rad":[0.0024576334,0.0090359533,0.0006002178],"gyro_integral_dt":4995,"accelerometer_timestamp_relative":0,"accelerometer_m_s2":[0.0310952365,-0.0196263213,-9.8111219406],"accelerometer_integral_dt":4995,"accelerometer_clipping":0}
{"timestamp":1013724902,"gyro_rad":[0.0075918855,0.0021196897,-0.0010269224],"gyro_integral_dt":4995,"accelerometer_timestamp_relative":0,"accelerometer_m_s2":[0.0692018121,-0.078181766,-9.8043642044],"accelerometer_integral_dt":4995,"accelerometer_clipping":0}
{"timestamp":1013738038,"gyro_rad":[0.0029993108,0.0039348947,-0.0012308363],"gyro_integral_dt":4996,"accelerometer_timestamp_relative":0,"accelerometer_m_s2":[0.1220169216,-0.0303198788,-9.7680006027],"accelerometer_integral_dt":4996,"accelerometer_clipping":0}
{"timestamp":1013739205,"gyro_rad":[0.0081880074,0.0062659541,0.0019374194],"gyro_integral_dt":4995,"accelerometer_timestamp_relative":0,"accelerometer_m_s2":[0.1043898016,-0.0042024595,-9.7627782822],"accelerometer_integral_dt":4995,"accelerometer_clipping":0}
{"timestamp":1013739943,"gyro_rad":[-0.0000179747,-0.0002091781,-0.0022768292],"gyro_integral_dt":4996,"accelerometer_timestamp_relative":0,"accelerometer_m_s2":[0.1091292128,0.0233335309,-9.8045310974],"accelerometer_integral_dt":4996,"accelerometer_clipping":0}
{"timestamp":1013746325,"gyro_rad":[0.0058735744,0.0119037488,0.0014484905],"gyro_integral_dt":4995,"accelerometer_timestamp_relative":0,"accelerometer_m_s2":[0.0667911246,0.0454140715,-9.7959241867],"accelerometer_integral_dt":4995,"accelerometer_clipping":0}
{"timestamp":1013762497,"gyro_rad":[0.0062418012,-0.0009985362,-0.0019897446],"gyro_integral_dt":4998,"accelerometer_timestamp_relative":0,"accelerometer_m_s2":[0.0507405065,0.0814093798,-9.8077697754],"accelerometer_integral_dt":4998,"accelerometer_clipping":0}
{"timestamp":1013761351,"gyro_rad":[0.0038545732,0.01013673,0.0009852068],"gyro_integral_dt":4996,"accelerometer_timestamp_relative":0,"accelerometer_m_s2":[0.0235071089,0.0398266762,-9.7929725647],"accelerometer_integral_dt":4996,"accelerometer_clipping":0}
{"timestamp":1013770736,"gyro_rad":[0.0046020537,-0.0001700035,-0.0001327941],"gyro_integral_dt":4993,"accelerometer_timestamp_relative":0,"accelerometer_m_s2":[0.026373174,0.1078425795,-9.7673587799],"accelerometer_integral_dt":4993,"accelerometer_clipping":0}
{"timestamp":1013768228,"gyro_rad":[0.0027470898,0.0082677556,-0.0011290088],"gyro_integral_dt":4996,"accelerometer_timestamp_relative":0,"accelerometer_m_s2":[-0.0049430975,0.0203217249,-9.7931098938],"accelerometer_integral_dt":4996,"accelerometer_clipping":0}
{"timestamp":1013781095,"gyro_rad":[0.0041405251,0.0048215166,0.0009321901],"gyro_integral_dt":4993,"accelerometer_timestamp_relative":0,"accelerometer_m_s2":[-0.0177912693,0.0332021154,-9.8102025986],"accelerometer_integral_dt":4993,"accelerometer_clipping":0}
{"timestamp":1013780630,"gyro_rad":[0.0016966916,0.00005794,-0.0018953399],"gyro_integral_dt":4996,"accelerometer_timestamp_relative":0,"accelerometer_m_s2":[-0.0658787191,0.0132752946,-9.8116064072],"accelerometer_integral_dt":4996,"accelerometer_clipping":0}
{"timestamp":1013790324,"gyro_rad":[0.0056741559,0.0106432401,0.0010908516],"gyro_integral_dt":4995,"accelerometer_timestamp_relative":0,"accelerometer_m_s2":[-0.0019554186,-0.0425472073,-9.7554330826],"accelerometer_integral_dt":4995,"accelerometer_clipping":0}
{"timestamp":1013789294,"gyro_rad":[0.0031449923,-0.002658875,-0.001263217],"gyro_integral_dt":4995,"accelerometer_timestamp_relative":0,"accelerometer_m_s2":[-0.0420536287,0.0239305012,-9.8088760376],"accelerometer_integral_dt":4995,"accelerometer_clipping":0}
{"timestamp":1013790388,"gyro_rad":[0.0056401072,0.0106403269,0.0016473266],"gyro_integral_dt":4997,"accelerometer_timestamp_relative":0,"accelerometer_m_s2":[0.0562885776,-0.0712311566,-9.7779111862],"accelerometer_integral_dt":4997,"accelerometer_clipping":0}
{"timestamp":1013799596,"gyro_rad":[0.0027528054,-0.0013691772,-0.0010864737],"gyro_integral_dt":4995,"accelerometer_timestamp_relative":0,"accelerometer_m_s2":[0.0125795621,0.0012013052,-9.8268795013],"accelerometer_integral_dt":4995,"accelerometer_clipping":0}
{"timestamp":1013811009,"gyro_rad":[0.0053340993,0.0076230322,-0.0021936868],"gyro_integral_dt":4995,"accelerometer_timestamp_relative":0,"accelerometer_m_s2":[0.0817293599,-0.0791672021,-9.7653102875],"accelerometer_integral_dt":4995,"accelerometer_clipping":0}
{"timestamp":1013809909,"gyro_rad":[0.0055344934,0.0009931459,-0.0001465491],"gyro_integral_dt":4995,"accelerometer_timestamp_relative":0,"accelerometer_m_s2":[0.0967159718,-0.0171062294,-9.7742929459],"accelerometer_integral_dt":4995,"accelerometer_clipping":0}
{"timestamp":1013810813,"gyro_rad":[0.0027000832,0.0020948604,-0.0012635241],"gyro_integral_dt":4995,"accelerometer_timestamp_relative":0,"accelerometer_m_s2":[0.1164958775,0.0057305247,-9.8058338165],"accelerometer_integral_dt":4995,"accelerometer_clipping":0}
{"timestamp":1013819116,"gyro_rad":[0.0065521225,0.009143359,0.0004410823],"gyro_integral_dt":4995,"accelerometer_timestamp_relative":0,"accelerometer_m_s2":[0.1187741086,0.0657780543,-9.7952451706],"accelerometer_integral_dt":4995,"accelerometer_clipping":0}
{"timestamp":1013819456,"gyro_rad":[0.0037084832,-0.0033699293,-0.0022539147],"gyro_integral_dt":4997,"accelerometer_timestamp_relative":0,"accelerometer_m_s2":[0.1143381372,0.0148161519,-9.8058109283],"accelerometer_integral_dt":4997,"accelerometer_clipping":0}
{"timestamp":1013828941,"gyro_rad":[0.0044918237,0.0149715338,0.0021062098],"gyro_integral_dt":4994,"accelerometer_timestamp_relative":0,"accelerometer_m_s2":[0.0589853413,0.0947056785,-9.8449640274],"accelerometer_integral_dt":4994,"accelerometer_clipping":0}
{"timestamp":1013831583,"gyro_rad":[0.0044238977,-0.0033956675,-0.0001361519],"gyro_integral_dt":4995,"accelerometer_timestamp_relative":0,"accelerometer_m_s2":[0.0867493004,0.0439937264,-9.7432909012],"accelerometer_integral_dt":4995,"accelerometer_clipping":0}
{"timestamp":1013837448,"gyro_rad":[0.0008573802,0.0111615025,-0.0006345842],"gyro_integral_dt":5004,"accelerometer_timestamp_relative":0,"accelerometer_m_s2":[-0.0003018871,0.1194187999,-9.7862195969],"accelerometer_integral_dt":5004,"accelerometer_clipping":0}
{"timestamp":1013852252,"gyro_rad":[0.006837415,0.0014220375,0.0005527179],"gyro_integral_dt":4988,"accelerometer_timestamp_relative":0,"accelerometer_m_s2":[0.0107382732,0.0058908635,-9.7883434296],"accelerometer_integral_dt":4988,"accelerometer_clipping":0}
{"timestamp":1013850261,"gyro_rad":[-0.000196621,0.006380186,-0.0006965748],"gyro_integral_dt":4994,"accelerometer_timestamp_relative":0,"accelerometer_m_s2":[-0.0483517684,0.0744372532,-9.8158073425],"accelerometer_integral_dt":4994,"accelerometer_clipping":0}
{"timestamp":1013852706,"gyro_rad":[0.0065272702,0.006725865,0.0007056748],"gyro_integral_dt":4993,"accelerometer_timestamp_relative":0,"accelerometer_m_s2":[-0.038780611,-0.0220713411,-9.798210144],"accelerometer_integral_dt":4993,"accelerometer_clipping":0}
{"timestamp":1013857546,"gyro_rad":[-0.0009621308,-0.0020196617,-0.0021514832],"gyro_integral_dt":4998,"accelerometer_timestamp_relative":0,"accelerometer_m_s2":[-0.0037562987,-0.0242695175,-9.7465963364],"accelerometer_integral_dt":4998,"accelerometer_clipping":0}
{"timestamp":1013870176,"gyro_rad":[0.0064662523,0.0111053837,0.0014444652],"gyro_integral_dt":4992,"accelerometer_timestamp_relative":0,"accelerometer_m_s2":[-0.0472093895,-0.0262246169,-9.8125276566],"accelerometer_integral_dt":4992,"accelerometer_clipping":0}
{"timestamp":1013869749,"gyro_rad":[0.0038791434,-0.0043620942,-0.0015982981],"gyro_integral_dt":4998,"accelerometer_timestamp_relative":0,"accelerometer_m_s2":[0.0296481177,-0.0313525647,-9.7661886215],"accelerometer_integral_dt":4998,"accelerometer_clipping":0}
{"timestamp":1013880094,"gyro_rad":[0.0033850186,0.0105409594,0.0003896922],"gyro_integral_dt":4998,"accelerometer_timestamp_relative":0,"accelerometer_m_s2":[0.0122093884,-0.0309037175,-9.803809166],"accelerometer_integral_dt":4998,"accelerometer_clipping":0}
{"timestamp":1013880087,"gyro_rad":[0.0062395777,-0.001912466,0.000014326],"gyro_integral_dt":4991,"accelerometer_timestamp_relative":0,"accelerometer_m_s2":[0.0895236954,-0.0349538401,-9.8122682571],"accelerometer_integral_dt":4991,"accelerometer_clipping":0}
{"timestamp":1013892351,"gyro_rad":[0.0025208551,0.0070452653,-0.00050422],"gyro_integral_dt":4997,"accelerometer_timestamp_relative":0,"accelerometer_m_s2":[0.0735602006,-0.0329033621,-9.7895812988],"accelerometer_integral_dt":4997,"accelerometer_clipping":0}
{"timestamp":1013891302,"gyro_rad":[0.0080741793,0.0046817162,0.0003378103],"gyro_integral_dt":4993,"accelerometer_timestamp_relative":0,"accelerometer_m_s2":[0.1031974852,0.0003932735,-9.7476911545],"accelerometer_integral_dt":4993,"accelerometer_clipping":0}
{"timestamp":1013891559,"gyro_rad":[0.0042176247,0.0033577241,-0.001734659],"gyro_integral_dt":4998,"accelerometer_timestamp_relative":0,"accelerometer_m_s2":[0.084348388,0.0622858442,-9.7657785416],"accelerometer_integral_dt":4998,"accelerometer_clipping":0}
{"timestamp":1013891654,"gyro_rad":[0.0060825492,0.0077885869,0.0012336931],"gyro_integral_dt":4996,"accelerometer_timestamp_relative":0,"accelerometer_m_s2":[0.1125293076,0.0063645989,-9.8013916016],"accelerometer_integral_dt":4996,"accelerometer_clipping":0}
{"timestamp":1013901081,"gyro_rad":[0.0026972846,0.0005438505,-0.0021177444],"gyro_integral_dt":4995,"accelerometer_timestamp_relative":0,"accelerometer_m_s2":[0.0690678656,0.1303819865,-9.8656539917],"accelerometer_integral_dt":4995,"accelerometer_clipping":0}
{"timestamp":1013909325,"gyro_rad":[0.0081544751,0.0117550865,0.0002640508],"gyro_integral_dt":4995,"accelerometer_timestamp_relative":0,"accelerometer_m_s2":[0.0765977353,0.022126779,-9.7532949448],"accelerometer_integral_dt":4995,"accelerometer_clipping":0}
{"timestamp":1013910622,"gyro_rad":[0.0029399192,-0.0013105229,-0.0010964797],"gyro_integral_dt":4997,"accelerometer_timestamp_relative":0,"accelerometer_m_s2":[0.0249734893,0.1013266444,-9.7436246872],"accelerometer_integral_dt":4997,"accelerometer_clipping":0}
{"timestamp":1013918329,"gyro_rad":[0.0040179002,0.0092499126,-0.0002058501],"gyro_integral_dt":4993,"accelerometer_timestamp_relative":0,"accelerometer_m_s2":[-0.0142300203,0.0250393432,-9.8216543198],"accelerometer_integral_dt":4993,"accelerometer_clipping":0}
{"timestamp":1013928139,"gyro_rad":[0.0032259554,0.0046693161,0.001326172],"gyro_integral_dt":4996,"accelerometer_timestamp_relative":0,"accelerometer_m_s2":[-0.0115046436,0.051802557,-9.7819662094],"accelerometer_integral_dt":4996,"accelerometer_clipping":0}
{"timestamp":1013929006,"gyro_rad":[0.0007217183,0.0048627066,-0.0002763951],"gyro_integral_dt":4997,"accelerometer_timestamp_relative":0,"accelerometer_m_s2":[-0.0455756709,-0.0003952373,-9.809135437],"accelerometer_integral_dt":4997,"accelerometer_clipping":0}
{"timestamp":1013930101,"gyro_rad":[0.0058601578,0.0071108532,0.0017555088],"gyro_integral_dt":4994,"accelerometer_timestamp_relative":0,"accelerometer_m_s2":[-0.0228737108,0.0033948536,-9.7752151489],"accelerometer_integral_dt":4994,"accelerometer_clipping":0}
{"timestamp":1013938927,"gyro_rad":[0.0015220352,-0.0036139342,-0.0013389541],"gyro_integral_dt":4995,"accelerometer_timestamp_relative":0,"accelerometer_m_s2":[0.0057429532,-0.0654858723,-9.7642097473],"accelerometer_integral_dt":4995,"accelerometer_clipping":0}
{"timestamp":1013939845,"gyro_rad":[0.0067526568,0.0125527726,0.0018687471],"gyro_integral_dt":4995,"accelerometer_timestamp_relative":0,"accelerometer_m_s2":[-0.0044028927,0.0090136621,-9.7839241028],"accelerometer_integral_dt":4995,"accelerometer_clipping":0}
{"timestamp":1013942258,"gyro_rad":[0.002820841,-0.0035528431,-0.0012001951],"gyro_integral_dt":4996,"accelerometer_timestamp_relative":0,"accelerometer_m_s2":[0.0457985066,-0.1118571684,-9.785326004],"accelerometer_integral_dt":4996,"accelerometer_clipping":0}
{"timestamp":1013951044,"gyro_rad":[0.0050514108,0.0101231504,-0.0004829966],"gyro_integral_dt":4995,"accelerometer_timestamp_relative":0,"accelerometer_m_s2":[0.0477300249,0.0192671735,-9.8299531937],"accelerometer_integral_dt":4995,"accelerometer_clipping":0}
{"timestamp":1013963517,"gyro_rad":[0.0079091433,-0.0005419693,-0.000932201],"gyro_integral_dt":4994,"accelerometer_timestamp_relative":0,"accelerometer_m_s2":[0.0878915489,-0.0849060714,-9.8030824661],"accelerometer_integral_dt":4994,"accelerometer_clipping":0}
{"timestamp":1013966858,"gyro_rad":[0.0026772581,0.0060169171,-0.0016917613],"gyro_integral_dt":4996,"accelerometer_timestamp_relative":0,"accelerometer_m_s2":[0.1039603502,0.0224348698,-9.7551279068],"accelerometer_integral_dt":4996,"accelerometer_clipping":0}
{"timestamp":1013965877,"gyro_rad":[0.0069640665,0.0077985968,0.0002658835],"gyro_integral_dt":5002,"accelerometer_timestamp_relative":0,"accelerometer_m_s2":[0.0868099332,0.029684592,-9.7914066315],"accelerometer_integral_dt":5002,"accelerometer_clipping":0}
{"timestamp":1013980658,"gyro_rad":[0.0038614846,-0.0002603714,-0.0017149486],"gyro_integral_dt":4989,"accelerometer_timestamp_relative":0,"accelerometer_m_s2":[0.1142796725,0.0198562909,-9.7970466614],"accelerometer_integral_dt":4989,"accelerometer_clipping":0}
{"timestamp":1013979843,"gyro_rad":[0.0057595819,0.0115159769,0.0015716475],"gyro_integral_dt":4993,"accelerometer_timestamp_relative":0,"accelerometer_m_s2":[0.0588140972,0.1081130803,-9.8461055756],"accelerometer_integral_dt":4993,"accelerometer_clipping":0}
{"timestamp":1013981440,"gyro_rad":[0.0046823989,-0.0019778425,-0.0022345576],"gyro_integral_dt":4999,"accelerometer_timestamp_relative":0,"accelerometer_m_s2":[0.0703653246,0.0623580553,-9.7745170593],"accelerometer_integral_dt":4999,"accelerometer_clipping":0}
{"timestamp":1013987375,"gyro_rad":[0.0036241133,0.0106119225,0.0005923866],"gyro_integral_dt":4995,"accelerometer_timestamp_relative":0,"accelerometer_m_s2":[0.0070093535,0.0492237173,-9.750330925],"accelerometer_integral_dt":4995,"accelerometer_clipping":0}
{"timestamp":1013999513,"gyro_rad":[0.0074953977,-0.0000870957,-0.0016862148],"gyro_integral_dt":4997,"accelerometer_timestamp_relative":0,"accelerometer_m_s2":[0.0169987194,0.1044219583,-9.7981443405],"accelerometer_integral_dt":4997,"accelerometer_clipping":0}
{"timestamp":1014000289,"gyro_rad":[0.0010803085,0.0081691081,-0.0000850156],"gyro_integral_dt":4993,"accelerometer_timestamp_relative":0,"accelerometer_m_s2":[-0.0205037575,0.0045384988,-9.8057842255],"accelerometer_integral_dt":4993,"accelerometer_clipping":0}
{"timestamp":1014000802,"gyro_rad":[0.0041875495,0.0060258326,0.0007577356],"gyro_integral_dt":4995,"accelerometer_timestamp_relative":0,"accelerometer_m_s2":[-0.0509924926,0.0200524554,-9.8298635483],"accelerometer_integral_dt":4995,"accelerometer_clipping":0}
{"timestamp":1014009384,"gyro_rad":[0.0003020305,0.0013686847,-0.0016077177],"gyro_integral_dt":4995,"accelerometer_timestamp_relative":0,"accelerometer_m_s2":[-0.0418978669,-0.0426569059,-9.7644062042],"accelerometer_integral_dt":4995,"accelerometer_clipping":0}
{"timestamp":1014010687,"gyro_rad":[0.0083013317,0.007635178,0.001693362],"gyro_integral_dt":4996,"accelerometer_timestamp_relative":0,"accelerometer_m_s2":[-0.0047342787,-0.0005588508,-9.7510728836],"accelerometer_integral_dt":4996,"accelerometer_clipping":0}
{"timestamp":1014019219,"gyro_rad":[0.00258233,-0.0023317481,-0.0014792249],"gyro_integral_dt":4995,"accelerometer_timestamp_relative":0,"accelerometer_m_s2":[-0.0232631676,-0.0189829674,-9.8044576645],"accelerometer_integral_dt":4995,"accelerometer_clipping":0}
{"timestamp":1014020960,"gyro_rad":[0.0030214288,0.0105606355,0.0009543822],"gyro_integral_dt":4996,"accelerometer_timestamp_relative":0,"accelerometer_m_s2":[0.0455833301,-0.0693399459,-9.7927064896],"accelerometer_integral_dt":4996,"accelerometer_clipping":0}
{"timestamp":1014029453,"gyro_rad":[0.0041985544,-0.002825012,-0.00106407],"gyro_integral_dt":4994,"accelerometer_timestamp_relative":0,"accelerometer_m_s2":[0.0466945171,-0.0403219908,-9.8163490295],"accelerometer_integral_dt":4994,"accelerometer_clipping":0}
{"timestamp":1014030492,"gyro_rad":[0.0059168772,0.0093880845,-0.0002629108],"gyro_integral_dt":4998,"accelerometer_timestamp_relative":0,"accelerometer_m_s2":[0.0848835781,-0.047384467,-9.75066185],"accelerometer_integral_dt":4998,"accelerometer_clipping":0}
{"timestamp":1014037571,"gyro_rad":[0.0064199837,0.000082703,0.0005603513],"gyro_integral_dt":4993,"accelerometer_timestamp_relative":0,"accelerometer_m_s2":[0.106822066,0.0107668024,-9.7886123657],"accelerometer_integral_dt":4993,"accelerometer_clipping":0}
{"timestamp":1014050680,"gyro_rad":[0.0015759935,0.0057800356,-0.0019954096],"gyro_integral_dt":4995,"accelerometer_timestamp_relative":0,"accelerometer_m_s2":[0.0729014575,0.0165278297,-9.7905797958],"accelerometer_integral_dt":4995,"accelerometer_clipping":0}
{"timestamp":1014049652,"gyro_rad":[0.0075628939,0.0078145051,0.0016343792],"gyro_integral_dt":4993,"accelerometer_timestamp_relative":0,"accelerometer_m_s2":[0.1381274909,0.0356694683,-9.7801790237],"accelerometer_integral_dt":4993,"accelerometer_clipping":0}
{"timestamp":1014049457,"gyro_rad":[0.0033432811,-0.0009490352,-0.0030244654],"gyro_integral_dt":4998,"accelerometer_timestamp_relative":0,"accelerometer_m_s2":[0.0745797381,0.0776756555,-9.8345842361],"accelerometer_integral_dt":4998,"accelerometer_clipping":0}
{"timestamp":1014058699,"gyro_rad":[0.0051301131,0.0134619707,0.0017113315],"gyro_integral_dt":4995,"accelerometer_timestamp_relative":0,"accelerometer_m_s2":[0.0711678788,0.0504464358,-9.7761659622],"accelerometer_integral_dt":4995,"accelerometer_clipping":0}
{"timestamp":1014059206,"gyro_rad":[0.0016277644,-0.0013918409,-0.0020981589],"gyro_integral_dt":4995,"accelerometer_timestamp_relative":0,"accelerometer_m_s2":[0.0309059694,0.0690599531,-9.7378253937],"accelerometer_integral_dt":4995,"accelerometer_clipping":0}
{"timestamp":1014065738,"gyro_rad":[0.0053171902,0.0113360928,0.0012742491],"gyro_integral_dt":4996,"accelerometer_timestamp_relative":0,"accelerometer_m_s2":[-0.006321731,0.0637308955,-9.7871341705],"accelerometer_integral_dt":4996,"accelerometer_clipping":0}
{"timestamp":1014078593,"gyro_rad":[0.005392666,0.0020634318,0.000910138],"gyro_integral_dt":4995,"accelerometer_timestamp_relative":0,"accelerometer_m_s2":[-0.0219944902,0.0352993347,-9.8135786057],"accelerometer_integral_dt":4995,"accelerometer_clipping":0}
{"timestamp":1014080973,"gyro_rad":[0.0003394138,0.0077967602,-0.0011273078],"gyro_integral_dt":4996,"accelerometer_timestamp_relative":0,"accelerometer_m_s2":[-0.043584384,0.0432763249,-9.8184165955],"accelerometer_integral_dt":4996,"accelerometer_clipping":0}
{"timestamp":1014089306,"gyro_rad":[0.0043700868,0.00525821,0.0012648659],"gyro_integral_dt":4995,"accelerometer_timestamp_relative":0,"accelerometer_m_s2":[-0.0448441617,-0.0409381725,-9.7554731369],"accelerometer_integral_dt":4995,"accelerometer_clipping":0}
{"timestamp":1014090013,"gyro_rad":[0.0032819204,-0.0003307145,-0.0021868348],"gyro_integral_dt":5002,"accelerometer_timestamp_relative":0,"accelerometer_m_s2":[-0.0273250397,-0.0015610431,-9.7637891769],"accelerometer_integral_dt":5002,"accelerometer_clipping":0}
{"timestamp":1014110938,"gyro_rad":[0.0076626097,0.0108611202,0.0019171521],"gyro_integral_dt":4989,"accelerometer_timestamp_relative":0,"accelerometer_m_s2":[0.00764358,-0.0380350165,-9.7783584595],"accelerometer_integral_dt":4989,"accelerometer_clipping":0}
{"timestamp":1014110615,"gyro_rad":[0.0018992015,-0.0032804094,-0.0017246697],"gyro_integral_dt":4996,"accelerometer_timestamp_relative":0,"accelerometer_m_s2":[0.0275896937,-0.02819933,-9.8258523941],"accelerometer_integral_dt":4996,"accelerometer_clipping":0}
{"timestamp":1014112328,"gyro_rad":[0.0028901778,0.0101025579,0.0015964962],"gyro_integral_dt":4994,"accelerometer_timestamp_relative":0,"accelerometer_m_s2":[0.0496886484,-0.0549838617,-9.7853345871],"accelerometer_integral_dt":4994,"accelerometer_clipping":0}
{"timestamp":1014110927,"gyro_rad":[0.0063417661,-0.0020811288,0.0004361414],"gyro_integral_dt":4995,"accelerometer_timestamp_relative":0,"accelerometer_m_s2":[0.0709436312,-0.0248041507,-9.7975215912],"accelerometer_integral_dt":4995,"accelerometer_clipping":0}
{"timestamp":1014121106,"gyro_rad":[0.0040135202,0.0077422727,-0.0001181204],"gyro_integral_dt":4996,"accelerometer_timestamp_relative":0,"accelerometer_m_s2":[0.1035745442,-0.0157390554,-9.7839040756],"accelerometer_integral_dt":4996,"accelerometer_clipping":0}
{"timestamp":1014120285,"gyro_rad":[0.0048650308,0.0044563171,0.0003814019],"gyro_integral_dt":4995,"accelerometer_timestamp_relative":0,"accelerometer_m_s2":[0.076723665,0.0129124178,-9.7840633392],"accelerometer_integral_dt":4995,"accelerometer_clipping":0}
{"timestamp":1014131356,"gyro_rad":[0.0022899152,0.0016822875,-0.0004441525],"gyro_integral_dt":5003,"accelerometer_timestamp_relative":0,"accelerometer_m_s2":[0.1455798298,0.0093669556,-9.7853975296],"accelerometer_integral_dt":5003,"accelerometer_clipping":0}
{"timestamp":1014130360,"gyro_rad":[0.0088618342,0.0088604596,0.0012895557],"gyro_integral_dt":4987,"accelerometer_timestamp_relative":0,"accelerometer_m_s2":[0.0460312739,0.0856296495,-9.8215694427],"accelerometer_integral_dt":4987,"accelerometer_clipping":0}
{"timestamp":1014132339,"gyro_rad":[0.0038895102,-0.0005420107,-0.0021463812],"gyro_integral_dt":4996,"accelerometer_timestamp_relative":0,"accelerometer_m_s2":[0.0886353776,0.0338511318,-9.8014574051],"accelerometer_integral_dt":4996,"accelerometer_clipping":0}
{"timestamp":1014140448,"gyro_rad":[0.0026911572,0.0134231644,0.0005422693],"gyro_integral_dt":4995,"accelerometer_timestamp_relative":0,"accelerometer_m_s2":[0.0108009959,0.0856999978,-9.7760953903],"accelerometer_integral_dt":4995,"accelerometer_clipping":0}
{"timestamp":1014141938,"gyro_rad":[0.0054365057,-0.002918666,-0.0018419001],"gyro_integral_dt":4996,"accelerometer_timestamp_relative":0,"accelerometer_m_s2":[0.01365228,0.0328437723,-9.767033577],"accelerometer_integral_dt":4996,"accelerometer_clipping":0}
{"timestamp":1014157404,"gyro_rad":[0.0038167029,0.0115924953,0.000263282],"gyro_integral_dt":4996,"accelerometer_timestamp_relative":0,"accelerometer_m_s2":[-0.0173388738,0.0547800511,-9.7889318466],"accelerometer_integral_dt":4996,"accelerometer_clipping":0}
{"timestamp":1014160830,"gyro_rad":[0.0031826918,0.0016876133,0.0011848946],"gyro_integral_dt":4994,"accelerometer_timestamp_relative":0,"accelerometer_m_s2":[-0.035339158,0.015500322,-9.799782753],"accelerometer_integral_dt":4994,"accelerometer_clipping":0}
{"timestamp":1014160227,"gyro_rad":[0.0005820712,0.0058499258,0.0005200927],"gyro_integral_dt":4995,"accelerometer_timestamp_relative":0,"accelerometer_m_s2":[-0.0274539739,0.0064863269,-9.752243042],"accelerometer_integral_dt":4995,"accelerometer_clipping":0}
{"timestamp":1014170981,"gyro_rad":[0.0072093238,0.0067066094,-0.0004731909],"gyro_integral_dt":4998,"accelerometer_timestamp_relative":0,"accelerometer_m_s2":[-0.0198562928,-0.0127230631,-9.7941589355],"accelerometer_integral_dt":4998,"accelerometer_clipping":0}
{"timestamp":1014169930,"gyro_rad":[0.0039613275,0.001072455,-0.0029309765],"gyro_integral_dt":4992,"accelerometer_timestamp_relative":0,"accelerometer_m_s2":[0.0112873521,-0.0233800486,-9.7917718887],"accelerometer_integral_dt":4992,"accelerometer_clipping":0}
{"timestamp":1014171124,"gyro_rad":[0.0030565306,0.0093201203,0.0023273912],"gyro_integral_dt":4996,"accelerometer_timestamp_relative":0,"accelerometer_m_s2":[0.0407630466,-0.0718384087,-9.7816448212],"accelerometer_integral_dt":4996,"accelerometer_clipping":0}
{"timestamp":1014172362,"gyro_rad":[0.0031927989,-0.0021094929,-0.0026063032],"gyro_integral_dt":4993,"accelerometer_timestamp_relative":0,"accelerometer_m_s2":[0.0459287763,0.0027954294,-9.8138933182],"accelerometer_integral_dt":4993,"accelerometer_clipping":0}
{"timestamp":1014181626,"gyro_rad":[0.0058501945,0.0113253323,0.0009064763],"gyro_integral_dt":5003,"accelerometer_timestamp_relative":0,"accelerometer_m_s2":[0.0709875971,-0.0603474639,-9.8014669418],"accelerometer_integral_dt":5003,"accelerometer_clipping":0}
{"timestamp":1014188008,"gyro_rad":[0.0069101192,-0.0014038276,-0.0004911222],"gyro_integral_dt":4989,"accelerometer_timestamp_relative":0,"accelerometer_m_s2":[0.1196161211,0.0184383895,-9.7796773911],"accelerometer_integral_dt":4989,"accelerometer_clipping":0}
{"timestamp":1014199521,"gyro_rad":[0.0025156571,0.0068681086,-0.0010639542],"gyro_integral_dt":4996,"accelerometer_timestamp_relative":0,"accelerometer_m_s2":[0.0916890576,0.008011003,-9.7996463776],"accelerometer_integral_dt":4996,"accelerometer_clipping":0}
{"timestamp":1014199251,"gyro_rad":[0.0072504887,0.0048081507,0.0003378848],"gyro_integral_dt":4998,"accelerometer_timestamp_relative":0,"accelerometer_m_s2":[0.1290432066,0.0205489863,-9.778137207],"accelerometer_integral_dt":4998,"accelerometer_clipping":0}
{"timestamp":1014200629,"gyro_rad":[0.003210508,0.0013027638,-0.0007677021],"gyro_integral_dt":4994,"accelerometer_timestamp_relative":0,"accelerometer_m_s2":[0.0338084325,0.0668384731,-9.8242950439],"accelerometer_integral_dt":4994,"accelerometer_clipping":0}
{"timestamp":1014207836,"gyro_rad":[0.0073822481,0.0108954581,0.0005441747],"gyro_integral_dt":5001,"accelerometer_timestamp_relative":0,"accelerometer_m_s2":[0.121863775,0.0589529946,-9.7859249115],"accelerometer_integral_dt":5001,"accelerometer_clipping":0}
{"timestamp":1014219710,"gyro_rad":[-0.0002453255,-0.0019668587,-0.0026591155],"gyro_integral_dt":4990,"accelerometer_timestamp_relative":0,"accelerometer_m_s2":[0.0097626243,0.0457271934,-9.7901649475],"accelerometer_integral_dt":4990,"accelerometer_clipping":0}
{"timestamp":1014220099,"gyro_rad":[0.0085132038,0.0137072587,0.0020859162],"gyro_integral_dt":4995,"accelerometer_timestamp_relative":0,"accelerometer_m_s2":[0.034195669,0.0799645334,-9.781039238],"accelerometer_integral_dt":4995,"accelerometer_clipping":0}
{"timestamp":1014221178,"gyro_rad":[0.0023781708,-0.0007597941,-0.0019318513],"gyro_integral_dt":5005,"accelerometer_timestamp_relative":0,"accelerometer_m_s2":[-0.0197887905,0.0186720137,-9.7843484879],"accelerometer_integral_dt":5005,"accelerometer_clipping":0}
{"timestamp":1014227969,"gyro_rad":[0.0032778671,0.0097011887,0.0004946366],"gyro_integral_dt":4988,"accelerometer_timestamp_relative":0,"accelerometer_m_s2":[-0.0492533669,0.0518288277,-9.8198804855],"accelerometer_integral_dt":4988,"accelerometer_clipping":0}
{"timestamp":1014239312,"gyro_rad":[0.004344773,0.0020399042,0.0011007568],"gyro_integral_dt":4992,"accelerometer_timestamp_relative":0,"accelerometer_m_s2":[-0.0244408958,-0.0083562871,-9.7670621872],"accelerometer_integral_dt":4992,"accelerometer_clipping":0}
{"timestamp":1014238352,"gyro_rad":[0.0013467157,0.0013742219,-0.0016038499],"gyro_integral_dt":4995,"accelerometer_timestamp_relative":0,"accelerometer_m_s2":[-0.0042463941,-0.0427686609,-9.7563934326],"accelerometer_integral_dt":4995,"accelerometer_clipping":0}
{"timestamp":1014249856,"gyro_rad":[0.0060626934,0.0097544389,0.001244665],"gyro_integral_dt":4997,"accelerometer_timestamp_relative":0,"accelerometer_m_s2":[-0.0190069545,-0.0042902394,-9.7921800613],"accelerometer_integral_dt":4997,"accelerometer_clipping":0}
{"timestamp":1014248657,"gyro_rad":[-0.0006236683,-0.0031486489,-0.0022553627],"gyro_integral_dt":4991,"accelerometer_timestamp_relative":0,"accelerometer_m_s2":[0.0313101113,-0.0797641426,-9.7535238266],"accelerometer_integral_dt":4991,"accelerometer_clipping":0}
{"timestamp":1014259166,"gyro_rad":[0.0029083346,0.010654551,-0.0002420907],"gyro_integral_dt":4998,"accelerometer_timestamp_relative":0,"accelerometer_m_s2":[0.0406788923,-0.0104699228,-9.8388948441],"accelerometer_integral_dt":4998,"accelerometer_clipping":0}
{"timestamp":1014258332,"gyro_rad":[0.006458364,-0.0041812202,-0.0027296059],"gyro_integral_dt":4995,"accelerometer_timestamp_relative":0,"accelerometer_m_s2":[0.0765735731,-0.0614212044,-9.7859477997],"accelerometer_integral_dt":4995,"accelerometer_clipping":0}
{"timestamp":1014259521,"gyro_rad":[0.0041911858,0.0102033028,-0.0000522117],"gyro_integral_dt":4995,"accelerometer_timestamp_relative":0,"accelerometer_m_s2":[0.100733079,-0.0185731798,-9.7760076523],"accelerometer_integral_dt":4995,"accelerometer_clipping":0}
{"timestamp":1014261889,"gyro_rad":[0.0061462116,0.0002799937,0.0006583111],"gyro_integral_dt":4996,"accelerometer_timestamp_relative":0,"accelerometer_m_s2":[0.1101968661,0.0226208046,-9.7812891006],"accelerometer_integral_dt":4996,"accelerometer_clipping":0}
{"timestamp":1014281672,"gyro_rad":[0.0038054856,0.0063872468,-0.0018652638],"gyro_integral_dt":4995,"accelerometer_timestamp_relative":0,"accelerometer_m_s2":[0.1255053282,0.051695995,-9.7911500931],"accelerometer_integral_dt":4995,"accelerometer_clipping":0}
{"timestamp":1014280645,"gyro_rad":[0.0065284963,0.0049704276,0.001668933],"gyro_integral_dt":5002,"accelerometer_timestamp_relative":0,"accelerometer_m_s2":[0.0899270475,0.0154008847,-9.8026247025],"accelerometer_integral_dt":5002,"accelerometer_clipping":0}
{"timestamp":1014282004,"gyro_rad":[0.0032894586,0.0031434798,-0.0017440348],"gyro_integral_dt":4990,"accelerometer_timestamp_relative":0,"accelerometer_m_s2":[0.0751093253,0.1189543232,-9.8291025162],"accelerometer_integral_dt":4990,"accelerometer_clipping":0}
{"timestamp":1014282744,"gyro_rad":[0.0039823474,0.009146913,0.001417562],"gyro_integral_dt":4996,"accelerometer_timestamp_relative":0,"accelerometer_m_s2":[0.0431070328,-0.0073399493,-9.7557067871],"accelerometer_integral_dt":4996,"accelerometer_clipping":0}
{"timestamp":1014299676,"gyro_rad":[0.0036252444,-0.0013375379,-0.0014389947],"gyro_integral_dt":4996,"accelerometer_timestamp_relative":0,"accelerometer_m_s2":[0.0321080536,0.1389537007,-9.7821741104],"accelerometer_integral_dt":4996,"accelerometer_clipping":0}
{"timestamp":1014298707,"gyro_rad":[0.0037681006,0.0122092236,0.0008757549],"gyro_integral_dt":4992,"accelerometer_timestamp_relative":0,"accelerometer_m_s2":[-0.0129898218,-0.0070864037,-9.8056468964],"accelerometer_integral_dt":4992,"accelerometer_clipping":0}
{"timestamp":1014299966,"gyro_rad":[0.0034114073,-0.0013347879,-0.0003059444],"gyro_integral_dt":4997,"accelerometer_timestamp_relative":0,"accelerometer_m_s2":[-0.0251479875,0.0815992057,-9.821978569],"accelerometer_integral_dt":4997,"accelerometer_clipping":0}
{"timestamp":1014307492,"gyro_rad":[0.0010722679,0.0095527666,-0.0005213665],"gyro_integral_dt":4994,"accelerometer_timestamp_relative":0,"accelerometer_m_s2":[-0.0366078578,-0.0423683636,-9.7919692993],"accelerometer_integral_dt":4994,"accelerometer_clipping":0}
{"timestamp":1014312139,"gyro_rad":[0.0062780716,0.0018780661,0.0009583834],"gyro_integral_dt":4997,"accelerometer_timestamp_relative":0,"accelerometer_m_s2":[0.0034795636,-0.0045816507,-9.7420082092],"accelerometer_integral_dt":4997,"accelerometer_clipping":0}
{"timestamp":1014319527,"gyro_rad":[0.0018175981,0.0019877693,-0.0016464058],"gyro_integral_dt":4994,"accelerometer_timestamp_relative":0,"accelerometer_m_s2":[-0.0245753247,-0.0507530794,-9.7987232208],"accelerometer_integral_dt":4994,"accelerometer_clipping":0}
{"timestamp":1014320952,"gyro_rad":[0.0071106507,0.0090792673,0.0016286048],"gyro_integral_dt":4996,"accelerometer_timestamp_relative":0,"accelerometer_m_s2":[0.0409517325,-0.0233621858,-9.7623252869],"accelerometer_integral_dt":4996,"accelerometer_clipping":0}
{"timestamp":1014329124,"gyro_rad":[-0.0002033106,-0.0023691556,-0.0014987093],"gyro_integral_dt":4994,"accelerometer_timestamp_relative":0,"accelerometer_m_s2":[0.0378122181,-0.0599866807,-9.8263597488],"accelerometer_integral_dt":4994,"accelerometer_clipping":0}
{"timestamp":1014338466,"gyro_rad":[0.0085270666,0.0114693558,0.0019395705],"gyro_integral_dt":4997,"accelerometer_timestamp_relative":0,"accelerometer_m_s2":[0.0716553777,0.0013807531,-9.8272323608],"accelerometer_integral_dt":4997,"accelerometer_clipping":0}
{"timestamp":1014337788,"gyro_rad":[0.0053252806,-0.0040304777,-0.0020290925],"gyro_integral_dt":4994,"accelerometer_timestamp_relative":0,"accelerometer_m_s2":[0.104100883,-0.0436901972,-9.7692489624],"accelerometer_integral_dt":4994,"accelerometer_clipping":0}
{"timestamp":1014342341,"gyro_rad":[0.0032896099,0.0115451086,-0.0007563385],"gyro_integral_dt":4996,"accelerometer_timestamp_relative":0,"accelerometer_m_s2":[0.0808554217,0.0384056568,-9.7813091278],"accelerometer_integral_dt":4996,"accelerometer_clipping":0}
{"timestamp":1014349395,"gyro_rad":[0.0055041458,0.0029080501,-0.0012997387],"gyro_integral_dt":4995,"accelerometer_timestamp_relative":0,"accelerometer_m_s2":[0.1112189889,-0.0167413242,-9.7655830383],"accelerometer_integral_dt":4995,"accelerometer_clipping":0}
{"timestamp":1014359653,"gyro_rad":[0.0034094059,0.0044003176,-0.002005402],"gyro_integral_dt":4997,"accelerometer_timestamp_relative":0,"accelerometer_m_s2":[0.0739292204,0.0740270168,-9.8113241196],"accelerometer_integral_dt":4997,"accelerometer_clipping":0}
{"timestamp":1014358579,"gyro_rad":[0.00670654,0.0111681167,0.0005419467],"gyro_integral_dt":4993,"accelerometer_timestamp_relative":0,"accelerometer_m_s2":[0.06838727,0.0668257847,-9.8401651382],"accelerometer_integral_dt":4993,"accelerometer_clipping":0}
{"timestamp":1014367290,"gyro_rad":[0.0016419297,0.0001850409,-0.0016777024],"gyro_integral_dt":4996,"accelerometer_timestamp_relative":0,"accelerometer_m_s2":[0.0413184576,0.0682893842,-9.7891101837],"accelerometer_integral_dt":4996,"accelerometer_clipping":0}
{"timestamp":1014366304,"gyro_rad":[0.0062690694,0.0104752332,0.0019489514],"gyro_integral_dt":4997,"accelerometer_timestamp_relative":0,"accelerometer_m_s2":[0.0015420049,0.0591983907,-9.7463464737],"accelerometer_integral_dt":4997,"accelerometer_clipping":0}
{"timestamp":1014369036,"gyro_rad":[0.0036588523,-0.0014987075,-0.0010564099],"gyro_integral_dt":4993,"accelerometer_timestamp_relative":0,"accelerometer_m_s2":[-0.0185864232,0.0363513492,-9.8009233475],"accelerometer_integral_dt":4993,"accelerometer_clipping":0}
{"timestamp":1014378334,"gyro_rad":[0.0023746525,0.0112388814,0.0017871361],"gyro_integral_dt":4994,"accelerometer_timestamp_relative":0,"accelerometer_m_s2":[-0.030142732,0.037541613,-9.8270730972],"accelerometer_integral_dt":4994,"accelerometer_clipping":0}
{"timestamp":1014384327,"gyro_rad":[0.0029471521,-0.0002427228,-0.0003138327],"gyro_integral_dt":4998,"accelerometer_timestamp_relative":0,"accelerometer_m_s2":[-0.0434861369,0.0041485131,-9.798707962],"accelerometer_integral_dt":4998,"accelerometer_clipping":0}
{"timestamp":1014383248,"gyro_rad":[0.0024032493,0.0061447313,-0.001296547],"gyro_integral_dt":4994,"accelerometer_timestamp_relative":0,"accelerometer_m_s2":[-0.014148362,-0.0285756029,-9.7416982651],"accelerometer_integral_dt":4994,"accelerometer_clipping":0}
{"timestamp":1014391459,"gyro_rad":[0.0079967454,0.0056853057,0.0001140393],"gyro_integral_dt":4995,"accelerometer_timestamp_relative":0,"accelerometer_m_s2":[-0.0299274269,-0.0179127548,-9.7744312286],"accelerometer_integral_dt":4995,"accelerometer_clipping":0}
{"timestamp":1014398032,"gyro_rad":[0.0017259775,0.0013197759,-0.0008346228],"gyro_integral_dt":4996,"accelerometer_timestamp_relative":0,"accelerometer_m_s2":[0.0199284758,-0.0679573417,-9.7897043228],"accelerometer_integral_dt":4996,"accelerometer_clipping":0}
{"timestamp":1014408196,"gyro_rad":[0.0043820972,0.0099965222,0.0015156321],"gyro_integral_dt":4995,"accelerometer_timestamp_relative":0,"accelerometer_m_s2":[0.0472099409,-0.0493795574,-9.8292617798],"accelerometer_integral_dt":4995,"accelerometer_clipping":0}
{"timestamp":1014408854,"gyro_rad":[0.0043423572,-0.0036439467,-0.0010203072],"gyro_integral_dt":4998,"accelerometer_timestamp_relative":0,"accelerometer_m_s2":[0.0670131817,-0.0744913965,-9.7954587936],"accelerometer_integral_dt":4998,"accelerometer_clipping":0}
{"timestamp":1014409754,"gyro_rad":[0.0050086947,0.0116512207,0.0008707813],"gyro_integral_dt":5002,"accelerometer_timestamp_relative":0,"accelerometer_m_s2":[0.1129606068,-0.018107418,-9.7518539429],"accelerometer_integral_dt":5002,"accelerometer_clipping":0}
{"timestamp":1014418537,"gyro_rad":[0.0065627987,-0.0025807761,-0.0007979205],"gyro_integral_dt":4987,"accelerometer_timestamp_relative":0,"accelerometer_m_s2":[0.1161321774,0.0147745758,-9.7606115341],"accelerometer_integral_dt":4987,"accelerometer_clipping":0}
{"timestamp":1014430025,"gyro_rad":[0.0033287439,0.0103890216,-0.0005667867],"gyro_integral_dt":4995,"accelerometer_timestamp_relative":0,"accelerometer_m_s2":[0.1087150425,0.0437702015,-9.8025617599],"accelerometer_integral_dt":4995,"accelerometer_clipping":0}
{"timestamp":1014429038,"gyro_rad":[0.0067644008,0.0026699975,-0.0006009265],"gyro_integral_dt":4994,"accelerometer_timestamp_relative":0,"accelerometer_m_s2":[0.1048989296,0.0444822237,-9.787106514],"accelerometer_integral_dt":4994,"accelerometer_clipping":0}
{"timestamp":1014429989,"gyro_rad":[0.0022068683,0.0041173804,-0.0015355279],"gyro_integral_dt":4998,"accelerometer_timestamp_relative":0,"accelerometer_m_s2":[0.0659068897,0.0706091449,-9.828748703],"accelerometer_integral_dt":4998,"accelerometer_clipping":0}
{"timestamp":1014431517,"gyro_rad":[0.0053854776,0.0102688372,0.0017759904],"gyro_integral_dt":4995,"accelerometer_timestamp_relative":0,"accelerometer_m_s2":[0.0447845049,0.0662526935,-9.7652702332],"accelerometer_integral_dt":4995,"accelerometer_clipping":0}
{"timestamp":1014448826,"gyro_rad":[0.0024297803,-0.0016366548,-0.0030655614],"gyro_integral_dt":4995,"accelerometer_timestamp_relative":0,"accelerometer_m_s2":[0.0061670067,0.0563087203,-9.7381601334],"accelerometer_integral_dt":4995,"accelerometer_clipping":0}
{"timestamp":1014447867,"gyro_rad":[0.0080783255,0.0109911216,0.0027522969],"gyro_integral_dt":4995,"accelerometer_timestamp_relative":0,"accelerometer_m_s2":[0.0083381748,0.0472854748,-9.8058099747],"accelerometer_integral_dt":4995,"accelerometer_clipping":0}
{"timestamp":1014449036,"gyro_rad":[0.0022198097,-0.0014536128,-0.0016542537],"gyro_integral_dt":4995,"accelerometer_timestamp_relative":0,"accelerometer_m_s2":[-0.0214605629,0.038305331,-9.8358297348],"accelerometer_integral_dt":4995,"accelerometer_clipping":0}
{"timestamp":1014458594,"gyro_rad":[0.0024260916,0.0111124823,0.0004776703],"gyro_integral_dt":5001,"accelerometer_timestamp_relative":0,"accelerometer_m_s2":[-0.0489142612,0.0148834288,-9.7822284698],"accelerometer_integral_dt":5001,"accelerometer_clipping":0}
{"timestamp":1014470217,"gyro_rad":[0.0055088573,-0.0014295551,0.0006140271],"gyro_integral_dt":4989,"accelerometer_timestamp_relative":0,"accelerometer_m_s2":[-0.0126798451,-0.0393234193,-9.7460784912],"accelerometer_integral_dt":4989,"accelerometer_clipping":0}
{"timestamp":1014468119,"gyro_rad":[0.002168569,0.0048281508,-0.0004776971],"gyro_integral_dt":4995,"accelerometer_timestamp_relative":0,"accelerometer_m_s2":[-0.0360316373,-0.0383796133,-9.7886857986],"accelerometer_integral_dt":4995,"accelerometer_clipping":0}
{"timestamp":1014469723,"gyro_rad":[0.0066896938,0.0063168565,0.000811167],"gyro_integral_dt":4995,"accelerometer_timestamp_relative":0,"accelerometer_m_s2":[0.0156571455,-0.0308466423,-9.8104372025],"accelerometer_integral_dt":4995,"accelerometer_clipping":0}
{"timestamp":1014472764,"gyro_rad":[-0.0001392547,-0.0004038652,-0.0027408267],"gyro_integral_dt":4999,"accelerometer_timestamp_relative":0,"accelerometer_m_s2":[0.0102787018,-0.0627594292,-9.8246574402],"accelerometer_integral_dt":4999,"accelerometer_clipping":0}
{"timestamp":1014480895,"gyro_rad":[0.0087085254,0.0119995996,0.0011814047],"gyro_integral_dt":4997,"accelerometer_timestamp_relative":0,"accelerometer_m_s2":[0.0882069245,-0.0226797611,-9.781539917],"accelerometer_integral_dt":4997,"accelerometer_clipping":0}
{"timestamp":1014488980,"gyro_rad":[0.0054366216,-0.0038743857,-0.0013154092],"gyro_integral_dt":4995,"accelerometer_timestamp_relative":0,"accelerometer_m_s2":[0.0891089886,-0.0270110257,-9.7770252228],"accelerometer_integral_dt":4995,"accelerometer_clipping":0}
{"timestamp":1014500341,"gyro_rad":[0.0060931644,0.0108110169,0.0006093526],"gyro_integral_dt":4997,"accelerometer_timestamp_relative":0,"accelerometer_m_s2":[0.0977932066,-0.0083471099,-9.7904644012],"accelerometer_integral_dt":4997,"accelerometer_clipping":0}
{"timestamp":1014499200,"gyro_rad":[0.0031537425,0.0000872053,-0.0004213195],"gyro_integral_dt":4991,"accelerometer_timestamp_relative":0,"accelerometer_m_s2":[0.1245237216,0.0133966738,-9.7906751633],"accelerometer_integral_dt":4991,"accelerometer_clipping":0}
{"timestamp":1014510439,"gyro_rad":[0.0036216734,0.0064940411,-0.0002139752],"gyro_integral_dt":4999,"accelerometer_timestamp_relative":0,"accelerometer_m_s2":[0.0972510725,0.048068203,-9.8096656799],"accelerometer_integral_dt":4999,"accelerometer_clipping":0}
{"timestamp":1014509639,"gyro_rad":[0.0079167159,0.0069153206,0.0011552058],"gyro_integral_dt":4989,"accelerometer_timestamp_relative":0,"accelerometer_m_s2":[0.0711919367,0.0756827146,-9.7999458313],"accelerometer_integral_dt":4989,"accelerometer_clipping":0}
{"timestamp":1014512381,"gyro_rad":[0.0017378291,0.001863839,-0.002150787],"gyro_integral_dt":4995,"accelerometer_timestamp_relative":0,"accelerometer_m_s2":[0.0615078025,0.0566540621,-9.765668869],"accelerometer_integral_dt":4995,"accelerometer_clipping":0}
{"timestamp":1014511370,"gyro_rad":[0.0054330733,0.0094965249,0.0022444213],"gyro_integral_dt":4996,"accelerometer_timestamp_relative":0,"accelerometer_m_s2":[0.0394311883,0.0566140376,-9.7721204758],"accelerometer_integral_dt":4996,"accelerometer_clipping":0}
{"timestamp":1014529101,"gyro_rad":[0.0032187309,-0.0007948204,-0.0008375269],"gyro_integral_dt":4996,"accelerometer_timestamp_relative":0,"accelerometer_m_s2":[-0.0191567466,0.0383527353,-9.8110227585],"accelerometer_integral_dt":4996,"accelerometer_clipping":0}
{"timestamp":1014528205,"gyro_rad":[0.0039601238,0.0126663074,0.0009126095],"gyro_integral_dt":4994,"accelerometer_timestamp_relative":0,"accelerometer_m_s2":[-0.021203028,0.0172151681,-9.8086433411],"accelerometer_integral_dt":4994,"accelerometer_clipping":0}
{"timestamp":1014529541,"gyro_rad":[0.0043700757,-0.0001669604,-0.0000811487],"gyro_integral_dt":4997,"accelerometer_timestamp_relative":0,"accelerometer_m_s2":[-0.0440536812,0.0290349592,-9.7940788269],"accelerometer_integral_dt":4997,"accelerometer_clipping":0}
{"timestamp":1014538258,"gyro_rad":[0.0008368905,0.0078857187,-0.0001765255],"gyro_integral_dt":4995,"accelerometer_timestamp_relative":0,"accelerometer_m_s2":[-0.003316984,-0.0441117659,-9.7650947571],"accelerometer_integral_dt":4995,"accelerometer_clipping":0}
{"timestamp":1014542350,"gyro_rad":[0.0065172059,0.0021606146,0.0003061082],"gyro_integral_dt":4992,"accelerometer_timestamp_relative":0,"accelerometer_m_s2":[-0.0252562221,0.0181373358,-9.8033695221],"accelerometer_integral_dt":4992,"accelerometer_clipping":0}
{"timestamp":1014541547,"gyro_rad":[0.0037811261,0.002438155,-0.002003748],"gyro_integral_dt":4997,"accelerometer_timestamp_relative":0,"accelerometer_m_s2":[0.0293032415,-0.060969159,-9.7774000168],"accelerometer_integral_dt":4997,"accelerometer_clipping":0}
{"timestamp":1014559842,"gyro_rad":[0.0036229955,0.0082219262,0.0006300556],"gyro_integral_dt":4996,"accelerometer_timestamp_relative":0,"accelerometer_m_s2":[0.0078432793,-0.0443646275,-9.8118572235],"accelerometer_integral_dt":4996,"accelerometer_clipping":0}
{"timestamp":1014559621,"gyro_rad":[0.0035562324,-0.0021285226,-0.0020327093],"gyro_integral_dt":4997,"accelerometer_timestamp_relative":0,"accelerometer_m_s2":[0.0947358832,-0.0534746386,-9.7886238098],"accelerometer_integral_dt":4997,"accelerometer_clipping":0}
{"timestamp":1014559402,"gyro_rad":[0.0058978964,0.0114078047,0.0002466576],"gyro_integral_dt":4994,"accelerometer_timestamp_relative":0,"accelerometer_m_s2":[0.0498826206,-0.0368376262,-9.7922792435],"accelerometer_integral_dt":4994,"accelerometer_clipping":0}
{"timestamp":1014568322,"gyro_rad":[0.0065120328,-0.0042685354,-0.0013701684],"gyro_integral_dt":4995,"accelerometer_timestamp_relative":0,"accelerometer_m_s2":[0.1327676475,-0.0310906693,-9.7847833633],"accelerometer_integral_dt":4995,"accelerometer_clipping":0}
{"timestamp":1014580692,"gyro_rad":[0.0052042599,0.0113667222,0.0010328701],"gyro_integral_dt":4995,"accelerometer_timestamp_relative":0,"accelerometer_m_s2":[0.0734166354,0.0477093309,-9.8014678955],"accelerometer_integral_dt":4995,"accelerometer_clipping":0}
{"timestamp":1014577731,"gyro_rad":[0.0062618218,-0.0002799805,0.0000691488],"gyro_integral_dt":4999,"accelerometer_timestamp_relative":0,"accelerometer_m_s2":[0.1433791965,-0.008812556,-9.7618951797],"accelerometer_integral_dt":4999,"accelerometer_clipping":0}
{"timestamp":1014594869,"gyro_rad":[0.0026088753,0.0065773153,-0.0004694511],"gyro_integral_dt":5000,"accelerometer_timestamp_relative":0,"accelerometer_m_s2":[0.0506583676,0.1179004684,-9.8223638535],"accelerometer_integral_dt":5000,"accelerometer_clipping":0}
{"timestamp":1014593708,"gyro_rad":[0.0074185389,0.006825076,0.0014214192],"gyro_integral_dt":4994,"accelerometer_timestamp_relative":0,"accelerometer_m_s2":[0.0849924386,0.0190157201,-9.7767620087],"accelerometer_integral_dt":4994,"accelerometer_clipping":0}
{"timestamp":1014594719,"gyro_rad":[-0.0004444149,0.0015150587,-0.0017211599],"gyro_integral_dt":4994,"accelerometer_timestamp_relative":0,"accelerometer_m_s2":[0.0035787178,0.1228290424,-9.7963247299],"accelerometer_integral_dt":4994,"accelerometer_clipping":0}
{"timestamp":1014594376,"gyro_rad":[0.0072658975,0.0096558873,0.0015839871],"gyro_integral_dt":4990,"accelerometer_timestamp_relative":0,"accelerometer_m_s2":[0.019206427,0.0258870646,-9.7925729752],"accelerometer_integral_dt":4990,"accelerometer_clipping":0}
{"timestamp":1014610493,"gyro_rad":[0.0014759679,-0.0014867163,-0.000370223],"gyro_integral_dt":4995,"accelerometer_timestamp_relative":0,"accelerometer_m_s2":[-0.0113565,0.0510564856,-9.7780990601],"accelerometer_integral_dt":4995,"accelerometer_clipping":0}
{"timestamp":1014608756,"gyro_rad":[0.0045399955,0.0124345468,0.0007603663],"gyro_integral_dt":4995,"accelerometer_timestamp_relative":0,"accelerometer_m_s2":[-0.0311740581,0.0121751362,-9.8275489807],"accelerometer_integral_dt":4995,"accelerometer_clipping":0}
{"timestamp":1014621644,"gyro_rad":[0.0033041018,-0.0028754368,-0.0005262214],"gyro_integral_dt":4995,"accelerometer_timestamp_relative":0,"accelerometer_m_s2":[-0.0065098586,-0.004189678,-9.7845077515],"accelerometer_integral_dt":4995,"accelerometer_clipping":0}
{"timestamp":1014620992,"gyro_rad":[0.0018911267,0.0064007891,-0.0000791662],"gyro_integral_dt":4996,"accelerometer_timestamp_relative":0,"accelerometer_m_s2":[-0.0174380168,-0.0283387061,-9.7998170853],"accelerometer_integral_dt":4996,"accelerometer_clipping":0}
{"timestamp":1014622335,"gyro_rad":[0.0066005392,0.006134335,0.0006118977],"gyro_integral_dt":4996,"accelerometer_timestamp_relative":0,"accelerometer_m_s2":[-0.0084463349,0.0027377398,-9.7907295227],"accelerometer_integral_dt":4996,"accelerometer_clipping":0}
{"timestamp":1014627028,"gyro_rad":[0.0005216051,0.0003657548,-0.0022818313],"gyro_integral_dt":4997,"accelerometer_timestamp_relative":0,"accelerometer_m_s2":[0.0306069274,-0.1007731408,-9.7681598663],"accelerometer_integral_dt":4997,"accelerometer_clipping":0}
{"timestamp":1014640884,"gyro_rad":[0.0058640083,0.0090202792,0.0012165536],"gyro_integral_dt":4993,"accelerometer_timestamp_relative":0,"accelerometer_m_s2":[0.0664601251,0.0164680928,-9.7967882156],"accelerometer_integral_dt":4993,"accelerometer_clipping":0}
{"timestamp":1014640025,"gyro_rad":[0.005906472,-0.0027796931,-0.0020467241],"gyro_integral_dt":4995,"accelerometer_timestamp_relative":0,"accelerometer_m_s2":[0.0789552927,-0.0729100928,-9.805888176],"accelerometer_integral_dt":4995,"accelerometer_clipping":0}
{"timestamp":1014651078,"gyro_rad":[0.0051806858,0.0114043625,0.0000603127],"gyro_integral_dt":4996,"accelerometer_timestamp_relative":0,"accelerometer_m_s2":[0.1262218356,0.0271814484,-9.8018293381],"accelerometer_integral_dt":4996,"accelerometer_clipping":0}
