{"timestamp":401706969,"gyro_rad":[0.0022876721,0.0069756531,-0.0016162154],"gyro_integral_dt":4996,"accelerometer_timestamp_relative":0,"accelerometer_m_s2":[-0.0308904797,0.069645904,-9.7556228638],"accelerometer_integral_dt":4996,"accelerometer_clipping":0}
{"timestamp":401708354,"gyro_rad":[0.0054482585,0.004840727,0.0018490389],"gyro_integral_dt":4995,"accelerometer_timestamp_relative":0,"accelerometer_m_s2":[-0.0078818873,0.0060560666,-9.7980480194],"accelerometer_integral_dt":4995,"accelerometer_clipping":0}
{"timestamp":401720432,"gyro_rad":[0.0012921813,0.0025381364,-0.0021456201],"gyro_integral_dt":4995,"accelerometer_timestamp_relative":0,"accelerometer_m_s2":[-0.0635854378,0.0020094544,-9.8295459747],"accelerometer_integral_dt":4995,"accelerometer_clipping":0}
{"timestamp":401721149,"gyro_rad":[0.0055348268,0.0115854694,0.002300445],"gyro_integral_dt":4998,"accelerometer_timestamp_relative":0,"accelerometer_m_s2":[-0.0429957248,-0.0510609411,-9.7429552078],"accelerometer_integral_dt":4998,"accelerometer_clipping":0}
{"timestamp":401727202,"gyro_rad":[0.0040571443,-0.0045411522,-0.001074901],"gyro_integral_dt":5001,"accelerometer_timestamp_relative":0,"accelerometer_m_s2":[-0.0328504257,-0.0291124191,-9.7478723526],"accelerometer_integral_dt":5001,"accelerometer_clipping":0}
{"timestamp":401738194,"gyro_rad":[0.0062082428,0.0126539152,0.0010359819],"gyro_integral_dt":4993,"accelerometer_timestamp_relative":0,"accelerometer_m_s2":[-0.0292283949,-0.0709307715,-9.8391065598],"accelerometer_integral_dt":4993,"accelerometer_clipping":0}
{"timestamp":401738670,"gyro_rad":[0.0063026077,-0.0021988829,-0.0026351814],"gyro_integral_dt":4994,"accelerometer_timestamp_relative":0,"accelerometer_m_s2":[0.0269271918,-0.0456052944,-9.7839593887],"accelerometer_integral_dt":4994,"accelerometer_clipping":0}
{"timestamp":401739471,"gyro_rad":[0.005188541,0.0067415424,-0.00055846],"gyro_integral_dt":4997,"accelerometer_timestamp_relative":0,"accelerometer_m_s2":[0.0584346615,-0.0315049253,-9.7616977692],"accelerometer_integral_dt":4997,"accelerometer_clipping":0}
{"timestamp":401741080,"gyro_rad":[0.0081470329,0.0026305574,0.0002502692],"gyro_integral_dt":4992,"accelerometer_timestamp_relative":0,"accelerometer_m_s2":[0.0782498643,0.0146516738,-9.7644824982],"accelerometer_integral_dt":4992,"accelerometer_clipping":0}
{"timestamp":401748186,"gyro_rad":[0.0031854757,0.0036632398,-0.0021763074],"gyro_integral_dt":4997,"accelerometer_timestamp_relative":0,"accelerometer_m_s2":[0.1245973334,-0.0035330174,-9.7712478638],"accelerometer_integral_dt":4997,"accelerometer_clipping":0}
{"timestamp":401750712,"gyro_rad":[0.0085372701,0.0083939452,0.000545642],"gyro_integral_dt":4993,"accelerometer_timestamp_relative":0,"accelerometer_m_s2":[0.0916104987,0.0967489704,-9.8479728699],"accelerometer_integral_dt":4993,"accelerometer_clipping":0}
{"timestamp":401757321,"gyro_rad":[0.0043834453,0.001587513,-0.0019914596],"gyro_integral_dt":4995,"accelerometer_timestamp_relative":0,"accelerometer_m_s2":[0.1063569859,0.0558968335,-9.8054037094],"accelerometer_integral_dt":4995,"accelerometer_clipping":0}
{"timestamp":401768384,"gyro_rad":[0.0062368251,0.0108929025,0.0009650113],"gyro_integral_dt":4997,"accelerometer_timestamp_relative":0,"accelerometer_m_s2":[0.114566341,0.1107635647,-9.7632341385],"accelerometer_integral_dt":4997,"accelerometer_clipping":0}
{"timestamp":401769938,"gyro_rad":[0.0063093947,-0.0015660546,-0.0015051356],"gyro_integral_dt":4996,"accelerometer_timestamp_relative":0,"accelerometer_m_s2":[0.0660485625,0.1177344322,-9.776184082],"accelerometer_integral_dt":4996,"accelerometer_clipping":0}
{"timestamp":401779319,"gyro_rad":[0.0013000175,0.0125035094,-0.0001083883],"gyro_integral_dt":4995,"accelerometer_timestamp_relative":0,"accelerometer_m_s2":[0.052157674,0.0948713496,-9.7861232758],"accelerometer_integral_dt":4995,"accelerometer_clipping":0}
{"timestamp":401780000,"gyro_rad":[0.0047822092,0.0012258462,-0.0007125983],"gyro_integral_dt":4997,"accelerometer_timestamp_relative":0,"accelerometer_m_s2":[-0.0017252031,0.0640771091,-9.8032808304],"accelerometer_integral_dt":4997,"accelerometer_clipping":0}
{"timestamp":401783159,"gyro_rad":[0.000336277,0.0049067675,0.0003646383],"gyro_integral_dt":4994,"accelerometer_timestamp_relative":0,"accelerometer_m_s2":[-0.0233798604,0.0598844551,-9.8228759766],"accelerometer_integral_dt":4994,"accelerometer_clipping":0}
{"timestamp":401788914,"gyro_rad":[0.0061712726,0.006528765,0.0017289454],"gyro_integral_dt":4996,"accelerometer_timestamp_relative":0,"accelerometer_m_s2":[-0.0448517241,0.0142366039,-9.7809095383],"accelerometer_integral_dt":4996,"accelerometer_clipping":0}
{"timestamp":401798079,"gyro_rad":[0.0008263523,0.0021693325,-0.0036982661],"gyro_integral_dt":4995,"accelerometer_timestamp_relative":0,"accelerometer_m_s2":[-0.0794163719,-0.0399746336,-9.7450618744],"accelerometer_integral_dt":4995,"accelerometer_clipping":0}
{"timestamp":401798924,"gyro_rad":[0.0065303422,0.0071462295,0.0009146243],"gyro_integral_dt":4996,"accelerometer_timestamp_relative":0,"accelerometer_m_s2":[-0.0296930689,-0.0381670967,-9.7953271866],"accelerometer_integral_dt":4996,"accelerometer_clipping":0}
{"timestamp":401807853,"gyro_rad":[0.0034180344,-0.003682988,-0.0023465455],"gyro_integral_dt":4997,"accelerometer_timestamp_relative":0,"accelerometer_m_s2":[-0.021192085,-0.0813707858,-9.8469648361],"accelerometer_integral_dt":4997,"accelerometer_clipping":0}
{"timestamp":401808928,"gyro_rad":[0.0062869638,0.0133519461,0.0011703577],"gyro_integral_dt":4996,"accelerometer_timestamp_relative":0,"accelerometer_m_s2":[0.0208157282,-0.0583429858,-9.7647390366],"accelerometer_integral_dt":4996,"accelerometer_clipping":0}
{"timestamp":401812179,"gyro_rad":[0.0071174642,-0.0018031882,-0.0018484353],"gyro_integral_dt":5008,"accelerometer_timestamp_relative":0,"accelerometer_m_s2":[0.0526466258,-0.0245088227,-9.7391605377],"accelerometer_integral_dt":5008,"accelerometer_clipping":0}
{"timestamp":401829941,"gyro_rad":[0.0040256358,0.0067163142,-0.0023721012],"gyro_integral_dt":4981,"accelerometer_timestamp_relative":0,"accelerometer_m_s2":[0.0762760565,-0.0152216945,-9.7730875015],"accelerometer_integral_dt":4981,"accelerometer_clipping":0}
{"timestamp":401828784,"gyro_rad":[0.0077922055,0.0053587458,-0.0001712552],"gyro_integral_dt":4996,"accelerometer_timestamp_relative":0,"accelerometer_m_s2":[0.104641214,0.0104396306,-9.8419771194],"accelerometer_integral_dt":4996,"accelerometer_clipping":0}
{"timestamp":401830152,"gyro_rad":[0.0047002821,0.0001943936,-0.0026342145],"gyro_integral_dt":5006,"accelerometer_timestamp_relative":0,"accelerometer_m_s2":[0.1227668151,0.0493065082,-9.8064451218],"accelerometer_integral_dt":5006,"accelerometer_clipping":0}
{"timestamp":401838779,"gyro_rad":[0.0062066475,0.0104920929,0.0005127102],"gyro_integral_dt":4992,"accelerometer_timestamp_relative":0,"accelerometer_m_s2":[0.1083182842,0.0688270852,-9.759552002],"accelerometer_integral_dt":4992,"accelerometer_clipping":0}
{"timestamp":401839794,"gyro_rad":[0.0029315047,-0.003300695,-0.002662522],"gyro_integral_dt":4998,"accelerometer_timestamp_relative":0,"accelerometer_m_s2":[0.1014621705,0.0505256578,-9.7395534515],"accelerometer_integral_dt":4998,"accelerometer_clipping":0}
{"timestamp":401848108,"gyro_rad":[0.0074276533,0.0121182725,0.0016978148],"gyro_integral_dt":4993,"accelerometer_timestamp_relative":0,"accelerometer_m_s2":[0.0596181937,0.1360520869,-9.8264808655],"accelerometer_integral_dt":4993,"accelerometer_clipping":0}
{"timestamp":401849219,"gyro_rad":[0.0066381376,-0.000844127,-0.0009118499],"gyro_integral_dt":4993,"accelerometer_timestamp_relative":0,"accelerometer_m_s2":[0.0773726925,0.0666145384,-9.832983017],"accelerometer_integral_dt":4993,"accelerometer_clipping":0}
{"timestamp":401856706,"gyro_rad":[0.0013669524,0.0110128727,-0.0001029355],"gyro_integral_dt":4994,"accelerometer_timestamp_relative":0,"accelerometer_m_s2":[0.0170998666,0.081991896,-9.7794685364],"accelerometer_integral_dt":4994,"accelerometer_clipping":0}
{"timestamp":401858849,"gyro_rad":[0.0087398868,0.0018202623,-0.0003355548],"gyro_integral_dt":4993,"accelerometer_timestamp_relative":0,"accelerometer_m_s2":[-0.0124094049,0.001543164,-9.7495145798],"accelerometer_integral_dt":4993,"accelerometer_clipping":0}
{"timestamp":401868698,"gyro_rad":[0.0011608012,0.004247989,-0.0012863572],"gyro_integral_dt":5002,"accelerometer_timestamp_relative":0,"accelerometer_m_s2":[-0.0473403446,0.0114393197,-9.7543077469],"accelerometer_integral_dt":5002,"accelerometer_clipping":0}
{"timestamp":401870443,"gyro_rad":[0.0064959568,0.009775579,0.0018813106],"gyro_integral_dt":4990,"accelerometer_timestamp_relative":0,"accelerometer_m_s2":[-0.0446791984,-0.0426531285,-9.8217887878],"accelerometer_integral_dt":4990,"accelerometer_clipping":0}
{"timestamp":401878248,"gyro_rad":[0.0003215245,-0.0026452749,-0.0023763357],"gyro_integral_dt":4995,"accelerometer_timestamp_relative":0,"accelerometer_m_s2":[-0.0324363448,-0.0439257585,-9.8124828339],"accelerometer_integral_dt":4995,"accelerometer_clipping":0}
{"timestamp":401880032,"gyro_rad":[0.007066804,0.0103565576,0.0013033114],"gyro_integral_dt":4995,"accelerometer_timestamp_relative":0,"accelerometer_m_s2":[-0.0145597486,-0.0642457604,-9.7968273163],"accelerometer_integral_dt":4995,"accelerometer_clipping":0}
{"timestamp":401887789,"gyro_rad":[0.0054791709,-0.0014908243,-0.0029507375],"gyro_integral_dt":4998,"accelerometer_timestamp_relative":0,"accelerometer_m_s2":[0.0091797207,-0.047018975,-9.7661514282],"accelerometer_integral_dt":4998,"accelerometer_clipping":0}
{"timestamp":401899898,"gyro_rad":[0.0059410222,0.0094817933,-0.0008438622],"gyro_integral_dt":4994,"accelerometer_timestamp_relative":0,"accelerometer_m_s2":[0.0252472889,-0.044657629,-9.7506494522],"accelerometer_integral_dt":4994,"accelerometer_clipping":0}
{"timestamp":401898839,"gyro_rad":[0.005923165,-0.000514297,-0.0015852039],"gyro_integral_dt":4998,"accelerometer_timestamp_relative":0,"accelerometer_m_s2":[0.05408898,0.0046912655,-9.8425149918],"accelerometer_integral_dt":4998,"accelerometer_clipping":0}
{"timestamp":401901835,"gyro_rad":[0.0057029361,0.0064065522,-0.0018547459],"gyro_integral_dt":4993,"accelerometer_timestamp_relative":0,"accelerometer_m_s2":[0.084289968,-0.0266730227,-9.8071470261],"accelerometer_integral_dt":4993,"accelerometer_clipping":0}
{"timestamp":401901440,"gyro_rad":[0.0081115896,0.0040046815,-0.0009234105],"gyro_integral_dt":4996,"accelerometer_timestamp_relative":0,"accelerometer_m_s2":[0.1272544265,0.0363153853,-9.7640457153],"accelerometer_integral_dt":4996,"accelerometer_clipping":0}
{"timestamp":401909373,"gyro_rad":[0.003382059,0.0010789718,-0.0006193471],"gyro_integral_dt":4996,"accelerometer_timestamp_relative":0,"accelerometer_m_s2":[0.0887011215,0.075826928,-9.7768173218],"accelerometer_integral_dt":4996,"accelerometer_clipping":0}
{"timestamp":401929305,"gyro_rad":[0.0050068316,-0.0032712952,-0.0022988422],"gyro_integral_dt":5000,"accelerometer_timestamp_relative":0,"accelerometer_m_s2":[0.0733035281,0.0820509046,-9.8275918961],"accelerometer_integral_dt":5000,"accelerometer_clipping":0}
{"timestamp":401928284,"gyro_rad":[0.0072399159,0.0131712686,0.0025684198],"gyro_integral_dt":4992,"accelerometer_timestamp_relative":0,"accelerometer_m_s2":[0.0691239312,0.1193258092,-9.8314638138],"accelerometer_integral_dt":4992,"accelerometer_clipping":0}
{"timestamp":401939756,"gyro_rad":[0.0021055818,-0.0029206483,-0.000953266],"gyro_integral_dt":4997,"accelerometer_timestamp_relative":0,"accelerometer_m_s2":[0.0550646447,0.0564917699,-9.7419967651],"accelerometer_integral_dt":4997,"accelerometer_clipping":0}
{"timestamp":401939670,"gyro_rad":[0.0031525418,0.0090804826,0.0002256983],"gyro_integral_dt":4993,"accelerometer_timestamp_relative":0,"accelerometer_m_s2":[-0.0191499256,0.0883365721,-9.797621727],"accelerometer_integral_dt":4993,"accelerometer_clipping":0}
{"timestamp":401949015,"gyro_rad":[0.0060320729,0.0034041076,0.00032137],"gyro_integral_dt":4996,"accelerometer_timestamp_relative":0,"accelerometer_m_s2":[-0.0093821445,-0.0058731386,-9.7569923401],"accelerometer_integral_dt":4996,"accelerometer_clipping":0}
{"timestamp":401947968,"gyro_rad":[0.0038472416,0.0028137378,-0.0020191153],"gyro_integral_dt":4996,"accelerometer_timestamp_relative":0,"accelerometer_m_s2":[-0.082026422,0.037985079,-9.8486127853],"accelerometer_integral_dt":4996,"accelerometer_clipping":0}
{"timestamp":401952536,"gyro_rad":[0.0017327439,0.0085211303,0.0012037752],"gyro_integral_dt":4996,"accelerometer_timestamp_relative":0,"accelerometer_m_s2":[-0.0440290049,-0.0922566801,-9.7606544495],"accelerometer_integral_dt":4996,"accelerometer_clipping":0}
{"timestamp":401953445,"gyro_rad":[0.0017762259,-0.0031430786,-0.0019065525],"gyro_integral_dt":4996,"accelerometer_timestamp_relative":0,"accelerometer_m_s2":[-0.0327972248,-0.0109816352,-9.7416725159],"accelerometer_integral_dt":4996,"accelerometer_clipping":0}
{"timestamp":401960539,"gyro_rad":[0.0083908634,0.0129113672,0.0006247249],"gyro_integral_dt":4993,"accelerometer_timestamp_relative":0,"accelerometer_m_s2":[-0.0081586894,-0.1101321951,-9.8231630325],"accelerometer_integral_dt":4993,"accelerometer_clipping":0}
{"timestamp":401968023,"gyro_rad":[0.0063095754,-0.0011273195,-0.0022567788],"gyro_integral_dt":4996,"accelerometer_timestamp_relative":0,"accelerometer_m_s2":[0.0488061458,-0.0565720499,-9.7840204239],"accelerometer_integral_dt":4996,"accelerometer_clipping":0}
{"timestamp":401969222,"gyro_rad":[0.0041000675,0.0098923612,-0.0012022959],"gyro_integral_dt":4999,"accelerometer_timestamp_relative":0,"accelerometer_m_s2":[0.071723409,-0.0339382887,-9.8118658066],"accelerometer_integral_dt":4999,"accelerometer_clipping":0}
{"timestamp":401978397,"gyro_rad":[0.0094076004,-0.0005884481,-0.0021043464],"gyro_integral_dt":4994,"accelerometer_timestamp_relative":0,"accelerometer_m_s2":[0.0881147683,0.027563829,-9.7906341553],"accelerometer_integral_dt":4994,"accelerometer_clipping":0}
{"timestamp":401978103,"gyro_rad":[0.0044366065,0.0074683535,-0.0017190889],"gyro_integral_dt":5000,"accelerometer_timestamp_relative":0,"accelerometer_m_s2":[0.1199533716,-0.0457392149,-9.7777433395],"accelerometer_integral_dt":5000,"accelerometer_clipping":0}
{"timestamp":401986809,"gyro_rad":[0.0101318704,0.005116811,-0.0002840569],"gyro_integral_dt":4990,"accelerometer_timestamp_relative":0,"accelerometer_m_s2":[0.1226802245,0.1143782437,-9.7854967117],"accelerometer_integral_dt":4990,"accelerometer_clipping":0}
{"timestamp":401988018,"gyro_rad":[0.0061626765,-0.0020853553,-0.0033595839],"gyro_integral_dt":4997,"accelerometer_timestamp_relative":0,"accelerometer_m_s2":[0.1184123009,0.0537554957,-9.8232908249],"accelerometer_integral_dt":4997,"accelerometer_clipping":0}
{"timestamp":401998263,"gyro_rad":[0.0033367109,0.0119600706,-0.0007917927],"gyro_integral_dt":4995,"accelerometer_timestamp_relative":0,"accelerometer_m_s2":[0.1288703531,0.0659619048,-9.8108625412],"accelerometer_integral_dt":4995,"accelerometer_clipping":0}
{"timestamp":401999222,"gyro_rad":[0.0081742266,-0.0000854481,-0.0017059465],"gyro_integral_dt":4995,"accelerometer_timestamp_relative":0,"accelerometer_m_s2":[0.0400708653,0.1331614256,-9.7551612854],"accelerometer_integral_dt":4995,"accelerometer_clipping":0}
{"timestamp":402007153,"gyro_rad":[0.001863208,0.0085387267,0.0002242871],"gyro_integral_dt":5001,"accelerometer_timestamp_relative":0,"accelerometer_m_s2":[0.0921819806,0.0419571176,-9.7328653336],"accelerometer_integral_dt":5001,"accelerometer_clipping":0}
{"timestamp":402008114,"gyro_rad":[0.0033751319,0.0042108893,-0.0009285983],"gyro_integral_dt":4993,"accelerometer_timestamp_relative":0,"accelerometer_m_s2":[-0.0385129116,0.0989520922,-9.8712110519],"accelerometer_integral_dt":4993,"accelerometer_clipping":0}
{"timestamp":402018451,"gyro_rad":[0.0024790748,0.0069273547,-0.0005031282],"gyro_integral_dt":4996,"accelerometer_timestamp_relative":0,"accelerometer_m_s2":[0.0288271084,0.0046343077,-9.7953081131],"accelerometer_integral_dt":4996,"accelerometer_clipping":0}
{"timestamp":402018957,"gyro_rad":[0.0091413753,0.0045619751,-0.000618867],"gyro_integral_dt":4991,"accelerometer_timestamp_relative":0,"accelerometer_m_s2":[-0.0683352351,0.0589992404,-9.7931718826],"accelerometer_integral_dt":4991,"accelerometer_clipping":0}
{"timestamp":402027467,"gyro_rad":[0.0005085779,0.0040488997,-0.0032297943],"gyro_integral_dt":4997,"accelerometer_timestamp_relative":0,"accelerometer_m_s2":[-0.055875849,-0.0960388184,-9.7469215393],"accelerometer_integral_dt":4997,"accelerometer_clipping":0}
{"timestamp":402029162,"gyro_rad":[0.0063821645,0.0091826273,0.0011861676],"gyro_integral_dt":4996,"accelerometer_timestamp_relative":0,"accelerometer_m_s2":[-0.0406945124,0.0094593242,-9.7211427689],"accelerometer_integral_dt":4996,"accelerometer_clipping":0}
{"timestamp":402037842,"gyro_rad":[0.0015620819,-0.0047695418,-0.0026348517],"gyro_integral_dt":4998,"accelerometer_timestamp_relative":0,"accelerometer_m_s2":[0.0026931143,-0.1278683245,-9.8443746567],"accelerometer_integral_dt":4998,"accelerometer_clipping":0}
{"timestamp":402038606,"gyro_rad":[0.005180337,0.015068898,0.0000267436],"gyro_integral_dt":4994,"accelerometer_timestamp_relative":0,"accelerometer_m_s2":[-0.0115048978,-0.0482268296,-9.8005857468],"accelerometer_integral_dt":4994,"accelerometer_clipping":0}
{"timestamp":402041625,"gyro_rad":[0.0068349447,-0.003562151,-0.0019347538],"gyro_integral_dt":5003,"accelerometer_timestamp_relative":0,"accelerometer_m_s2":[0.0780587867,-0.0674752742,-9.74289608],"accelerometer_integral_dt":5003,"accelerometer_clipping":0}
{"timestamp":402059197,"gyro_rad":[0.0034579905,0.0059131114,-0.0023541821],"gyro_integral_dt":4988,"accelerometer_timestamp_relative":0,"accelerometer_m_s2":[0.0391475148,0.0534927994,-9.789809227],"accelerometer_integral_dt":4988,"accelerometer_clipping":0}
{"timestamp":402059770,"gyro_rad":[0.0068846033,0.0062762937,-0.000859429],"gyro_integral_dt":4998,"accelerometer_timestamp_relative":0,"accelerometer_m_s2":[0.12856628,-0.0497459583,-9.7802934647],"accelerometer_integral_dt":4998,"accelerometer_clipping":0}
{"timestamp":402060333,"gyro_rad":[0.0043012057,0.0008399953,-0.0020202682],"gyro_integral_dt":4993,"accelerometer_timestamp_relative":0,"accelerometer_m_s2":[0.1266207546,0.1062908992,-9.8041276932],"accelerometer_integral_dt":4993,"accelerometer_clipping":0}
{"timestamp":402067897,"gyro_rad":[0.0096729966,0.0081398552,0.0023883823],"gyro_integral_dt":4998,"accelerometer_timestamp_relative":0,"accelerometer_m_s2":[0.0904235467,0.0284245666,-9.8010454178],"accelerometer_integral_dt":4998,"accelerometer_clipping":0}
{"timestamp":402069151,"gyro_rad":[0.0002525307,-0.0017314375,-0.0020369408],"gyro_integral_dt":4997,"accelerometer_timestamp_relative":0,"accelerometer_m_s2":[0.1176440418,0.1008506864,-9.7304439545],"accelerometer_integral_dt":4997,"accelerometer_clipping":0}
{"timestamp":402069116,"gyro_rad":[0.0078713885,0.0117498459,0.0014335836],"gyro_integral_dt":4992,"accelerometer_timestamp_relative":0,"accelerometer_m_s2":[0.074152112,0.120868884,-9.7863340378],"accelerometer_integral_dt":4992,"accelerometer_clipping":0}
{"timestamp":402088313,"gyro_rad":[0.0035190089,-0.0029081604,-0.0019875024],"gyro_integral_dt":4997,"accelerometer_timestamp_relative":0,"accelerometer_m_s2":[0.081455946,0.0843503103,-9.8264169693],"accelerometer_integral_dt":4997,"accelerometer_clipping":0}
{"timestamp":402088357,"gyro_rad":[0.0035205085,0.0128395827,0.0001801054],"gyro_integral_dt":4994,"accelerometer_timestamp_relative":0,"accelerometer_m_s2":[-0.0057342201,0.0919623747,-9.8360147476],"accelerometer_integral_dt":4994,"accelerometer_clipping":0}
{"timestamp":402099722,"gyro_rad":[0.0043184012,0.0003248105,0.0005069531],"gyro_integral_dt":5000,"accelerometer_timestamp_relative":0,"accelerometer_m_s2":[0.0121239405,0.0423017144,-9.7390356064],"accelerometer_integral_dt":5000,"accelerometer_clipping":0}
{"timestamp":402098906,"gyro_rad":[0.0016905448,0.0059213494,-0.0005484665],"gyro_integral_dt":4994,"accelerometer_timestamp_relative":0,"accelerometer_m_s2":[-0.0346113332,0.0031504147,-9.7636365891],"accelerometer_integral_dt":4994,"accelerometer_clipping":0}
{"timestamp":402109804,"gyro_rad":[0.0058506243,0.0093578901,0.00019536],"gyro_integral_dt":4993,"accelerometer_timestamp_relative":0,"accelerometer_m_s2":[-0.04851925,-0.0269010942,-9.7471990585],"accelerometer_integral_dt":4993,"accelerometer_clipping":0}
{"timestamp":402108518,"gyro_rad":[0.0035108947,-0.0006284922,-0.0031078029],"gyro_integral_dt":4994,"accelerometer_timestamp_relative":0,"accelerometer_m_s2":[-0.0237496886,-0.0399514586,-9.7997341156],"accelerometer_integral_dt":4994,"accelerometer_clipping":0}
{"timestamp":402107301,"gyro_rad":[0.0042575155,0.0073921867,0.0012204526],"gyro_integral_dt":4999,"accelerometer_timestamp_relative":0,"accelerometer_m_s2":[-0.0333419219,-0.0747735053,-9.8559560776],"accelerometer_integral_dt":4999,"accelerometer_clipping":0}
{"timestamp":402118260,"gyro_rad":[0.0055613434,0.0019890245,-0.0018778016],"gyro_integral_dt":4999,"accelerometer_timestamp_relative":0,"accelerometer_m_s2":[-0.0222732332,-0.0355044901,-9.778632164],"accelerometer_integral_dt":4999,"accelerometer_clipping":0}
{"timestamp":402120766,"gyro_rad":[0.0058424962,0.0085423924,0.0006114264],"gyro_integral_dt":4990,"accelerometer_timestamp_relative":0,"accelerometer_m_s2":[0.063485451,-0.0810553655,-9.6977071762],"accelerometer_integral_dt":4990,"accelerometer_clipping":0}
{"timestamp":402130235,"gyro_rad":[0.0068273386,-0.0014909739,-0.0010415375],"gyro_integral_dt":4996,"accelerometer_timestamp_relative":0,"accelerometer_m_s2":[0.0360466987,0.0255663544,-9.8427801132],"accelerometer_integral_dt":4996,"accelerometer_clipping":0}
{"timestamp":402131197,"gyro_rad":[0.003630189,0.0105895195,-0.0014001151],"gyro_integral_dt":4996,"accelerometer_timestamp_relative":0,"accelerometer_m_s2":[0.1296137273,-0.0261800922,-9.8074941635],"accelerometer_integral_dt":4996,"accelerometer_clipping":0}
{"timestamp":402138691,"gyro_rad":[0.0103361337,0.0014041939,0.0003875619],"gyro_integral_dt":4995,"accelerometer_timestamp_relative":0,"accelerometer_m_s2":[0.1204458624,0.0717560351,-9.7993974686],"accelerometer_integral_dt":4995,"accelerometer_clipping":0}
{"timestamp":402147733,"gyro_rad":[0.0043125949,0.004413059,-0.0025570292],"gyro_integral_dt":5002,"accelerometer_timestamp_relative":0,"accelerometer_m_s2":[0.0935876518,0.0539470799,-9.7794332504],"accelerometer_integral_dt":5002,"accelerometer_clipping":0}
{"timestamp":402146984,"gyro_rad":[0.0105930297,0.0096666226,0.0011060623],"gyro_integral_dt":4989,"accelerometer_timestamp_relative":0,"accelerometer_m_s2":[0.1239559427,0.1355259567,-9.7605390549],"accelerometer_integral_dt":4989,"accelerometer_clipping":0}
{"timestamp":402159392,"gyro_rad":[0.0052114809,0.0148595711,0.0008603775],"gyro_integral_dt":4999,"accelerometer_timestamp_relative":0,"accelerometer_m_s2":[0.0337421671,0.1454550475,-9.8693885803],"accelerometer_integral_dt":4999,"accelerometer_clipping":0}
{"timestamp":402160904,"gyro_rad":[0.0050632078,-0.0036811209,-0.0017690489],"gyro_integral_dt":4995,"accelerometer_timestamp_relative":0,"accelerometer_m_s2":[0.088351734,0.0265198201,-9.7646064758],"accelerometer_integral_dt":4995,"accelerometer_clipping":0}
{"timestamp":402162657,"gyro_rad":[0.0016328798,0.0107810274,0.0017771042],"gyro_integral_dt":4991,"accelerometer_timestamp_relative":0,"accelerometer_m_s2":[-0.0374353155,0.1074413732,-9.7741832733],"accelerometer_integral_dt":4991,"accelerometer_clipping":0}
{"timestamp":402169483,"gyro_rad":[0.0046985932,0.0026088527,0.0005483265],"gyro_integral_dt":4998,"accelerometer_timestamp_relative":0,"accelerometer_m_s2":[0.0317747034,-0.0293976907,-9.7696866989],"accelerometer_integral_dt":4998,"accelerometer_clipping":0}
{"timestamp":402177190,"gyro_rad":[0.0026806123,0.0053418837,-0.0022023914],"gyro_integral_dt":4995,"accelerometer_timestamp_relative":0,"accelerometer_m_s2":[-0.0957023799,0.051856067,-9.8320884705],"accelerometer_integral_dt":4995,"accelerometer_clipping":0}
{"timestamp":402178528,"gyro_rad":[0.0050368821,0.0088731861,0.0009047441],"gyro_integral_dt":4996,"accelerometer_timestamp_relative":0,"accelerometer_m_s2":[-0.0093746725,-0.1295446903,-9.7831544876],"accelerometer_integral_dt":4996,"accelerometer_clipping":0}
{"timestamp":402197399,"gyro_rad":[0.0019731845,-0.0028108782,-0.0017080953],"gyro_integral_dt":4996,"accelerometer_timestamp_relative":0,"accelerometer_m_s2":[-0.0500717647,0.005065321,-9.7399253845],"accelerometer_integral_dt":4996,"accelerometer_clipping":0}
{"timestamp":402198205,"gyro_rad":[0.0078298347,0.0109826615,0.0014401852],"gyro_integral_dt":4997,"accelerometer_timestamp_relative":0,"accelerometer_m_s2":[0.0322845168,-0.1214071587,-9.7732419968],"accelerometer_integral_dt":4997,"accelerometer_clipping":0}
{"timestamp":402197232,"gyro_rad":[0.0028407641,-0.0013170252,-0.0027092628],"gyro_integral_dt":4995,"accelerometer_timestamp_relative":0,"accelerometer_m_s2":[-0.0223836545,-0.0094989678,-9.809466362],"accelerometer_integral_dt":4995,"accelerometer_clipping":0}
{"timestamp":402198504,"gyro_rad":[0.0064048069,0.0125282146,0.0010178122],"gyro_integral_dt":5006,"accelerometer_timestamp_relative":0,"accelerometer_m_s2":[0.0684303343,-0.0667529777,-9.7970247269],"accelerometer_integral_dt":5006,"accelerometer_clipping":0}
{"timestamp":402202598,"gyro_rad":[0.0067004007,-0.0035131548,-0.0014980595],"gyro_integral_dt":4985,"accelerometer_timestamp_relative":0,"accelerometer_m_s2":[0.0802378953,0.0282569975,-9.7884912491],"accelerometer_integral_dt":4985,"accelerometer_clipping":0}
{"timestamp":402210722,"gyro_rad":[0.002975445,0.0092859333,-0.0013407663],"gyro_integral_dt":4995,"accelerometer_timestamp_relative":0,"accelerometer_m_s2":[0.0955900624,-0.0689966753,-9.7638158798],"accelerometer_integral_dt":4995,"accelerometer_clipping":0}
{"timestamp":402216763,"gyro_rad":[0.0078917118,0.0041187368,-0.0004807919],"gyro_integral_dt":4996,"accelerometer_timestamp_relative":0,"accelerometer_m_s2":[0.1224017367,0.1384000331,-9.7741098404],"accelerometer_integral_dt":4996,"accelerometer_clipping":0}
{"timestamp":402228908,"gyro_rad":[0.0046911659,0.0000536675,-0.0024574243],"gyro_integral_dt":4995,"accelerometer_timestamp_relative":0,"accelerometer_m_s2":[0.1008142531,0.0376385897,-9.8240394592],"accelerometer_integral_dt":4995,"accelerometer_clipping":0}
{"timestamp":402229240,"gyro_rad":[0.0009866853,0.0126948059,0.0020854885],"gyro_integral_dt":4996,"accelerometer_timestamp_relative":0,"accelerometer_m_s2":[0.0989327058,0.0953566581,-9.8149642944],"accelerometer_integral_dt":4996,"accelerometer_clipping":0}
{"timestamp":402240408,"gyro_rad":[0.0100893416,-0.0030889665,-0.0020669568],"gyro_integral_dt":4995,"accelerometer_timestamp_relative":0,"accelerometer_m_s2":[0.0884626061,0.1485809237,-9.8188447952],"accelerometer_integral_dt":4995,"accelerometer_clipping":0}
{"timestamp":402239610,"gyro_rad":[0.0026756616,0.0105894683,0.0008482964],"gyro_integral_dt":4996,"accelerometer_timestamp_relative":0,"accelerometer_m_s2":[0.0383038521,0.0566902943,-9.754234314],"accelerometer_integral_dt":4996,"accelerometer_clipping":0}
{"timestamp":402259319,"gyro_rad":[0.0040903259,0.0008659413,-0.0010569206],"gyro_integral_dt":4999,"accelerometer_timestamp_relative":0,"accelerometer_m_s2":[0.0033035949,0.089761287,-9.7789411545],"accelerometer_integral_dt":4999,"accelerometer_clipping":0}
{"timestamp":402258120,"gyro_rad":[0.0033586749,0.0063657789,-0.0009969142],"gyro_integral_dt":4993,"accelerometer_timestamp_relative":0,"accelerometer_m_s2":[0.0067218659,0.0220653284,-9.77277565],"accelerometer_integral_dt":4993,"accelerometer_clipping":0}
{"timestamp":402259075,"gyro_rad":[0.0079958867,0.0051656743,0.0015239003],"gyro_integral_dt":4995,"accelerometer_timestamp_relative":0,"accelerometer_m_s2":[-0.0632974505,-0.0028636325,-9.876376152],"accelerometer_integral_dt":4995,"accelerometer_clipping":0}
{"timestamp":402258952,"gyro_rad":[-0.0022757524,0.0040781605,-0.0022624969],"gyro_integral_dt":4996,"accelerometer_timestamp_relative":0,"accelerometer_m_s2":[-0.0593259335,-0.046926491,-9.7691869736],"accelerometer_integral_dt":4996,"accelerometer_clipping":0}
{"timestamp":402260054,"gyro_rad":[0.0103987418,0.0073528639,0.0007097091],"gyro_integral_dt":4996,"accelerometer_timestamp_relative":0,"accelerometer_m_s2":[-0.0070595089,-0.0217083301,-9.720741272],"accelerometer_integral_dt":4996,"accelerometer_clipping":0}
{"timestamp":402259354,"gyro_rad":[-0.0016674163,-0.0043990673,-0.0035979769],"gyro_integral_dt":4994,"accelerometer_timestamp_relative":0,"accelerometer_m_s2":[-0.0573593229,-0.0892986953,-9.8579454422],"accelerometer_integral_dt":4994,"accelerometer_clipping":0}
{"timestamp":402268359,"gyro_rad":[0.0107975584,0.016264718,0.0016323881],"gyro_integral_dt":4997,"accelerometer_timestamp_relative":0,"accelerometer_m_s2":[0.0004778851,-0.012323929,-9.8052425385],"accelerometer_integral_dt":4997,"accelerometer_clipping":0}
{"timestamp":402277859,"gyro_rad":[0.0032541568,-0.0059148963,-0.0027043486],"gyro_integral_dt":4994,"accelerometer_timestamp_relative":0,"accelerometer_m_s2":[0.0747166052,-0.102668494,-9.7381219864],"accelerometer_integral_dt":4994,"accelerometer_clipping":0}
{"timestamp":402278464,"gyro_rad":[0.0055634864,0.0112535991,-0.0004366712],"gyro_integral_dt":4996,"accelerometer_timestamp_relative":0,"accelerometer_m_s2":[0.0016111393,0.0730976835,-9.7974996567],"accelerometer_integral_dt":4996,"accelerometer_clipping":0}
{"timestamp":402280204,"gyro_rad":[0.0068344232,0.0021183777,-0.0011161444],"gyro_integral_dt":4999,"accelerometer_timestamp_relative":0,"accelerometer_m_s2":[0.1453572661,-0.0940249115,-9.7605638504],"accelerometer_integral_dt":4999,"accelerometer_clipping":0}
{"timestamp":402292902,"gyro_rad":[0.006852455,0.0018697346,-0.0020052157],"gyro_integral_dt":4993,"accelerometer_timestamp_relative":0,"accelerometer_m_s2":[0.1032966822,0.1338526458,-9.8433465958],"accelerometer_integral_dt":4993,"accelerometer_clipping":0}
{"timestamp":402292328,"gyro_rad":[0.0067345439,0.0103896456,0.0014532141],"gyro_integral_dt":4997,"accelerometer_timestamp_relative":0,"accelerometer_m_s2":[0.0963223726,0.0129639599,-9.783867836],"accelerometer_integral_dt":4997,"accelerometer_clipping":0}
{"timestamp":402298894,"gyro_rad":[0.0042385338,-0.0040587611,-0.002119191],"gyro_integral_dt":4996,"accelerometer_timestamp_relative":0,"accelerometer_m_s2":[0.1481119096,0.1293028891,-9.7430019379],"accelerometer_integral_dt":4996,"accelerometer_clipping":0}
{"timestamp":402304909,"gyro_rad":[0.0054385769,0.0119212223,0.0015902015],"gyro_integral_dt":5000,"accelerometer_timestamp_relative":0,"accelerometer_m_s2":[0.040150445,0.0473484732,-9.7980766296],"accelerometer_integral_dt":5000,"accelerometer_clipping":0}
{"timestamp":402307834,"gyro_rad":[0.0068388227,0.0003229984,-0.0013819102],"gyro_integral_dt":4990,"accelerometer_timestamp_relative":0,"accelerometer_m_s2":[0.0854632705,0.1140216812,-9.8010292053],"accelerometer_integral_dt":4990,"accelerometer_clipping":0}
{"timestamp":402319629,"gyro_rad":[0.0020444873,0.0078783669,0.0002763303],"gyro_integral_dt":4995,"accelerometer_timestamp_relative":0,"accelerometer_m_s2":[0.0049110814,0.0294635836,-9.7911748886],"accelerometer_integral_dt":4995,"accelerometer_clipping":0}
{"timestamp":402320574,"gyro_rad":[0.0060298634,0.0010145047,-0.0001506097],"gyro_integral_dt":5009,"accelerometer_timestamp_relative":0,"accelerometer_m_s2":[-0.0167293325,0.107508406,-9.8231773376],"accelerometer_integral_dt":5009,"accelerometer_clipping":0}
{"timestamp":402326646,"gyro_rad":[-0.0006558887,0.0053344974,-0.0000651135],"gyro_integral_dt":4982,"accelerometer_timestamp_relative":0,"accelerometer_m_s2":[0.0137999095,-0.0404679775,-9.715713501],"accelerometer_integral_dt":4982,"accelerometer_clipping":0}
{"timestamp":402329163,"gyro_rad":[0.0093283365,0.0077287685,0.002255321],"gyro_integral_dt":4996,"accelerometer_timestamp_relative":0,"accelerometer_m_s2":[-0.0738863945,0.0687427148,-9.8362464905],"accelerometer_integral_dt":4996,"accelerometer_clipping":0}
{"timestamp":402338232,"gyro_rad":[-0.0021630095,-0.0001318686,-0.0009984133],"gyro_integral_dt":4998,"accelerometer_timestamp_relative":0,"accelerometer_m_s2":[-0.0109230112,-0.1435345411,-9.7589960098],"accelerometer_integral_dt":4998,"accelerometer_clipping":0}
{"timestamp":402339369,"gyro_rad":[0.0093350895,0.0078037847,0.0009288989],"gyro_integral_dt":4993,"accelerometer_timestamp_relative":0,"accelerometer_m_s2":[-0.0454182439,0.0487810485,-9.8265323639],"accelerometer_integral_dt":4993,"accelerometer_clipping":0}
{"timestamp":402347107,"gyro_rad":[0.0029976489,0.0000468596,-0.0025048857],"gyro_integral_dt":4996,"accelerometer_timestamp_relative":0,"accelerometer_m_s2":[0.021469783,-0.1658906937,-9.809091568],"accelerometer_integral_dt":4996,"accelerometer_clipping":0}
{"timestamp":402348663,"gyro_rad":[0.0054902751,0.0132452967,0.0003957985],"gyro_integral_dt":4996,"accelerometer_timestamp_relative":0,"accelerometer_m_s2":[0.0193364806,0.058725372,-9.7029781342],"accelerometer_integral_dt":4996,"accelerometer_clipping":0}
{"timestamp":402357429,"gyro_rad":[0.0066218539,-0.0053726789,-0.0027732288],"gyro_integral_dt":4994,"accelerometer_timestamp_relative":0,"accelerometer_m_s2":[0.0778329968,-0.0706691965,-9.7857341766],"accelerometer_integral_dt":4994,"accelerometer_clipping":0}
{"timestamp":402358499,"gyro_rad":[0.0043364959,0.0095300628,-0.0022773021],"gyro_integral_dt":4997,"accelerometer_timestamp_relative":0,"accelerometer_m_s2":[0.0764121935,0.06702815,-9.8511037827],"accelerometer_integral_dt":4997,"accelerometer_clipping":0}
{"timestamp":402366762,"gyro_rad":[0.0061272918,0.0056372057,-0.0009875728],"gyro_integral_dt":4996,"accelerometer_timestamp_relative":0,"accelerometer_m_s2":[0.1478081644,-0.047263369,-9.8186597824],"accelerometer_integral_dt":4996,"accelerometer_clipping":0}
{"timestamp":402377774,"gyro_rad":[0.0058400473,-0.0001514743,-0.0023439231],"gyro_integral_dt":4995,"accelerometer_timestamp_relative":0,"accelerometer_m_s2":[0.1057320088,0.1328860372,-9.7445554733],"accelerometer_integral_dt":4995,"accelerometer_clipping":0}
{"timestamp":402378595,"gyro_rad":[0.0071216179,0.0091298074,0.0006867688],"gyro_integral_dt":4996,"accelerometer_timestamp_relative":0,"accelerometer_m_s2":[0.1269772053,0.003161689,-9.7655439377],"accelerometer_integral_dt":4996,"accelerometer_clipping":0}
{"timestamp":402379152,"gyro_rad":[0.0023404842,-0.003152681,-0.0032658232],"gyro_integral_dt":4996,"accelerometer_timestamp_relative":0,"accelerometer_m_s2":[0.0886664018,0.1415639669,-9.8231964111],"accelerometer_integral_dt":4996,"accelerometer_clipping":0}
{"timestamp":402379551,"gyro_rad":[0.0076478915,0.0136347124,0.0012648156],"gyro_integral_dt":4994,"accelerometer_timestamp_relative":0,"accelerometer_m_s2":[0.0728980899,0.0332794487,-9.8216600418],"accelerometer_integral_dt":4994,"accelerometer_clipping":0}
{"timestamp":402389100,"gyro_rad":[0.0036858562,-0.0027975645,-0.0003873632],"gyro_integral_dt":4998,"accelerometer_timestamp_relative":0,"accelerometer_m_s2":[0.0190564413,0.0966020972,-9.7862482071],"accelerometer_integral_dt":4998,"accelerometer_clipping":0}
{"timestamp":402389156,"gyro_rad":[0.0036901943,0.0100375786,-0.0000963757],"gyro_integral_dt":4991,"accelerometer_timestamp_relative":0,"accelerometer_m_s2":[-0.0055805035,0.0176577754,-9.7390241623],"accelerometer_integral_dt":4991,"accelerometer_clipping":0}
{"timestamp":402397950,"gyro_rad":[0.0048697311,0.0016450257,0.0007401113],"gyro_integral_dt":4997,"accelerometer_timestamp_relative":0,"accelerometer_m_s2":[-0.0386376679,0.0765927061,-9.7924575806],"accelerometer_integral_dt":4997,"accelerometer_clipping":0}
{"timestamp":402407105,"gyro_rad":[0.0004095544,0.0055073081,-0.0011992753],"gyro_integral_dt":4997,"accelerometer_timestamp_relative":0,"accelerometer_m_s2":[-0.0228483137,-0.0640399903,-9.7980003357],"accelerometer_integral_dt":4997,"accelerometer_clipping":0}
{"timestamp":402408397,"gyro_rad":[0.0048132455,0.0077107586,0.0012854594],"gyro_integral_dt":4996,"accelerometer_timestamp_relative":0,"accelerometer_m_s2":[-0.0723459125,0.0116018811,-9.7881193161],"accelerometer_integral_dt":4996,"accelerometer_clipping":0}
{"timestamp":402412171,"gyro_rad":[0.0023958439,-0.0007654902,-0.0036915294],"gyro_integral_dt":5004,"accelerometer_timestamp_relative":0,"accelerometer_m_s2":[-0.0052127158,-0.1160418689,-9.7575387955],"accelerometer_integral_dt":5004,"accelerometer_clipping":0}
{"timestamp":402420825,"gyro_rad":[0.0051198294,0.0113425478,0.0017644534],"gyro_integral_dt":4989,"accelerometer_timestamp_relative":0,"accelerometer_m_s2":[-0.0288502872,-0.0161247235,-9.7943468094],"accelerometer_integral_dt":4989,"accelerometer_clipping":0}
{"timestamp":402422892,"gyro_rad":[0.0068562008,-0.0021873368,-0.0031295649],"gyro_integral_dt":4993,"accelerometer_timestamp_relative":0,"accelerometer_m_s2":[0.0299778841,-0.1139986366,-9.7784070969],"accelerometer_integral_dt":4993,"accelerometer_clipping":0}
{"timestamp":402427257,"gyro_rad":[0.003574919,0.0088029774,-0.0003230942],"gyro_integral_dt":4993,"accelerometer_timestamp_relative":0,"accelerometer_m_s2":[0.034005601,0.0005577246,-9.7719726562],"accelerometer_integral_dt":4993,"accelerometer_clipping":0}
{"timestamp":402430227,"gyro_rad":[0.0092627006,-0.0012749924,-0.0013377271],"gyro_integral_dt":4999,"accelerometer_timestamp_relative":0,"accelerometer_m_s2":[0.0626015514,0.0032629676,-9.8504400253],"accelerometer_integral_dt":4999,"accelerometer_clipping":0}
{"timestamp":402439630,"gyro_rad":[0.0017197877,0.0087754475,0.0000668507],"gyro_integral_dt":4997,"accelerometer_timestamp_relative":0,"accelerometer_m_s2":[0.1243296787,-0.0070044058,-9.7607088089],"accelerometer_integral_dt":4997,"accelerometer_clipping":0}
{"timestamp":402439936,"gyro_rad":[0.0103815719,0.0040147994,-0.0000657654],"gyro_integral_dt":4994,"accelerometer_timestamp_relative":0,"accelerometer_m_s2":[0.1232310459,0.0909020007,-9.7738771439],"accelerometer_integral_dt":4994,"accelerometer_clipping":0}
{"timestamp":402457964,"gyro_rad":[0.005508618,0.002754828,-0.00217714],"gyro_integral_dt":4996,"accelerometer_timestamp_relative":0,"accelerometer_m_s2":[0.1095903292,0.0734311268,-9.782002449],"accelerometer_integral_dt":4996,"accelerometer_clipping":0}
{"timestamp":402457268,"gyro_rad":[0.0050682453,0.0096731754,0.0013780368],"gyro_integral_dt":4995,"accelerometer_timestamp_relative":0,"accelerometer_m_s2":[0.1113104746,0.0585679486,-9.7885274887],"accelerometer_integral_dt":4995,"accelerometer_clipping":0}
{"timestamp":402458333,"gyro_rad":[0.0028019352,-0.0023034879,-0.0019367086],"gyro_integral_dt":4995,"accelerometer_timestamp_relative":0,"accelerometer_m_s2":[0.0815741643,0.1693241298,-9.8442382812],"accelerometer_integral_dt":4995,"accelerometer_clipping":0}
{"timestamp":402468325,"gyro_rad":[0.0042230017,0.0134981526,0.0013746867],"gyro_integral_dt":4996,"accelerometer_timestamp_relative":0,"accelerometer_m_s2":[0.0678300858,0.0403685868,-9.7567138672],"accelerometer_integral_dt":4996,"accelerometer_clipping":0}
{"timestamp":402469252,"gyro_rad":[0.0052768644,-0.0003560323,0.0005616646],"gyro_integral_dt":4997,"accelerometer_timestamp_relative":0,"accelerometer_m_s2":[0.0132044852,0.1062039956,-9.7698192596],"accelerometer_integral_dt":4997,"accelerometer_clipping":0}
{"timestamp":402477971,"gyro_rad":[0.0049668453,0.0075964476,0.0007885016],"gyro_integral_dt":5003,"accelerometer_timestamp_relative":0,"accelerometer_m_s2":[-0.022984812,0.012129399,-9.770526886],"accelerometer_integral_dt":5003,"accelerometer_clipping":0}
{"timestamp":402479385,"gyro_rad":[0.0046499576,0.0054909377,0.0010338759],"gyro_integral_dt":4988,"accelerometer_timestamp_relative":0,"accelerometer_m_s2":[-0.0434016287,0.0471823439,-9.8627729416],"accelerometer_integral_dt":4988,"accelerometer_clipping":0}
{"timestamp":402478721,"gyro_rad":[0.001107125,0.0042244024,-0.0016801383],"gyro_integral_dt":4996,"accelerometer_timestamp_relative":0,"accelerometer_m_s2":[-0.027510751,-0.0792620704,-9.7466945648],"accelerometer_integral_dt":4996,"accelerometer_clipping":0}
{"timestamp":402490077,"gyro_rad":[0.0081043486,0.0058014016,0.0002590426],"gyro_integral_dt":5002,"accelerometer_timestamp_relative":0,"accelerometer_m_s2":[-0.030391803,-0.0025091029,-9.7413644791],"accelerometer_integral_dt":5002,"accelerometer_clipping":0}
{"timestamp":402497653,"gyro_rad":[0.0040687993,-0.0028672295,-0.0025939676],"gyro_integral_dt":4989,"accelerometer_timestamp_relative":0,"accelerometer_m_s2":[-0.0219927356,-0.1155157089,-9.8333873749],"accelerometer_integral_dt":4989,"accelerometer_clipping":0}
{"timestamp":402500080,"gyro_rad":[0.0084041413,0.0136040999,0.0008772115],"gyro_integral_dt":4998,"accelerometer_timestamp_relative":0,"accelerometer_m_s2":[-0.0007437626,-0.0269089304,-9.7759399414],"accelerometer_integral_dt":4998,"accelerometer_clipping":0}
{"timestamp":402500068,"gyro_rad":[0.0036353061,-0.0034230936,-0.0042397948],"gyro_integral_dt":4992,"accelerometer_timestamp_relative":0,"accelerometer_m_s2":[0.0835875496,-0.0988708735,-9.7930526733],"accelerometer_integral_dt":4992,"accelerometer_clipping":0}
{"timestamp":402508744,"gyro_rad":[0.0053272541,0.010843046,-0.0012651347],"gyro_integral_dt":4997,"accelerometer_timestamp_relative":0,"accelerometer_m_s2":[0.056633085,0.0417270027,-9.7718706131],"accelerometer_integral_dt":4997,"accelerometer_clipping":0}
{"timestamp":402517053,"gyro_rad":[0.0077593098,0.0024635594,-0.0004243724],"gyro_integral_dt":4997,"accelerometer_timestamp_relative":0,"accelerometer_m_s2":[0.0938671976,-0.046738904,-9.7885818481],"accelerometer_integral_dt":4997,"accelerometer_clipping":0}
{"timestamp":402518529,"gyro_rad":[0.0021609133,0.0038728029,-0.0016749277],"gyro_integral_dt":4994,"accelerometer_timestamp_relative":0,"accelerometer_m_s2":[0.1098300591,0.0563047081,-9.7825813293],"accelerometer_integral_dt":4994,"accelerometer_clipping":0}
{"timestamp":402539114,"gyro_rad":[0.008722146,0.0067869457,0.0001995423],"gyro_integral_dt":4996,"accelerometer_timestamp_relative":0,"accelerometer_m_s2":[0.0773660392,0.0652925521,-9.8033332825],"accelerometer_integral_dt":4996,"accelerometer_clipping":0}
{"timestamp":402539531,"gyro_rad":[0.0027781439,-0.0006844626,-0.002036565],"gyro_integral_dt":4995,"accelerometer_timestamp_relative":0,"accelerometer_m_s2":[0.1292874813,0.0657259151,-9.767616272],"accelerometer_integral_dt":4995,"accelerometer_clipping":0}
{"timestamp":402538708,"gyro_rad":[0.0073887343,0.0114811761,0.0007718258],"gyro_integral_dt":4996,"accelerometer_timestamp_relative":0,"accelerometer_m_s2":[0.0546454713,0.1106279939,-9.7929830551],"accelerometer_integral_dt":4996,"accelerometer_clipping":0}
{"timestamp":402541605,"gyro_rad":[0.0048339167,-0.0027993866,-0.000109634],"gyro_integral_dt":4997,"accelerometer_timestamp_relative":0,"accelerometer_m_s2":[0.1176387742,0.0596090257,-9.7785778046],"accelerometer_integral_dt":4997,"accelerometer_clipping":0}
{"timestamp":402550328,"gyro_rad":[0.0020942823,0.012871596,0.0003104973],"gyro_integral_dt":4994,"accelerometer_timestamp_relative":0,"accelerometer_m_s2":[-0.0481730141,0.0791357532,-9.8079528809],"accelerometer_integral_dt":4994,"accelerometer_clipping":0}
{"timestamp":402562382,"gyro_rad":[0.0076195113,-0.0022431384,-0.0010087432],"gyro_integral_dt":4995,"accelerometer_timestamp_relative":0,"accelerometer_m_s2":[0.0346507877,0.038926661,-9.7767677307],"accelerometer_integral_dt":4995,"accelerometer_clipping":0}
{"timestamp":402561420,"gyro_rad":[0.0026015337,0.007036428,-0.0006094024],"gyro_integral_dt":4993,"accelerometer_timestamp_relative":0,"accelerometer_m_s2":[-0.0781868473,0.0371584222,-9.7876243591],"accelerometer_integral_dt":4993,"accelerometer_clipping":0}
{"timestamp":402560452,"gyro_rad":[0.0052759917,0.0082731275,-0.0010564079],"gyro_integral_dt":5004,"accelerometer_timestamp_relative":0,"accelerometer_m_s2":[-0.0269266441,-0.0393717773,-9.7749681473],"accelerometer_integral_dt":5004,"accelerometer_clipping":0}
{"timestamp":402566434,"gyro_rad":[0.0003790442,0.0010662081,-0.0034740183],"gyro_integral_dt":4992,"accelerometer_timestamp_relative":0,"accelerometer_m_s2":[-0.0393846519,-0.0251285546,-9.7541437149],"accelerometer_integral_dt":4992,"accelerometer_clipping":0}
{"timestamp":402567474,"gyro_rad":[0.0090188328,0.0083231423,0.0003779444],"gyro_integral_dt":4994,"accelerometer_timestamp_relative":0,"accelerometer_m_s2":[-0.0333290435,-0.0534022041,-9.8277339935],"accelerometer_integral_dt":4994,"accelerometer_clipping":0}
{"timestamp":402571892,"gyro_rad":[0.002058953,-0.0001499,-0.0024388018],"gyro_integral_dt":4995,"accelerometer_timestamp_relative":0,"accelerometer_m_s2":[0.0074051204,-0.0511999391,-9.8081111908],"accelerometer_integral_dt":4995,"accelerometer_clipping":0}
{"timestamp":402587821,"gyro_rad":[0.0065272902,0.0113169886,0.0010744527],"gyro_integral_dt":5004,"accelerometer_timestamp_relative":0,"accelerometer_m_s2":[0.0395843424,-0.0417121314,-9.7535943985],"accelerometer_integral_dt":5004,"accelerometer_clipping":0}
{"timestamp":402586794,"gyro_rad":[0.004850293,-0.0030446204,-0.0025770976],"gyro_integral_dt":4988,"accelerometer_timestamp_relative":0,"accelerometer_m_s2":[0.0745436251,-0.0067265076,-9.7896413803],"accelerometer_integral_dt":4988,"accelerometer_clipping":0}
{"timestamp":402586196,"gyro_rad":[0.0068012606,0.0086360248,-0.0011508045],"gyro_integral_dt":4995,"accelerometer_timestamp_relative":0,"accelerometer_m_s2":[0.0788910165,-0.0252967495,-9.7959289551],"accelerometer_integral_dt":4995,"accelerometer_clipping":0}
{"timestamp":402598663,"gyro_rad":[0.0080684517,0.0018805263,-0.0005563163],"gyro_integral_dt":4997,"accelerometer_timestamp_relative":0,"accelerometer_m_s2":[0.1170706004,0.0136794671,-9.8236207962],"accelerometer_integral_dt":4997,"accelerometer_clipping":0}
{"timestamp":402599376,"gyro_rad":[0.0029474376,0.0030323376,-0.0019609528],"gyro_integral_dt":4994,"accelerometer_timestamp_relative":0,"accelerometer_m_s2":[0.0852587819,0.0864632279,-9.7733306885],"accelerometer_integral_dt":4994,"accelerometer_clipping":0}
{"timestamp":402606450,"gyro_rad":[0.0080135502,0.008481957,0.0018987053],"gyro_integral_dt":4994,"accelerometer_timestamp_relative":0,"accelerometer_m_s2":[0.1336903721,0.0747608691,-9.7788257599],"accelerometer_integral_dt":4994,"accelerometer_clipping":0}
{"timestamp":402607992,"gyro_rad":[0.0038850105,-0.001123129,-0.002401859],"gyro_integral_dt":4999,"accelerometer_timestamp_relative":0,"accelerometer_m_s2":[0.0563773438,0.0891343951,-9.7756567001],"accelerometer_integral_dt":4999,"accelerometer_clipping":0}
{"timestamp":402619082,"gyro_rad":[0.0067555765,0.0124328146,0.0011060404],"gyro_integral_dt":4996,"accelerometer_timestamp_relative":0,"accelerometer_m_s2":[0.1072328314,0.1006218567,-9.8157396317],"accelerometer_integral_dt":4996,"accelerometer_clipping":0}
{"timestamp":402619855,"gyro_rad":[0.001952081,-0.0052393978,-0.0014781143],"gyro_integral_dt":4997,"accelerometer_timestamp_relative":0,"accelerometer_m_s2":[0.0283878073,0.0593262389,-9.8212032318],"accelerometer_integral_dt":4997,"accelerometer_clipping":0}
{"timestamp":402627456,"gyro_rad":[0.0033467498,0.013227663,0.0014511332],"gyro_integral_dt":4992,"accelerometer_timestamp_relative":0,"accelerometer_m_s2":[-0.0128839007,0.0608969182,-9.7555408478],"accelerometer_integral_dt":4992,"accelerometer_clipping":0}
{"timestamp":402628679,"gyro_rad":[0.0063641458,-0.0015439065,-0.0020638485],"gyro_integral_dt":4997,"accelerometer_timestamp_relative":0,"accelerometer_m_s2":[-0.0111570088,0.0061238869,-9.7518129349],"accelerometer_integral_dt":4997,"accelerometer_clipping":0}
{"timestamp":402638696,"gyro_rad":[0.0027592508,0.0095238667,-0.0015153727],"gyro_integral_dt":4994,"accelerometer_timestamp_relative":0,"accelerometer_m_s2":[-0.0608894415,0.0145715289,-9.8202085495],"accelerometer_integral_dt":4994,"accelerometer_clipping":0}
{"timestamp":402640435,"gyro_rad":[0.0042370614,0.0053899218,0.0004827931],"gyro_integral_dt":4997,"accelerometer_timestamp_relative":0,"accelerometer_m_s2":[-0.0146994265,-0.0734512508,-9.7796621323],"accelerometer_integral_dt":4997,"accelerometer_clipping":0}
{"timestamp":402648144,"gyro_rad":[0.0020182284,0.0010499583,-0.0027793949],"gyro_integral_dt":4994,"accelerometer_timestamp_relative":0,"accelerometer_m_s2":[-0.0375034921,-0.045144558,-9.7951536179],"accelerometer_integral_dt":4994,"accelerometer_clipping":0}
{"timestamp":402649025,"gyro_rad":[0.007086846,0.0110291746,0.0005123307],"gyro_integral_dt":4999,"accelerometer_timestamp_relative":0,"accelerometer_m_s2":[-0.0251986869,-0.1049961075,-9.7897529602],"accelerometer_integral_dt":4999,"accelerometer_clipping":0}
{"timestamp":402659426,"gyro_rad":[0.005067382,0.011371064,-0.000818863],"gyro_integral_dt":4994,"accelerometer_timestamp_relative":0,"accelerometer_m_s2":[0.0255061332,-0.0483112484,-9.8195476532],"accelerometer_integral_dt":4994,"accelerometer_clipping":0}
{"timestamp":402668385,"gyro_rad":[0.0075580245,-0.002312185,-0.0015500335],"gyro_integral_dt":5007,"accelerometer_timestamp_relative":0,"accelerometer_m_s2":[0.0987389833,0.0149444817,-9.8138170242],"accelerometer_integral_dt":5007,"accelerometer_clipping":0}
{"timestamp":402680056,"gyro_rad":[0.0042665196,0.0107874954,-0.0011205402],"gyro_integral_dt":4985,"accelerometer_timestamp_relative":0,"accelerometer_m_s2":[0.0986666009,-0.0213316903,-9.8236322403],"accelerometer_integral_dt":4985,"accelerometer_clipping":0}
{"timestamp":402679370,"gyro_rad":[0.0092929145,-0.0001834204,-0.0004313234],"gyro_integral_dt":4998,"accelerometer_timestamp_relative":0,"accelerometer_m_s2":[0.1398407668,0.0781477764,-9.7728910446],"accelerometer_integral_dt":4998,"accelerometer_clipping":0}
{"timestamp":402680592,"gyro_rad":[0.0025569734,0.0049944068,-0.0015665968],"gyro_integral_dt":4995,"accelerometer_timestamp_relative":0,"accelerometer_m_s2":[0.0979591459,0.0503671579,-9.798500061],"accelerometer_integral_dt":4995,"accelerometer_clipping":0}
{"timestamp":402688235,"gyro_rad":[0.0062850933,0.0099227643,0.0022455356],"gyro_integral_dt":4994,"accelerometer_timestamp_relative":0,"accelerometer_m_s2":[0.092512764,0.0800711513,-9.783449173],"accelerometer_integral_dt":4994,"accelerometer_clipping":0}
{"timestamp":402691187,"gyro_rad":[0.0063254395,-0.0010346812,-0.0014881932],"gyro_integral_dt":4996,"accelerometer_timestamp_relative":0,"accelerometer_m_s2":[0.0790776536,0.1284930408,-9.8205194473],"accelerometer_integral_dt":4996,"accelerometer_clipping":0}
{"timestamp":402692447,"gyro_rad":[0.0070194108,0.0123618981,0.0018816604],"gyro_integral_dt":4996,"accelerometer_timestamp_relative":0,"accelerometer_m_s2":[0.0546403602,0.0544283204,-9.7924985886],"accelerometer_integral_dt":4996,"accelerometer_clipping":0}
{"timestamp":402708199,"gyro_rad":[0.0024444296,0.000037206,-0.0018689604],"gyro_integral_dt":4995,"accelerometer_timestamp_relative":0,"accelerometer_m_s2":[0.001710398,0.0790068284,-9.7782468796],"accelerometer_integral_dt":4995,"accelerometer_clipping":0}
{"timestamp":402707297,"gyro_rad":[0.0034185145,0.0102255782,-0.0002459971],"gyro_integral_dt":4997,"accelerometer_timestamp_relative":0,"accelerometer_m_s2":[0.0041397507,0.0040609096,-9.7406959534],"accelerometer_integral_dt":4997,"accelerometer_clipping":0}
{"timestamp":402718725,"gyro_rad":[0.0077084373,0.000630039,0.0000601237],"gyro_integral_dt":4998,"accelerometer_timestamp_relative":0,"accelerometer_m_s2":[-0.0816969872,0.0182075575,-9.8373661041],"accelerometer_integral_dt":4998,"accelerometer_clipping":0}
{"timestamp":402717763,"gyro_rad":[0.0016843827,0.0085482532,-0.0006609563],"gyro_integral_dt":4992,"accelerometer_timestamp_relative":0,"accelerometer_m_s2":[-0.0365077183,-0.0474746302,-9.7889385223],"accelerometer_integral_dt":4992,"accelerometer_clipping":0}
{"timestamp":402719799,"gyro_rad":[0.0053315032,0.0050575254,0.0011141467],"gyro_integral_dt":4994,"accelerometer_timestamp_relative":0,"accelerometer_m_s2":[-0.0455181114,-0.0474366322,-9.7584381104],"accelerometer_integral_dt":4994,"accelerometer_clipping":0}
{"timestamp":402728219,"gyro_rad":[0.0030523106,0.0006993162,-0.0016626519],"gyro_integral_dt":4996,"accelerometer_timestamp_relative":0,"accelerometer_m_s2":[-0.0459493361,-0.0697255731,-9.8036851883],"accelerometer_integral_dt":4996,"accelerometer_clipping":0}
{"timestamp":402729349,"gyro_rad":[0.0088537456,0.01140879,0.0015985108],"gyro_integral_dt":5004,"accelerometer_timestamp_relative":0,"accelerometer_m_s2":[0.0169312488,-0.051643353,-9.7282867432],"accelerometer_integral_dt":5004,"accelerometer_clipping":0}
{"timestamp":402730435,"gyro_rad":[0.0037462397,-0.0027481606,-0.0025562318],"gyro_integral_dt":4988,"accelerometer_timestamp_relative":0,"accelerometer_m_s2":[0.0035979494,-0.0495422743,-9.8227796555],"accelerometer_integral_dt":4988,"accelerometer_clipping":0}
{"timestamp":402747707,"gyro_rad":[0.0043360717,0.01118269,0.0006337216],"gyro_integral_dt":4994,"accelerometer_timestamp_relative":0,"accelerometer_m_s2":[0.1073355228,-0.0141165322,-9.796292305],"accelerometer_integral_dt":4994,"accelerometer_clipping":0}
{"timestamp":402748110,"gyro_rad":[0.0058848378,-0.0000236746,-0.0020972039],"gyro_integral_dt":4997,"accelerometer_timestamp_relative":0,"accelerometer_m_s2":[0.0529281609,-0.0102139525,-9.7981443405],"accelerometer_integral_dt":4997,"accelerometer_clipping":0}
{"timestamp":402746815,"gyro_rad":[0.0059358818,0.0071356283,-0.00060225],"gyro_integral_dt":4996,"accelerometer_timestamp_relative":0,"accelerometer_m_s2":[0.1508499831,0.0339162536,-9.7540187836],"accelerometer_integral_dt":4996,"accelerometer_clipping":0}
{"timestamp":402756879,"gyro_rad":[0.0080450345,0.0049545811,-0.0001192177],"gyro_integral_dt":4997,"accelerometer_timestamp_relative":0,"accelerometer_m_s2":[0.0760132521,0.090882346,-9.8164043427],"accelerometer_integral_dt":4997,"accelerometer_clipping":0}
{"timestamp":402757948,"gyro_rad":[0.000506992,0.0029705283,-0.0028149972],"gyro_integral_dt":4996,"accelerometer_timestamp_relative":0,"accelerometer_m_s2":[0.1470022649,0.0533574335,-9.7747802734],"accelerometer_integral_dt":4996,"accelerometer_clipping":0}
{"timestamp":402767500,"gyro_rad":[0.0071768193,0.0105613265,0.0008968941],"gyro_integral_dt":4998,"accelerometer_timestamp_relative":0,"accelerometer_m_s2":[0.0624697655,0.1465023458,-9.7901496887],"accelerometer_integral_dt":4998,"accelerometer_clipping":0}
{"timestamp":402768149,"gyro_rad":[0.0065636118,-0.0028317217,-0.0020543304],"gyro_integral_dt":4993,"accelerometer_timestamp_relative":0,"accelerometer_m_s2":[0.0810942352,0.0506555475,-9.7905044556],"accelerometer_integral_dt":4993,"accelerometer_clipping":0}
{"timestamp":402776672,"gyro_rad":[0.0005125681,0.0141232666,0.0023626911],"gyro_integral_dt":4995,"accelerometer_timestamp_relative":0,"accelerometer_m_s2":[-0.0046670455,0.0872807056,-9.7922029495],"accelerometer_integral_dt":4995,"accelerometer_clipping":0}
{"timestamp":402775897,"gyro_rad":[0.0057545132,-0.0021444503,-0.0002076596],"gyro_integral_dt":4996,"accelerometer_timestamp_relative":0,"accelerometer_m_s2":[0.0383784771,0.0462516733,-9.7720012665],"accelerometer_integral_dt":4996,"accelerometer_clipping":0}
{"timestamp":402784716,"gyro_rad":[0.0036297673,0.0089148646,-0.0005869092],"gyro_integral_dt":4995,"accelerometer_timestamp_relative":0,"accelerometer_m_s2":[-0.0539172441,0.0287983157,-9.8061094284],"accelerometer_integral_dt":4995,"accelerometer_clipping":0}
{"timestamp":402786952,"gyro_rad":[0.0096552279,0.0036947012,0.001529154],"gyro_integral_dt":4993,"accelerometer_timestamp_relative":0,"accelerometer_m_s2":[-0.0318657905,-0.0265431572,-9.7762060165],"accelerometer_integral_dt":4993,"accelerometer_clipping":0}
{"timestamp":402798297,"gyro_rad":[-0.0021236658,0.0046138358,-0.0009892496],"gyro_integral_dt":4999,"accelerometer_timestamp_relative":0,"accelerometer_m_s2":[-0.0301469248,-0.0250588786,-9.7790260315],"accelerometer_integral_dt":4999,"accelerometer_clipping":0}
{"timestamp":402797490,"gyro_rad":[0.0068950881,0.0072258194,0.00128443],"gyro_integral_dt":4994,"accelerometer_timestamp_relative":0,"accelerometer_m_s2":[-0.0251087602,-0.0697340742,-9.8344945908],"accelerometer_integral_dt":4994,"accelerometer_clipping":0}
{"timestamp":402806239,"gyro_rad":[0.0050054975,0.0004284104,-0.0033223447],"gyro_integral_dt":4996,"accelerometer_timestamp_relative":0,"accelerometer_m_s2":[-0.0019530519,-0.0187307354,-9.8003644943],"accelerometer_integral_dt":4996,"accelerometer_clipping":0}
{"timestamp":402807068,"gyro_rad":[0.0074859094,0.0110487062,0.0013279913],"gyro_integral_dt":4996,"accelerometer_timestamp_relative":0,"accelerometer_m_s2":[0.0265458506,-0.0570999496,-9.7645454407],"accelerometer_integral_dt":4996,"accelerometer_clipping":0}
{"timestamp":402818630,"gyro_rad":[0.0050005913,0.0122844782,0.0002869164],"gyro_integral_dt":4996,"accelerometer_timestamp_relative":0,"accelerometer_m_s2":[0.0659735948,-0.033569362,-9.7775659561],"accelerometer_integral_dt":4996,"accelerometer_clipping":0}
{"timestamp":402825608,"gyro_rad":[0.0082449308,0.0002693111,-0.0009748592],"gyro_integral_dt":4994,"accelerometer_timestamp_relative":0,"accelerometer_m_s2":[0.1498297006,0.0122707924,-9.7663002014],"accelerometer_integral_dt":4994,"accelerometer_clipping":0}
{"timestamp":402826623,"gyro_rad":[0.0049931733,0.0040201508,-0.0012940223],"gyro_integral_dt":4995,"accelerometer_timestamp_relative":0,"accelerometer_m_s2":[0.0910293609,0.0889768451,-9.8005876541],"accelerometer_integral_dt":4995,"accelerometer_clipping":0}
{"timestamp":402831761,"gyro_rad":[0.0066217664,0.0065965201,0.0005587107],"gyro_integral_dt":4995,"accelerometer_timestamp_relative":0,"accelerometer_m_s2":[0.1385563463,0.0519074351,-9.7783384323],"accelerometer_integral_dt":4995,"accelerometer_clipping":0}
{"timestamp":402840666,"gyro_rad":[0.0009841734,-0.0005337288,-0.00219366],"gyro_integral_dt":4997,"accelerometer_timestamp_relative":0,"accelerometer_m_s2":[0.0851330757,0.0988546759,-9.7684803009],"accelerometer_integral_dt":4997,"accelerometer_clipping":0}
{"timestamp":402845907,"gyro_rad":[0.0100920238,0.0124914907,0.0018426554],"gyro_integral_dt":4996,"accelerometer_timestamp_relative":0,"accelerometer_m_s2":[0.0529218912,0.128523916,-9.8203897476],"accelerometer_integral_dt":4996,"accelerometer_clipping":0}
{"timestamp":402849222,"gyro_rad":[0.0019056767,-0.0015081152,-0.0011662282],"gyro_integral_dt":4996,"accelerometer_timestamp_relative":0,"accelerometer_m_s2":[0.0686733276,0.0259594768,-9.786450386],"accelerometer_integral_dt":4996,"accelerometer_clipping":0}
{"timestamp":402850187,"gyro_rad":[0.0039066961,0.0129920738,0.0009696936],"gyro_integral_dt":4995,"accelerometer_timestamp_relative":0,"accelerometer_m_s2":[-0.0381006375,0.1038849279,-9.8014421463],"accelerometer_integral_dt":4995,"accelerometer_clipping":0}
{"timestamp":402870612,"gyro_rad":[0.0057170512,-0.0007959528,-0.0016851171],"gyro_integral_dt":5001,"accelerometer_timestamp_relative":0,"accelerometer_m_s2":[0.0113003748,-0.0140508302,-9.739777565],"accelerometer_integral_dt":5001,"accelerometer_clipping":0}
{"timestamp":402869831,"gyro_rad":[0.0036679062,0.0086447001,-0.0006377271],"gyro_integral_dt":4999,"accelerometer_timestamp_relative":0,"accelerometer_m_s2":[-0.063718833,0.027666172,-9.7864522934],"accelerometer_integral_dt":4999,"accelerometer_clipping":0}
