{"timestamp":934521921,"gyro_rad":[0.0103743952,-0.0003289669,0.0005414867],"gyro_integral_dt":4996,"accelerometer_timestamp_relative":0,"accelerometer_m_s2":[0.0882773325,0.0842558518,-9.8021755219],"accelerometer_integral_dt":4996,"accelerometer_clipping":0}
{"timestamp":934530328,"gyro_rad":[0.0051082494,0.0085783349,0.0017290439],"gyro_integral_dt":5005,"accelerometer_timestamp_relative":0,"accelerometer_m_s2":[0.0431837626,0.1287378669,-9.7373533249],"accelerometer_integral_dt":5005,"accelerometer_clipping":0}
{"timestamp":934538957,"gyro_rad":[0.0090801334,-0.0001303357,-0.0025626558],"gyro_integral_dt":4989,"accelerometer_timestamp_relative":0,"accelerometer_m_s2":[0.0639487505,0.0986762047,-9.7914590836],"accelerometer_integral_dt":4989,"accelerometer_clipping":0}
{"timestamp":934551366,"gyro_rad":[0.0055294954,0.009700886,0.0025994824],"gyro_integral_dt":4998,"accelerometer_timestamp_relative":0,"accelerometer_m_s2":[0.0253542121,0.0776557401,-9.8048086166],"accelerometer_integral_dt":4998,"accelerometer_clipping":0}
{"timestamp":934550718,"gyro_rad":[0.0006634811,0.0026230956,-0.000675496],"gyro_integral_dt":4993,"accelerometer_timestamp_relative":0,"accelerometer_m_s2":[-0.0278728697,0.0809454396,-9.8332090378],"accelerometer_integral_dt":4993,"accelerometer_clipping":0}
{"timestamp":934554744,"gyro_rad":[0.0011796134,0.0111686345,0.0013850376],"gyro_integral_dt":4996,"accelerometer_timestamp_relative":0,"accelerometer_m_s2":[-0.0081612747,0.008681111,-9.7465896606],"accelerometer_integral_dt":4996,"accelerometer_clipping":0}
{"timestamp":934561070,"gyro_rad":[0.0143445572,0.0024363287,-0.0009972783],"gyro_integral_dt":4996,"accelerometer_timestamp_relative":0,"accelerometer_m_s2":[-0.1212677509,0.0313975029,-9.7837848663],"accelerometer_integral_dt":4996,"accelerometer_clipping":0}
{"timestamp":934571136,"gyro_rad":[0.0015461168,0.0036169069,-0.0006133975],"gyro_integral_dt":4998,"accelerometer_timestamp_relative":0,"accelerometer_m_s2":[-0.007328263,-0.0488567241,-9.8147315979],"accelerometer_integral_dt":4998,"accelerometer_clipping":0}
{"timestamp":934570189,"gyro_rad":[0.000245016,0.0049010515,0.0025079839],"gyro_integral_dt":4993,"accelerometer_timestamp_relative":0,"accelerometer_m_s2":[-0.0790155604,-0.060972631,-9.8034772873],"accelerometer_integral_dt":4993,"accelerometer_clipping":0}
{"timestamp":934591435,"gyro_rad":[0.0050565968,0.0026326491,-0.002753272],"gyro_integral_dt":4996,"accelerometer_timestamp_relative":0,"accelerometer_m_s2":[-0.0598913953,-0.0726275519,-9.8096179962],"accelerometer_integral_dt":4996,"accelerometer_clipping":0}
{"timestamp":934591131,"gyro_rad":[0.0127866277,0.0093682976,0.0000649506],"gyro_integral_dt":5004,"accelerometer_timestamp_relative":0,"accelerometer_m_s2":[-0.0048978617,-0.0818576962,-9.692987442],"accelerometer_integral_dt":5004,"accelerometer_clipping":0}
{"timestamp":934591817,"gyro_rad":[0.0023257402,-0.0051995828,-0.0026110115],"gyro_integral_dt":4986,"accelerometer_timestamp_relative":0,"accelerometer_m_s2":[0.0033963041,-0.0168874338,-9.8454332352],"accelerometer_integral_dt":4986,"accelerometer_clipping":0}
{"timestamp":934591360,"gyro_rad":[0.0012357946,0.012540224,0.0000243902],"gyro_integral_dt":4994,"accelerometer_timestamp_relative":0,"accelerometer_m_s2":[0.0743741915,-0.0233374629,-9.8291273117],"accelerometer_integral_dt":4994,"accelerometer_clipping":0}
{"timestamp":934601689,"gyro_rad":[0.0100114625,0.0024614974,-0.0004421881],"gyro_integral_dt":4998,"accelerometer_timestamp_relative":0,"accelerometer_m_s2":[0.0720953941,0.0116510745,-9.732213974],"accelerometer_integral_dt":4998,"accelerometer_clipping":0}
{"timestamp":934601059,"gyro_rad":[0.0095128184,0.0033668992,-0.0012066296],"gyro_integral_dt":4997,"accelerometer_timestamp_relative":0,"accelerometer_m_s2":[0.1023364663,0.0569734126,-9.7947311401],"accelerometer_integral_dt":4997,"accelerometer_clipping":0}
{"timestamp":934611344,"gyro_rad":[0.0060796067,0.0054386924,0.0004348318],"gyro_integral_dt":4992,"accelerometer_timestamp_relative":0,"accelerometer_m_s2":[0.0548257045,0.1181341037,-9.8125448227],"accelerometer_integral_dt":4992,"accelerometer_clipping":0}
{"timestamp":934611352,"gyro_rad":[-0.0031845432,0.0025062033,-0.0020591614],"gyro_integral_dt":4999,"accelerometer_timestamp_relative":0,"accelerometer_m_s2":[0.1050093248,0.0805519447,-9.7900133133],"accelerometer_integral_dt":4999,"accelerometer_clipping":0}
{"timestamp":934611826,"gyro_rad":[0.009618965,0.0125311865,0.0011169139],"gyro_integral_dt":4994,"accelerometer_timestamp_relative":0,"accelerometer_m_s2":[0.019741619,0.1617922336,-9.7632455826],"accelerometer_integral_dt":4994,"accelerometer_clipping":0}
{"timestamp":934620696,"gyro_rad":[0.009489852,-0.0037805156,-0.001674026],"gyro_integral_dt":4996,"accelerometer_timestamp_relative":0,"accelerometer_m_s2":[0.0609897077,0.0674583688,-9.8089094162],"accelerometer_integral_dt":4996,"accelerometer_clipping":0}
{"timestamp":934622399,"gyro_rad":[0.0018811569,0.0106415795,0.0000958995],"gyro_integral_dt":4996,"accelerometer_timestamp_relative":0,"accelerometer_m_s2":[-0.0117401658,0.1132847145,-9.7886667252],"accelerometer_integral_dt":4996,"accelerometer_clipping":0}
{"timestamp":934631747,"gyro_rad":[0.000110125,0.0022932282,0.0004020581],"gyro_integral_dt":4997,"accelerometer_timestamp_relative":0,"accelerometer_m_s2":[-0.0030199476,0.0312598236,-9.7923612595],"accelerometer_integral_dt":4997,"accelerometer_clipping":0}
{"timestamp":934632526,"gyro_rad":[0.0048245369,0.0073374384,-0.000354945],"gyro_integral_dt":4994,"accelerometer_timestamp_relative":0,"accelerometer_m_s2":[-0.0795340091,0.0264081173,-9.7382411957],"accelerometer_integral_dt":4994,"accelerometer_clipping":0}
{"timestamp":934639484,"gyro_rad":[0.0126525592,0.0051424131,-0.0000453733],"gyro_integral_dt":4995,"accelerometer_timestamp_relative":0,"accelerometer_m_s2":[-0.0616928376,-0.0077726352,-9.8441591263],"accelerometer_integral_dt":4995,"accelerometer_clipping":0}
{"timestamp":934642489,"gyro_rad":[-0.0050542625,0.0013236847,-0.0020667505],"gyro_integral_dt":4998,"accelerometer_timestamp_relative":0,"accelerometer_m_s2":[-0.0105162095,-0.0632461905,-9.7921047211],"accelerometer_integral_dt":4998,"accelerometer_clipping":0}
{"timestamp":934650564,"gyro_rad":[0.0033030037,0.0103613529,0.000058748],"gyro_integral_dt":4994,"accelerometer_timestamp_relative":0,"accelerometer_m_s2":[-0.0855178609,-0.0585399717,-9.812746048],"accelerometer_integral_dt":4994,"accelerometer_clipping":0}
{"timestamp":934651632,"gyro_rad":[0.0102688288,0.0020710453,-0.0038382479],"gyro_integral_dt":4998,"accelerometer_timestamp_relative":0,"accelerometer_m_s2":[-0.0449753068,-0.079445675,-9.7374067307],"accelerometer_integral_dt":4998,"accelerometer_clipping":0}
{"timestamp":934656740,"gyro_rad":[0.0087295435,0.0078009632,0.0006918058],"gyro_integral_dt":4994,"accelerometer_timestamp_relative":0,"accelerometer_m_s2":[0.0219471492,-0.0740155354,-9.7597675323],"accelerometer_integral_dt":4994,"accelerometer_clipping":0}
{"timestamp":934663114,"gyro_rad":[0.0006917494,-0.0039997571,-0.0030462162],"gyro_integral_dt":4997,"accelerometer_timestamp_relative":0,"accelerometer_m_s2":[0.0258074272,0.0055113039,-9.886469841],"accelerometer_integral_dt":4997,"accelerometer_clipping":0}
{"timestamp":934663382,"gyro_rad":[0.0026800998,0.0136593664,-0.0000171651],"gyro_integral_dt":4994,"accelerometer_timestamp_relative":0,"accelerometer_m_s2":[0.0752126873,-0.0276453234,-9.7867822647],"accelerometer_integral_dt":4994,"accelerometer_clipping":0}
{"timestamp":934671129,"gyro_rad":[0.0112312092,0.0006690402,-0.0022627548],"gyro_integral_dt":4993,"accelerometer_timestamp_relative":0,"accelerometer_m_s2":[0.0917457193,0.0291557517,-9.7582445145],"accelerometer_integral_dt":4993,"accelerometer_clipping":0}
{"timestamp":934681190,"gyro_rad":[0.0071340618,0.0034351135,-0.0024793744],"gyro_integral_dt":5000,"accelerometer_timestamp_relative":0,"accelerometer_m_s2":[0.0961375609,0.086015977,-9.7858381271],"accelerometer_integral_dt":5000,"accelerometer_clipping":0}
{"timestamp":934682229,"gyro_rad":[0.0035621368,0.0072760493,0.0003859266],"gyro_integral_dt":4996,"accelerometer_timestamp_relative":0,"accelerometer_m_s2":[0.1194949076,0.1011606604,-9.8387842178],"accelerometer_integral_dt":4996,"accelerometer_clipping":0}
{"timestamp":934689110,"gyro_rad":[-0.0011758948,0.0014393909,-0.0010868594],"gyro_integral_dt":4993,"accelerometer_timestamp_relative":0,"accelerometer_m_s2":[0.0790797472,0.1062745899,-9.7857217789],"accelerometer_integral_dt":4993,"accelerometer_clipping":0}
{"timestamp":934690102,"gyro_rad":[0.0132733081,0.0117865317,0.0025207112],"gyro_integral_dt":4996,"accelerometer_timestamp_relative":0,"accelerometer_m_s2":[0.0262309629,0.1136692613,-9.7654542923],"accelerometer_integral_dt":4996,"accelerometer_clipping":0}
{"timestamp":934699652,"gyro_rad":[0.004985292,-0.0075823562,-0.0012124074],"gyro_integral_dt":4996,"accelerometer_timestamp_relative":0,"accelerometer_m_s2":[0.0477711335,0.0696674287,-9.8112478256],"accelerometer_integral_dt":4996,"accelerometer_clipping":0}
{"timestamp":934699890,"gyro_rad":[0.0006820139,0.0148783978,0.0012523213],"gyro_integral_dt":4993,"accelerometer_timestamp_relative":0,"accelerometer_m_s2":[-0.0505468845,0.1190781519,-9.8288764954],"accelerometer_integral_dt":4993,"accelerometer_clipping":0}
{"timestamp":934706759,"gyro_rad":[0.0017312517,-0.0002429735,-0.0014114035],"gyro_integral_dt":4998,"accelerometer_timestamp_relative":0,"accelerometer_m_s2":[-0.0044062505,-0.0230203401,-9.747759819],"accelerometer_integral_dt":4998,"accelerometer_clipping":0}
{"timestamp":934709649,"gyro_rad":[0.0075498247,0.0079033775,-0.0007939046],"gyro_integral_dt":4996,"accelerometer_timestamp_relative":0,"accelerometer_m_s2":[-0.1128126681,0.0580462143,-9.7965936661],"accelerometer_integral_dt":4996,"accelerometer_clipping":0}
{"timestamp":934720344,"gyro_rad":[0.0079553733,0.0040800497,0.0005925444],"gyro_integral_dt":4995,"accelerometer_timestamp_relative":0,"accelerometer_m_s2":[-0.0309030078,-0.0474902615,-9.7936573029],"accelerometer_integral_dt":4995,"accelerometer_clipping":0}
{"timestamp":934721643,"gyro_rad":[-0.0066079237,0.002279619,-0.0014640666],"gyro_integral_dt":4996,"accelerometer_timestamp_relative":0,"accelerometer_m_s2":[-0.0444583744,-0.0645384789,-9.7873258591],"accelerometer_integral_dt":4996,"accelerometer_clipping":0}
{"timestamp":934731684,"gyro_rad":[0.007518163,0.0144666824,0.0014639613],"gyro_integral_dt":4995,"accelerometer_timestamp_relative":0,"accelerometer_m_s2":[-0.0783505142,-0.0489827171,-9.8313102722],"accelerometer_integral_dt":4995,"accelerometer_clipping":0}
{"timestamp":934730807,"gyro_rad":[0.0101015568,-0.0031452442,-0.0025498045],"gyro_integral_dt":4996,"accelerometer_timestamp_relative":0,"accelerometer_m_s2":[-0.0018937214,-0.1006260738,-9.6937608719],"accelerometer_integral_dt":4996,"accelerometer_clipping":0}
{"timestamp":934739691,"gyro_rad":[0.0060331053,0.0077630994,-0.0000517438],"gyro_integral_dt":4996,"accelerometer_timestamp_relative":0,"accelerometer_m_s2":[0.0015690338,0.009491181,-9.8459043503],"accelerometer_integral_dt":4996,"accelerometer_clipping":0}
{"timestamp":934741312,"gyro_rad":[0.0014236443,-0.0002165074,-0.0025950081],"gyro_integral_dt":4995,"accelerometer_timestamp_relative":0,"accelerometer_m_s2":[0.0913103819,-0.0378625169,-9.8138113022],"accelerometer_integral_dt":4995,"accelerometer_clipping":0}
{"timestamp":934750565,"gyro_rad":[0.0034846258,0.0124847041,-0.0017735225],"gyro_integral_dt":4996,"accelerometer_timestamp_relative":0,"accelerometer_m_s2":[0.0579449572,0.0003768408,-9.7578573227],"accelerometer_integral_dt":4996,"accelerometer_clipping":0}
{"timestamp":934751525,"gyro_rad":[0.0152631095,0.0011851102,-0.0011727125],"gyro_integral_dt":4996,"accelerometer_timestamp_relative":0,"accelerometer_m_s2":[0.0935005993,0.0691213831,-9.8030500412],"accelerometer_integral_dt":4996,"accelerometer_clipping":0}
{"timestamp":934757474,"gyro_rad":[0.0042042392,0.0027841066,-0.0001649864],"gyro_integral_dt":4993,"accelerometer_timestamp_relative":0,"accelerometer_m_s2":[0.087423183,0.1005234867,-9.7747125626],"accelerometer_integral_dt":4993,"accelerometer_clipping":0}
{"timestamp":934758821,"gyro_rad":[0.0019546212,0.0088802977,0.001229752],"gyro_integral_dt":4997,"accelerometer_timestamp_relative":0,"accelerometer_m_s2":[0.1247819439,0.0646937266,-9.8213424683],"accelerometer_integral_dt":4997,"accelerometer_clipping":0}
{"timestamp":934770877,"gyro_rad":[0.0033169237,0.0011375115,-0.0016171939],"gyro_integral_dt":4997,"accelerometer_timestamp_relative":0,"accelerometer_m_s2":[0.021453429,0.1441548765,-9.7595386505],"accelerometer_integral_dt":4997,"accelerometer_clipping":0}
{"timestamp":934771730,"gyro_rad":[0.0123052336,0.0094693787,0.0026093365],"gyro_integral_dt":4995,"accelerometer_timestamp_relative":0,"accelerometer_m_s2":[0.0785118118,0.0714095011,-9.7910051346],"accelerometer_integral_dt":4995,"accelerometer_clipping":0}
{"timestamp":934779820,"gyro_rad":[0.0005979024,-0.0046549658,-0.001033437],"gyro_integral_dt":4996,"accelerometer_timestamp_relative":0,"accelerometer_m_s2":[-0.017305309,0.1312785745,-9.8343524933],"accelerometer_integral_dt":4996,"accelerometer_clipping":0}
{"timestamp":934781072,"gyro_rad":[-0.0021043103,0.0157576911,-0.0002709142],"gyro_integral_dt":4996,"accelerometer_timestamp_relative":0,"accelerometer_m_s2":[-0.0001301785,0.0493522473,-9.7656316757],"accelerometer_integral_dt":4996,"accelerometer_clipping":0}
{"timestamp":934788817,"gyro_rad":[0.0068750693,-0.0025557464,0.0005170918],"gyro_integral_dt":4998,"accelerometer_timestamp_relative":0,"accelerometer_m_s2":[-0.0558168329,0.0318555757,-9.709980011],"accelerometer_integral_dt":4998,"accelerometer_clipping":0}
{"timestamp":934789815,"gyro_rad":[0.0101218112,0.0103848465,0.0000261498],"gyro_integral_dt":4996,"accelerometer_timestamp_relative":0,"accelerometer_m_s2":[-0.0910252556,0.0045917952,-9.8372116089],"accelerometer_integral_dt":4996,"accelerometer_clipping":0}
{"timestamp":934799515,"gyro_rad":[0.0009313396,0.002678266,0.0000862185],"gyro_integral_dt":4994,"accelerometer_timestamp_relative":0,"accelerometer_m_s2":[-0.0181375053,-0.0707287341,-9.756611824],"accelerometer_integral_dt":4994,"accelerometer_clipping":0}
{"timestamp":934800523,"gyro_rad":[-0.0030810626,0.0020344357,-0.0025136359],"gyro_integral_dt":4996,"accelerometer_timestamp_relative":0,"accelerometer_m_s2":[-0.0673983917,-0.040701557,-9.8189544678],"accelerometer_integral_dt":4996,"accelerometer_clipping":0}
{"timestamp":934804347,"gyro_rad":[0.0106972782,0.0141979028,0.000204328],"gyro_integral_dt":4994,"accelerometer_timestamp_relative":0,"accelerometer_m_s2":[-0.0446786247,-0.0904721916,-9.7525138855],"accelerometer_integral_dt":4994,"accelerometer_clipping":0}
{"timestamp":934810143,"gyro_rad":[0.0097301705,-0.0071282345,-0.0022331784],"gyro_integral_dt":4995,"accelerometer_timestamp_relative":0,"accelerometer_m_s2":[0.0389087982,-0.0455618687,-9.7223024368],"accelerometer_integral_dt":4995,"accelerometer_clipping":0}
{"timestamp":934814446,"gyro_rad":[0.0027947032,0.0117202755,0.0010221988],"gyro_integral_dt":4997,"accelerometer_timestamp_relative":0,"accelerometer_m_s2":[0.0094445972,-0.0291791353,-9.8725948334],"accelerometer_integral_dt":4997,"accelerometer_clipping":0}
{"timestamp":934821107,"gyro_rad":[0.0025350344,0.0002787703,-0.0014335712],"gyro_integral_dt":4995,"accelerometer_timestamp_relative":0,"accelerometer_m_s2":[0.095370315,-0.0363310501,-9.7753353119],"accelerometer_integral_dt":4995,"accelerometer_clipping":0}
{"timestamp":934824222,"gyro_rad":[0.0086255986,0.0104251802,-0.000214678],"gyro_integral_dt":4998,"accelerometer_timestamp_relative":0,"accelerometer_m_s2":[0.0676922724,0.0115865208,-9.7742481232],"accelerometer_integral_dt":4998,"accelerometer_clipping":0}
{"timestamp":934833061,"gyro_rad":[0.0117668975,0.0016541714,0.0000885298],"gyro_integral_dt":4992,"accelerometer_timestamp_relative":0,"accelerometer_m_s2":[0.0913899168,0.0723624676,-9.7651433945],"accelerometer_integral_dt":4992,"accelerometer_clipping":0}
{"timestamp":934831856,"gyro_rad":[-0.0014811008,0.0041244859,-0.0023345782],"gyro_integral_dt":5000,"accelerometer_timestamp_relative":0,"accelerometer_m_s2":[0.1090532169,0.1149687916,-9.8431921005],"accelerometer_integral_dt":5000,"accelerometer_clipping":0}
{"timestamp":934841852,"gyro_rad":[0.002813475,0.01175291,0.001282927],"gyro_integral_dt":4995,"accelerometer_timestamp_relative":0,"accelerometer_m_s2":[0.0873061046,0.1053425893,-9.7884292603],"accelerometer_integral_dt":4995,"accelerometer_clipping":0}
{"timestamp":934849421,"gyro_rad":[0.0074050976,0.0003182387,-0.0017561793],"gyro_integral_dt":4993,"accelerometer_timestamp_relative":0,"accelerometer_m_s2":[0.0529412366,0.1442005336,-9.777048111],"accelerometer_integral_dt":4993,"accelerometer_clipping":0}
{"timestamp":934850447,"gyro_rad":[0.0097289616,0.0091676945,0.001654995],"gyro_integral_dt":4996,"accelerometer_timestamp_relative":0,"accelerometer_m_s2":[0.0507263988,0.0661085322,-9.8141298294],"accelerometer_integral_dt":4996,"accelerometer_clipping":0}
{"timestamp":934855091,"gyro_rad":[-0.0006774704,-0.0007936968,-0.002284881],"gyro_integral_dt":4996,"accelerometer_timestamp_relative":0,"accelerometer_m_s2":[-0.0295173544,0.1173782051,-9.8025827408],"accelerometer_integral_dt":4996,"accelerometer_clipping":0}
{"timestamp":934861151,"gyro_rad":[-0.0018298086,0.0109709958,0.0008260685],"gyro_integral_dt":4995,"accelerometer_timestamp_relative":0,"accelerometer_m_s2":[0.0088671604,0.0094740121,-9.7641048431],"accelerometer_integral_dt":4995,"accelerometer_clipping":0}
{"timestamp":934865511,"gyro_rad":[0.0094881328,0.0018234631,-0.0004992532],"gyro_integral_dt":4998,"accelerometer_timestamp_relative":0,"accelerometer_m_s2":[-0.1009149775,0.0289985053,-9.7414674759],"accelerometer_integral_dt":4998,"accelerometer_clipping":0}
{"timestamp":934870659,"gyro_rad":[0.006112311,0.0053833937,-0.0012986573],"gyro_integral_dt":4993,"accelerometer_timestamp_relative":0,"accelerometer_m_s2":[-0.0345440619,-0.0359096676,-9.8309621811],"accelerometer_integral_dt":4993,"accelerometer_clipping":0}
{"timestamp":934876973,"gyro_rad":[-0.0008292722,0.0053013172,0.000181689],"gyro_integral_dt":4996,"accelerometer_timestamp_relative":0,"accelerometer_m_s2":[-0.0382823609,-0.0555276424,-9.7672519684],"accelerometer_integral_dt":4996,"accelerometer_clipping":0}
{"timestamp":934890506,"gyro_rad":[0.0003416802,0.0026980436,-0.0021210304],"gyro_integral_dt":4998,"accelerometer_timestamp_relative":0,"accelerometer_m_s2":[-0.0634483024,-0.0348688215,-9.8219566345],"accelerometer_integral_dt":4998,"accelerometer_clipping":0}
{"timestamp":934890895,"gyro_rad":[0.0138357813,0.0122998273,0.0000496762],"gyro_integral_dt":4994,"accelerometer_timestamp_relative":0,"accelerometer_m_s2":[-0.0229028556,-0.0911164358,-9.7184476852],"accelerometer_integral_dt":4994,"accelerometer_clipping":0}
{"timestamp":934908740,"gyro_rad":[0.0060685538,-0.0071752854,-0.0029791452],"gyro_integral_dt":4995,"accelerometer_timestamp_relative":0,"accelerometer_m_s2":[-0.0007430876,-0.0229077712,-9.8184843063],"accelerometer_integral_dt":4995,"accelerometer_clipping":0}
{"timestamp":934910627,"gyro_rad":[-0.0000836403,0.0128467754,0.0003704156],"gyro_integral_dt":4996,"accelerometer_timestamp_relative":0,"accelerometer_m_s2":[0.0654699653,-0.0254650973,-9.8604307175],"accelerometer_integral_dt":4996,"accelerometer_clipping":0}
{"timestamp":934911505,"gyro_rad":[0.0052121896,0.0018136422,-0.0008059147],"gyro_integral_dt":4996,"accelerometer_timestamp_relative":0,"accelerometer_m_s2":[0.0421338007,-0.0011019278,-9.7229309082],"accelerometer_integral_dt":4996,"accelerometer_clipping":0}
{"timestamp":934910788,"gyro_rad":[0.0091906646,0.0062675951,-0.0004042827],"gyro_integral_dt":4995,"accelerometer_timestamp_relative":0,"accelerometer_m_s2":[0.097998485,0.0396874025,-9.785782814],"accelerometer_integral_dt":4995,"accelerometer_clipping":0}
{"timestamp":934911972,"gyro_rad":[0.0089042513,0.0035514494,0.000644725],"gyro_integral_dt":4996,"accelerometer_timestamp_relative":0,"accelerometer_m_s2":[0.0856090188,0.0828739107,-9.8042736053],"accelerometer_integral_dt":4996,"accelerometer_clipping":0}
{"timestamp":934917855,"gyro_rad":[-0.00336182,0.0023907956,-0.002238615],"gyro_integral_dt":4996,"accelerometer_timestamp_relative":0,"accelerometer_m_s2":[0.1482163519,0.0692232475,-9.8125276566],"accelerometer_integral_dt":4996,"accelerometer_clipping":0}
{"timestamp":934919018,"gyro_rad":[0.0054857172,0.0131411003,0.0017588803],"gyro_integral_dt":4999,"accelerometer_timestamp_relative":0,"accelerometer_m_s2":[0.0513730235,0.1409187168,-9.7585105896],"accelerometer_integral_dt":4999,"accelerometer_clipping":0}
{"timestamp":934931709,"gyro_rad":[0.0117378617,-0.0016677596,-0.0020292287],"gyro_integral_dt":4989,"accelerometer_timestamp_relative":0,"accelerometer_m_s2":[0.0530285016,0.0891068056,-9.7949857712],"accelerometer_integral_dt":4989,"accelerometer_clipping":0}
{"timestamp":934933656,"gyro_rad":[0.0046019908,0.0091067515,0.0007904909],"gyro_integral_dt":4998,"accelerometer_timestamp_relative":0,"accelerometer_m_s2":[0.0191925634,0.109039031,-9.8037948608],"accelerometer_integral_dt":4998,"accelerometer_clipping":0}
{"timestamp":934939680,"gyro_rad":[-0.001933826,0.0024214904,-0.0004091035],"gyro_integral_dt":4997,"accelerometer_timestamp_relative":0,"accelerometer_m_s2":[-0.0246905778,0.0754171014,-9.8195123672],"accelerometer_integral_dt":4997,"accelerometer_clipping":0}
{"timestamp":934945274,"gyro_rad":[0.0018592207,0.0089396937,0.0001293752],"gyro_integral_dt":4996,"accelerometer_timestamp_relative":0,"accelerometer_m_s2":[-0.0135108372,-0.0051415814,-9.728222847],"accelerometer_integral_dt":4996,"accelerometer_clipping":0}
{"timestamp":934944444,"gyro_rad":[0.013645092,0.0037321476,-0.0001809465],"gyro_integral_dt":4995,"accelerometer_timestamp_relative":0,"accelerometer_m_s2":[-0.1083284169,0.0200461112,-9.8126134872],"accelerometer_integral_dt":4995,"accelerometer_clipping":0}
{"timestamp":934952810,"gyro_rad":[-0.0004776296,0.0025153658,-0.0024199279],"gyro_integral_dt":4997,"accelerometer_timestamp_relative":0,"accelerometer_m_s2":[-0.0107775852,-0.0608606637,-9.7691860199],"accelerometer_integral_dt":4997,"accelerometer_clipping":0}
{"timestamp":934958721,"gyro_rad":[-0.0003610043,0.0064861071,0.0014873361],"gyro_integral_dt":4994,"accelerometer_timestamp_relative":0,"accelerometer_m_s2":[-0.0654830411,-0.051800672,-9.8004627228],"accelerometer_integral_dt":4994,"accelerometer_clipping":0}
{"timestamp":934961638,"gyro_rad":[0.0068382109,0.0022642133,-0.0032219782],"gyro_integral_dt":5004,"accelerometer_timestamp_relative":0,"accelerometer_m_s2":[-0.0512948669,-0.0502474159,-9.8101787567],"accelerometer_integral_dt":5004,"accelerometer_clipping":0}
{"timestamp":934970959,"gyro_rad":[0.0125463083,0.0091785761,0.0007612502],"gyro_integral_dt":4989,"accelerometer_timestamp_relative":0,"accelerometer_m_s2":[0.0382634215,-0.0714961216,-9.6974077225],"accelerometer_integral_dt":4989,"accelerometer_clipping":0}
{"timestamp":934971543,"gyro_rad":[0.0026454597,-0.0053830203,-0.0023419417],"gyro_integral_dt":4993,"accelerometer_timestamp_relative":0,"accelerometer_m_s2":[0.0085118664,-0.0147658549,-9.8664169312],"accelerometer_integral_dt":4993,"accelerometer_clipping":0}
{"timestamp":934976494,"gyro_rad":[0.0000413459,0.0129077351,-0.0009552578],"gyro_integral_dt":4999,"accelerometer_timestamp_relative":0,"accelerometer_m_s2":[0.0855217353,-0.0503943227,-9.8231315613],"accelerometer_integral_dt":4999,"accelerometer_clipping":0}
{"timestamp":934982573,"gyro_rad":[0.0119555015,0.0019831769,-0.0010889004],"gyro_integral_dt":4993,"accelerometer_timestamp_relative":0,"accelerometer_m_s2":[0.0661958233,0.0083927559,-9.7426967621],"accelerometer_integral_dt":4993,"accelerometer_clipping":0}
{"timestamp":934988119,"gyro_rad":[0.010194554,0.0015006502,-0.0015132194],"gyro_integral_dt":4996,"accelerometer_timestamp_relative":0,"accelerometer_m_s2":[0.0826850906,0.0720319822,-9.7993927002],"accelerometer_integral_dt":4996,"accelerometer_clipping":0}
{"timestamp":934991414,"gyro_rad":[0.00702682,0.0061130468,0.001206659],"gyro_integral_dt":4996,"accelerometer_timestamp_relative":0,"accelerometer_m_s2":[0.104508616,0.0842460841,-9.814365387],"accelerometer_integral_dt":4996,"accelerometer_clipping":0}
{"timestamp":934996694,"gyro_rad":[-0.0024398165,0.0006798535,-0.0011398019],"gyro_integral_dt":4995,"accelerometer_timestamp_relative":0,"accelerometer_m_s2":[0.0955283716,0.0906215534,-9.7775039673],"accelerometer_integral_dt":4995,"accelerometer_clipping":0}
{"timestamp":935000871,"gyro_rad":[0.0111420248,0.0136663951,0.000235753],"gyro_integral_dt":4996,"accelerometer_timestamp_relative":0,"accelerometer_m_s2":[0.0205797907,0.1323898882,-9.7751245499],"accelerometer_integral_dt":4996,"accelerometer_clipping":0}
{"timestamp":935009385,"gyro_rad":[0.0096614221,-0.0070903129,-0.0007289494],"gyro_integral_dt":4996,"accelerometer_timestamp_relative":0,"accelerometer_m_s2":[0.0613363162,0.0808207169,-9.7969379425],"accelerometer_integral_dt":4996,"accelerometer_clipping":0}
{"timestamp":935010197,"gyro_rad":[-0.0013599929,0.014397135,0.0011513866],"gyro_integral_dt":4996,"accelerometer_timestamp_relative":0,"accelerometer_m_s2":[-0.0483020507,0.1242311671,-9.8072490692],"accelerometer_integral_dt":4996,"accelerometer_clipping":0}
{"timestamp":935019167,"gyro_rad":[0.0002539518,0.003385545,-0.0007152035],"gyro_integral_dt":4998,"accelerometer_timestamp_relative":0,"accelerometer_m_s2":[0.0101292655,0.0160516165,-9.7910642624],"accelerometer_integral_dt":4998,"accelerometer_clipping":0}
{"timestamp":935019124,"gyro_rad":[0.004764426,0.0065830443,-0.0003920403],"gyro_integral_dt":4994,"accelerometer_timestamp_relative":0,"accelerometer_m_s2":[-0.0737029687,0.0382925607,-9.730931282],"accelerometer_integral_dt":4994,"accelerometer_clipping":0}
{"timestamp":935028841,"gyro_rad":[0.0114338249,0.0055178185,0.0003264601],"gyro_integral_dt":4997,"accelerometer_timestamp_relative":0,"accelerometer_m_s2":[-0.0671886429,-0.0013403853,-9.8162546158],"accelerometer_integral_dt":4997,"accelerometer_clipping":0}
{"timestamp":935030016,"gyro_rad":[-0.0040561222,-0.0018343542,-0.0018883458],"gyro_integral_dt":4995,"accelerometer_timestamp_relative":0,"accelerometer_m_s2":[-0.0191352908,-0.0616184585,-9.7799310684],"accelerometer_integral_dt":4995,"accelerometer_clipping":0}
{"timestamp":935038680,"gyro_rad":[0.0025906905,0.0114675425,0.0005107679],"gyro_integral_dt":4993,"accelerometer_timestamp_relative":0,"accelerometer_m_s2":[-0.0879404023,-0.0478635915,-9.8326826096],"accelerometer_integral_dt":4993,"accelerometer_clipping":0}
{"timestamp":935051623,"gyro_rad":[0.0104207024,0.0007643327,-0.0024395518],"gyro_integral_dt":4998,"accelerometer_timestamp_relative":0,"accelerometer_m_s2":[-0.0184988696,-0.1014622301,-9.7156171799],"accelerometer_integral_dt":4998,"accelerometer_clipping":0}
{"timestamp":935050754,"gyro_rad":[0.0087611619,0.0075181862,0.0001874263],"gyro_integral_dt":4991,"accelerometer_timestamp_relative":0,"accelerometer_m_s2":[0.0264344569,-0.0433881544,-9.7895374298],"accelerometer_integral_dt":4991,"accelerometer_clipping":0}
{"timestamp":935060241,"gyro_rad":[0.0020546396,-0.0023084132,-0.0013437098],"gyro_integral_dt":4993,"accelerometer_timestamp_relative":0,"accelerometer_m_s2":[0.0453860648,-0.0118410708,-9.8612289429],"accelerometer_integral_dt":4993,"accelerometer_clipping":0}
{"timestamp":935059956,"gyro_rad":[0.0021489721,0.0112761091,-0.0010351938],"gyro_integral_dt":5007,"accelerometer_timestamp_relative":0,"accelerometer_m_s2":[0.0699868575,-0.0399954692,-9.7622032166],"accelerometer_integral_dt":5007,"accelerometer_clipping":0}
{"timestamp":935064289,"gyro_rad":[0.0144752925,0.0005772829,-0.0018647932],"gyro_integral_dt":4994,"accelerometer_timestamp_relative":0,"accelerometer_m_s2":[0.1030043438,0.0385165885,-9.7888402939],"accelerometer_integral_dt":4994,"accelerometer_clipping":0}
{"timestamp":935070563,"gyro_rad":[0.0070339115,0.0024297629,-0.0012873574],"gyro_integral_dt":4993,"accelerometer_timestamp_relative":0,"accelerometer_m_s2":[0.0997066498,0.0862887055,-9.7750816345],"accelerometer_integral_dt":4993,"accelerometer_clipping":0}
{"timestamp":935081827,"gyro_rad":[0.0010564841,0.0088541582,0.0004291191],"gyro_integral_dt":4996,"accelerometer_timestamp_relative":0,"accelerometer_m_s2":[0.1524096578,0.0748960599,-9.8346061707],"accelerometer_integral_dt":4996,"accelerometer_clipping":0}
{"timestamp":935080567,"gyro_rad":[0.0022055972,0.0010898686,-0.0013894731],"gyro_integral_dt":4991,"accelerometer_timestamp_relative":0,"accelerometer_m_s2":[0.0568878166,0.1289251149,-9.771686554],"accelerometer_integral_dt":4991,"accelerometer_clipping":0}
{"timestamp":935086833,"gyro_rad":[0.0126790972,0.0125977676,0.0018307077],"gyro_integral_dt":5000,"accelerometer_timestamp_relative":0,"accelerometer_m_s2":[0.08221706,0.0736681372,-9.7618627548],"accelerometer_integral_dt":5000,"accelerometer_clipping":0}
{"timestamp":935086624,"gyro_rad":[0.0054039042,-0.0063944277,-0.0018378349],"gyro_integral_dt":5006,"accelerometer_timestamp_relative":0,"accelerometer_m_s2":[0.0262546949,0.1180898547,-9.8231487274],"accelerometer_integral_dt":5006,"accelerometer_clipping":0}
{"timestamp":935101653,"gyro_rad":[0.0000264829,0.0153962569,0.0012583402],"gyro_integral_dt":4990,"accelerometer_timestamp_relative":0,"accelerometer_m_s2":[-0.0376524106,0.0880001187,-9.8103628159],"accelerometer_integral_dt":4990,"accelerometer_clipping":0}
{"timestamp":935100614,"gyro_rad":[0.0036502986,0.0001854513,0.0006266135],"gyro_integral_dt":5003,"accelerometer_timestamp_relative":0,"accelerometer_m_s2":[-0.009627915,0.0020868178,-9.7491912842],"accelerometer_integral_dt":5003,"accelerometer_clipping":0}
{"timestamp":935112647,"gyro_rad":[0.0095275464,0.0059969355,0.0002599633],"gyro_integral_dt":4996,"accelerometer_timestamp_relative":0,"accelerometer_m_s2":[-0.1257377267,0.0409905054,-9.8269319534],"accelerometer_integral_dt":4996,"accelerometer_clipping":0}
{"timestamp":935111476,"gyro_rad":[0.0063325451,0.0050853374,0.0026667421],"gyro_integral_dt":4996,"accelerometer_timestamp_relative":0,"accelerometer_m_s2":[-0.0124216964,-0.0541364849,-9.7558135986],"accelerometer_integral_dt":4996,"accelerometer_clipping":0}
{"timestamp":935113255,"gyro_rad":[-0.0052459282,-0.0010428802,-0.0019565162],"gyro_integral_dt":5005,"accelerometer_timestamp_relative":0,"accelerometer_m_s2":[-0.0617881939,-0.0310759861,-9.8174390793],"accelerometer_integral_dt":5005,"accelerometer_clipping":0}
{"timestamp":935120983,"gyro_rad":[0.0090402672,0.0154779805,0.0012451608],"gyro_integral_dt":4999,"accelerometer_timestamp_relative":0,"accelerometer_m_s2":[-0.0463745408,-0.0451795831,-9.806804657],"accelerometer_integral_dt":4999,"accelerometer_clipping":0}
{"timestamp":935120858,"gyro_rad":[0.0098081883,-0.0045384499,-0.0030784151],"gyro_integral_dt":4989,"accelerometer_timestamp_relative":0,"accelerometer_m_s2":[0.0300301928,-0.1047804356,-9.6957845688],"accelerometer_integral_dt":4989,"accelerometer_clipping":0}
{"timestamp":935124246,"gyro_rad":[0.0041060969,0.0088015683,-0.0004694778],"gyro_integral_dt":4998,"accelerometer_timestamp_relative":0,"accelerometer_m_s2":[-0.0052486295,0.0115046781,-9.8782396317],"accelerometer_integral_dt":4998,"accelerometer_clipping":0}
{"timestamp":935140973,"gyro_rad":[0.0009862963,-0.0005424154,-0.0024266008],"gyro_integral_dt":5013,"accelerometer_timestamp_relative":0,"accelerometer_m_s2":[0.1020858809,-0.0507742092,-9.7787780762],"accelerometer_integral_dt":5013,"accelerometer_clipping":0}
{"timestamp":935140198,"gyro_rad":[0.0070792804,0.010761044,-0.0017113008],"gyro_integral_dt":4984,"accelerometer_timestamp_relative":0,"accelerometer_m_s2":[0.0481384061,0.0323325172,-9.7737693787],"accelerometer_integral_dt":4984,"accelerometer_clipping":0}
{"timestamp":935141620,"gyro_rad":[0.0134679172,0.0023005952,-0.001166245],"gyro_integral_dt":5004,"accelerometer_timestamp_relative":0,"accelerometer_m_s2":[0.1172546968,0.0483886115,-9.7738714218],"accelerometer_integral_dt":5004,"accelerometer_clipping":0}
{"timestamp":935140814,"gyro_rad":[0.0016271226,0.0022126101,-0.0032452054],"gyro_integral_dt":4992,"accelerometer_timestamp_relative":0,"accelerometer_m_s2":[0.1139652804,0.118143186,-9.8150901794],"accelerometer_integral_dt":4992,"accelerometer_clipping":0}
{"timestamp":935151698,"gyro_rad":[0.0008316439,0.0089159366,0.0013920005],"gyro_integral_dt":5004,"accelerometer_timestamp_relative":0,"accelerometer_m_s2":[0.1174865142,0.0754028857,-9.8214082718],"accelerometer_integral_dt":5004,"accelerometer_clipping":0}
{"timestamp":935160422,"gyro_rad":[0.0045924694,0.0026042382,-0.0011646271],"gyro_integral_dt":4994,"accelerometer_timestamp_relative":0,"accelerometer_m_s2":[0.0246804859,0.1442895681,-9.748588562],"accelerometer_integral_dt":4994,"accelerometer_clipping":0}
{"timestamp":935161541,"gyro_rad":[0.0104389368,0.0092628598,0.0004619134],"gyro_integral_dt":5000,"accelerometer_timestamp_relative":0,"accelerometer_m_s2":[0.0636286512,0.0879536644,-9.799823761],"accelerometer_integral_dt":5000,"accelerometer_clipping":0}
{"timestamp":935167041,"gyro_rad":[0.0005094914,-0.0021361473,-0.0006741195],"gyro_integral_dt":4994,"accelerometer_timestamp_relative":0,"accelerometer_m_s2":[-0.0385283343,0.1146814376,-9.8148727417],"accelerometer_integral_dt":4994,"accelerometer_clipping":0}
{"timestamp":935167812,"gyro_rad":[-0.0031528776,0.0129688615,0.0001148851],"gyro_integral_dt":5000,"accelerometer_timestamp_relative":0,"accelerometer_m_s2":[0.0092672855,0.0274671968,-9.8005504608],"accelerometer_integral_dt":5000,"accelerometer_clipping":0}
{"timestamp":935180941,"gyro_rad":[0.008070061,0.0005456626,0.0007725424],"gyro_integral_dt":5000,"accelerometer_timestamp_relative":0,"accelerometer_m_s2":[-0.090439178,0.0473033488,-9.7331438065],"accelerometer_integral_dt":5000,"accelerometer_clipping":0}
{"timestamp":935181484,"gyro_rad":[0.008680908,0.0060228379,-0.0002176406],"gyro_integral_dt":5001,"accelerometer_timestamp_relative":0,"accelerometer_m_s2":[-0.0835147649,-0.0174547676,-9.8133916855],"accelerometer_integral_dt":5001,"accelerometer_clipping":0}
{"timestamp":935189205,"gyro_rad":[0.0008416809,0.0037094872,0.0009888208],"gyro_integral_dt":4997,"accelerometer_timestamp_relative":0,"accelerometer_m_s2":[-0.0339633375,-0.0385109596,-9.7752971649],"accelerometer_integral_dt":4997,"accelerometer_clipping":0}
{"timestamp":935190826,"gyro_rad":[-0.0020466277,0.0002601479,-0.0018966788],"gyro_integral_dt":4995,"accelerometer_timestamp_relative":0,"accelerometer_m_s2":[-0.0662385002,-0.0392075293,-9.8359651566],"accelerometer_integral_dt":4995,"accelerometer_clipping":0}
{"timestamp":935198554,"gyro_rad":[0.0113837756,0.0129548116,0.0001467622],"gyro_integral_dt":5002,"accelerometer_timestamp_relative":0,"accelerometer_m_s2":[-0.0130054206,-0.0960609764,-9.7618293762],"accelerometer_integral_dt":5002,"accelerometer_clipping":0}
{"timestamp":935199909,"gyro_rad":[0.0098657832,-0.0065674107,-0.0017640992],"gyro_integral_dt":4991,"accelerometer_timestamp_relative":0,"accelerometer_m_s2":[0.0374132246,-0.0644889027,-9.7667474747],"accelerometer_integral_dt":4991,"accelerometer_clipping":0}
{"timestamp":935209911,"gyro_rad":[0.0015055775,0.0100415926,-0.0010908629],"gyro_integral_dt":5010,"accelerometer_timestamp_relative":0,"accelerometer_m_s2":[0.0287506804,-0.0207165275,-9.8778371811],"accelerometer_integral_dt":5010,"accelerometer_clipping":0}
{"timestamp":935209364,"gyro_rad":[0.0042497045,0.0024385329,-0.0009073849],"gyro_integral_dt":5001,"accelerometer_timestamp_relative":0,"accelerometer_m_s2":[0.0815991759,-0.0377537534,-9.7678947449],"accelerometer_integral_dt":5001,"accelerometer_clipping":0}
{"timestamp":935216774,"gyro_rad":[0.0073107537,0.0073686605,-0.0016541958],"gyro_integral_dt":4995,"accelerometer_timestamp_relative":0,"accelerometer_m_s2":[0.0794696212,0.0053249039,-9.7740030289],"accelerometer_integral_dt":4995,"accelerometer_clipping":0}
{"timestamp":935217533,"gyro_rad":[0.011722479,0.0014694965,-0.0000681105],"gyro_integral_dt":4991,"accelerometer_timestamp_relative":0,"accelerometer_m_s2":[0.1000141799,0.0741720423,-9.7843866348],"accelerometer_integral_dt":4991,"accelerometer_clipping":0}
{"timestamp":935231349,"gyro_rad":[-0.0026578379,0.0020344693,-0.002587487],"gyro_integral_dt":5004,"accelerometer_timestamp_relative":0,"accelerometer_m_s2":[0.120197773,0.1053718179,-9.8262624741],"accelerometer_integral_dt":5004,"accelerometer_clipping":0}
{"timestamp":935232386,"gyro_rad":[0.0008967418,0.0122596724,0.000238646],"gyro_integral_dt":4992,"accelerometer_timestamp_relative":0,"accelerometer_m_s2":[0.0754766241,0.0819139034,-9.7795438766],"accelerometer_integral_dt":4992,"accelerometer_clipping":0}
{"timestamp":935236721,"gyro_rad":[0.0098870229,-0.0001259686,-0.0021758974],"gyro_integral_dt":5010,"accelerometer_timestamp_relative":0,"accelerometer_m_s2":[0.0317568816,0.1260981709,-9.7717761993],"accelerometer_integral_dt":5010,"accelerometer_clipping":0}
{"timestamp":935239820,"gyro_rad":[0.0068810666,0.0095080286,0.0027454102],"gyro_integral_dt":5002,"accelerometer_timestamp_relative":0,"accelerometer_m_s2":[0.0843128189,0.0654722378,-9.7923612595],"accelerometer_integral_dt":5002,"accelerometer_clipping":0}
{"timestamp":935250198,"gyro_rad":[0.000175615,0.0011900191,-0.0001753947],"gyro_integral_dt":4995,"accelerometer_timestamp_relative":0,"accelerometer_m_s2":[-0.0471106134,0.1074597538,-9.8203964233],"accelerometer_integral_dt":4995,"accelerometer_clipping":0}
{"timestamp":935250798,"gyro_rad":[0.0004862552,0.0101796333,-0.0010895581],"gyro_integral_dt":4992,"accelerometer_timestamp_relative":0,"accelerometer_m_s2":[0.026153164,-0.0196450818,-9.7581777573],"accelerometer_integral_dt":4992,"accelerometer_clipping":0}
{"timestamp":935259973,"gyro_rad":[0.0128037827,0.0037088911,-0.0005231361],"gyro_integral_dt":5001,"accelerometer_timestamp_relative":0,"accelerometer_m_s2":[-0.1247140616,0.0651614517,-9.7890148163],"accelerometer_integral_dt":5001,"accelerometer_clipping":0}
{"timestamp":935260037,"gyro_rad":[0.0043408903,0.0030960843,-0.0019539634],"gyro_integral_dt":4992,"accelerometer_timestamp_relative":0,"accelerometer_m_s2":[-0.0249357447,-0.0570215397,-9.8122434616],"accelerometer_integral_dt":4992,"accelerometer_clipping":0}
{"timestamp":935268901,"gyro_rad":[-0.0009649051,0.0057467893,0.0012215723],"gyro_integral_dt":5005,"accelerometer_timestamp_relative":0,"accelerometer_m_s2":[-0.0370113924,-0.0470505506,-9.7839565277],"accelerometer_integral_dt":5005,"accelerometer_clipping":0}
{"timestamp":935270057,"gyro_rad":[0.0037111172,0.001814861,-0.0026568575],"gyro_integral_dt":5004,"accelerometer_timestamp_relative":0,"accelerometer_m_s2":[-0.0516043045,-0.06091398,-9.8202905655],"accelerometer_integral_dt":5004,"accelerometer_clipping":0}
{"timestamp":935278965,"gyro_rad":[0.0120716132,0.0126695782,-0.000233917],"gyro_integral_dt":4989,"accelerometer_timestamp_relative":0,"accelerometer_m_s2":[0.0073036794,-0.1027169675,-9.6730556488],"accelerometer_integral_dt":4989,"accelerometer_clipping":0}
{"timestamp":935279866,"gyro_rad":[0.0064232973,-0.0062238858,-0.0019668916],"gyro_integral_dt":4997,"accelerometer_timestamp_relative":0,"accelerometer_m_s2":[-0.0023743715,-0.0026686485,-9.8419151306],"accelerometer_integral_dt":4997,"accelerometer_clipping":0}
{"timestamp":935289981,"gyro_rad":[-0.0000325044,0.0122299073,0.000085211],"gyro_integral_dt":5011,"accelerometer_timestamp_relative":0,"accelerometer_m_s2":[0.0602393411,-0.0466393046,-9.8419303894],"accelerometer_integral_dt":5011,"accelerometer_clipping":0}
{"timestamp":935291091,"gyro_rad":[0.0058841598,0.0033258249,0.0001458949],"gyro_integral_dt":4995,"accelerometer_timestamp_relative":0,"accelerometer_m_s2":[0.0603485294,0.0127604827,-9.7021532059],"accelerometer_integral_dt":4995,"accelerometer_clipping":0}
{"timestamp":935299324,"gyro_rad":[0.0096735023,0.0012107885,-0.0017570953],"gyro_integral_dt":4991,"accelerometer_timestamp_relative":0,"accelerometer_m_s2":[0.0915777758,0.031293653,-9.805150032],"accelerometer_integral_dt":4991,"accelerometer_clipping":0}
{"timestamp":935300790,"gyro_rad":[0.009308855,0.0057668923,-0.0004670353],"gyro_integral_dt":5006,"accelerometer_timestamp_relative":0,"accelerometer_m_s2":[0.0852994397,0.0949732065,-9.8103818893],"accelerometer_integral_dt":5006,"accelerometer_clipping":0}
{"timestamp":935308557,"gyro_rad":[-0.0052220505,0.0013649433,-0.0025908013],"gyro_integral_dt":4985,"accelerometer_timestamp_relative":0,"accelerometer_m_s2":[0.1178545281,0.056966275,-9.8293828964],"accelerometer_integral_dt":4985,"accelerometer_clipping":0}
{"timestamp":935310140,"gyro_rad":[0.0066995458,0.0148393037,0.0010767464],"gyro_integral_dt":4999,"accelerometer_timestamp_relative":0,"accelerometer_m_s2":[0.0297367759,0.1445868164,-9.7406873703],"accelerometer_integral_dt":4999,"accelerometer_clipping":0}
{"timestamp":935320251,"gyro_rad":[0.0104805306,-0.0036026125,-0.0020731078],"gyro_integral_dt":5009,"accelerometer_timestamp_relative":0,"accelerometer_m_s2":[0.0839233398,0.0740746707,-9.788895607],"accelerometer_integral_dt":5009,"accelerometer_clipping":0}
{"timestamp":935320796,"gyro_rad":[0.0022935765,0.0088045681,0.0013776228],"gyro_integral_dt":5003,"accelerometer_timestamp_relative":0,"accelerometer_m_s2":[0.0016528133,0.1280363202,-9.8180646896],"accelerometer_integral_dt":5003,"accelerometer_clipping":0}
{"timestamp":935322417,"gyro_rad":[0.0011270486,0.0041445931,-0.0016877961],"gyro_integral_dt":4991,"accelerometer_timestamp_relative":0,"accelerometer_m_s2":[-0.0164174493,0.0361801572,-9.8264303207],"accelerometer_integral_dt":4991,"accelerometer_clipping":0}
{"timestamp":935331651,"gyro_rad":[0.0014632702,0.0058518741,-0.0000553977],"gyro_integral_dt":5006,"accelerometer_timestamp_relative":0,"accelerometer_m_s2":[-0.0405059606,0.0105036339,-9.7416915894],"accelerometer_integral_dt":5006,"accelerometer_clipping":0}
{"timestamp":935338151,"gyro_rad":[0.013908172,0.0069152531,0.0015762872],"gyro_integral_dt":4985,"accelerometer_timestamp_relative":0,"accelerometer_m_s2":[-0.100212805,0.0151106669,-9.8159799576],"accelerometer_integral_dt":4985,"accelerometer_clipping":0}
{"timestamp":935341042,"gyro_rad":[-0.0004245688,-0.0011002421,-0.0018194224],"gyro_integral_dt":4997,"accelerometer_timestamp_relative":0,"accelerometer_m_s2":[-0.0202009343,-0.0668623298,-9.7857618332],"accelerometer_integral_dt":4997,"accelerometer_clipping":0}
{"timestamp":935348424,"gyro_rad":[-0.0002065269,0.0100635914,0.0007671102],"gyro_integral_dt":5010,"accelerometer_timestamp_relative":0,"accelerometer_m_s2":[-0.0858791173,-0.0515767001,-9.8173542023],"accelerometer_integral_dt":5010,"accelerometer_clipping":0}
{"timestamp":935351039,"gyro_rad":[0.0083444444,0.0002017101,-0.0022861175],"gyro_integral_dt":4986,"accelerometer_timestamp_relative":0,"accelerometer_m_s2":[-0.0391293913,-0.0695797652,-9.7859315872],"accelerometer_integral_dt":4986,"accelerometer_clipping":0}
{"timestamp":935359960,"gyro_rad":[0.0117915766,0.0086857723,0.0010566752],"gyro_integral_dt":5000,"accelerometer_timestamp_relative":0,"accelerometer_m_s2":[0.0076350472,-0.0679854155,-9.7319173813],"accelerometer_integral_dt":5000,"accelerometer_clipping":0}
{"timestamp":935361244,"gyro_rad":[0.0024131245,-0.002297282,-0.002041433],"gyro_integral_dt":5020,"accelerometer_timestamp_relative":0,"accelerometer_m_s2":[0.0162084009,0.0110095302,-9.8564548492],"accelerometer_integral_dt":5020,"accelerometer_clipping":0}
{"timestamp":935366074,"gyro_rad":[0.0015232393,0.0111504663,-0.0010090824],"gyro_integral_dt":4975,"accelerometer_timestamp_relative":0,"accelerometer_m_s2":[0.0733588636,-0.0434313454,-9.77115345],"accelerometer_integral_dt":4975,"accelerometer_clipping":0}
{"timestamp":935367191,"gyro_rad":[0.0127405552,0.0038491159,-0.0008240835],"gyro_integral_dt":5003,"accelerometer_timestamp_relative":0,"accelerometer_m_s2":[0.0670185909,0.0309535135,-9.7639856339],"accelerometer_integral_dt":5003,"accelerometer_clipping":0}
{"timestamp":935380216,"gyro_rad":[0.0079724872,0.001128737,-0.0020468368],"gyro_integral_dt":4997,"accelerometer_timestamp_relative":0,"accelerometer_m_s2":[0.1082673818,0.0646243989,-9.7833433151],"accelerometer_integral_dt":4997,"accelerometer_clipping":0}
{"timestamp":935381450,"gyro_rad":[0.006072849,0.0088264272,0.0007817863],"gyro_integral_dt":4994,"accelerometer_timestamp_relative":0,"accelerometer_m_s2":[0.1039065272,0.098689504,-9.8104715347],"accelerometer_integral_dt":4994,"accelerometer_clipping":0}
{"timestamp":935389421,"gyro_rad":[-0.0014509166,-0.0011577577,-0.0018948971],"gyro_integral_dt":5006,"accelerometer_timestamp_relative":0,"accelerometer_m_s2":[0.0948500857,0.0940653905,-9.8010101318],"accelerometer_integral_dt":5006,"accelerometer_clipping":0}
{"timestamp":935390543,"gyro_rad":[0.0111704096,0.01438691,0.0022868267],"gyro_integral_dt":4993,"accelerometer_timestamp_relative":0,"accelerometer_m_s2":[0.0381143503,0.1372667104,-9.777680397],"accelerometer_integral_dt":4993,"accelerometer_clipping":0}
{"timestamp":935398053,"gyro_rad":[0.0078941584,-0.006835904,-0.0009702074],"gyro_integral_dt":5017,"accelerometer_timestamp_relative":0,"accelerometer_m_s2":[0.065529488,0.0626913086,-9.7948102951],"accelerometer_integral_dt":5017,"accelerometer_clipping":0}
{"timestamp":935399381,"gyro_rad":[-0.0013872994,0.0126390355,0.0006866193],"gyro_integral_dt":4983,"accelerometer_timestamp_relative":0,"accelerometer_m_s2":[-0.0354627557,0.1121208444,-9.8213596344],"accelerometer_integral_dt":4983,"accelerometer_clipping":0}
{"timestamp":935404686,"gyro_rad":[0.0002859027,0.0031957685,0.0010089504],"gyro_integral_dt":5005,"accelerometer_timestamp_relative":0,"accelerometer_m_s2":[0.0239800438,-0.0222858693,-9.7780122757],"accelerometer_integral_dt":5005,"accelerometer_clipping":0}
{"timestamp":935411151,"gyro_rad":[0.0063734674,0.0052951099,0.0001848186],"gyro_integral_dt":4985,"accelerometer_timestamp_relative":0,"accelerometer_m_s2":[-0.1200191453,0.0504377373,-9.7517786026],"accelerometer_integral_dt":4985,"accelerometer_clipping":0}
{"timestamp":935419605,"gyro_rad":[0.0101309959,0.0072375494,0.0003666475],"gyro_integral_dt":5008,"accelerometer_timestamp_relative":0,"accelerometer_m_s2":[-0.0336368196,-0.0594981574,-9.8190011978],"accelerometer_integral_dt":5008,"accelerometer_clipping":0}
{"timestamp":935421183,"gyro_rad":[-0.0060840887,-0.0040494655,-0.0014477096],"gyro_integral_dt":5003,"accelerometer_timestamp_relative":0,"accelerometer_m_s2":[-0.0510932691,-0.0253408775,-9.8016319275],"accelerometer_integral_dt":5003,"accelerometer_clipping":0}
{"timestamp":935429890,"gyro_rad":[0.0057182331,0.014560123,0.0016317613],"gyro_integral_dt":4991,"accelerometer_timestamp_relative":0,"accelerometer_m_s2":[-0.0735045373,-0.0510608256,-9.8345022202],"accelerometer_integral_dt":4991,"accelerometer_clipping":0}
{"timestamp":935431387,"gyro_rad":[0.0115062594,-0.0019293531,-0.001052991],"gyro_integral_dt":5002,"accelerometer_timestamp_relative":0,"accelerometer_m_s2":[-0.0122064427,-0.1060390398,-9.6804656982],"accelerometer_integral_dt":5002,"accelerometer_clipping":0}
{"timestamp":935432459,"gyro_rad":[0.007622431,0.0063492395,0.0001581284],"gyro_integral_dt":4999,"accelerometer_timestamp_relative":0,"accelerometer_m_s2":[-0.0151133137,-0.037678089,-9.8070287704],"accelerometer_integral_dt":4999,"accelerometer_clipping":0}
{"timestamp":935441599,"gyro_rad":[0.003596528,-0.0017687766,-0.0011475836],"gyro_integral_dt":5005,"accelerometer_timestamp_relative":0,"accelerometer_m_s2":[0.0685831383,-0.0206032693,-9.8510103226],"accelerometer_integral_dt":5005,"accelerometer_clipping":0}
{"timestamp":935444119,"gyro_rad":[0.0029093402,0.0113552082,-0.0013972229],"gyro_integral_dt":4995,"accelerometer_timestamp_relative":0,"accelerometer_m_s2":[0.0568166524,-0.0096595259,-9.7777633667],"accelerometer_integral_dt":4995,"accelerometer_clipping":0}
{"timestamp":935451222,"gyro_rad":[0.0130154211,0.0035008374,0.0008236535],"gyro_integral_dt":5002,"accelerometer_timestamp_relative":0,"accelerometer_m_s2":[0.0919021368,0.0445862301,-9.7827339172],"accelerometer_integral_dt":5002,"accelerometer_clipping":0}
{"timestamp":935460341,"gyro_rad":[0.0060927081,-0.0007416806,-0.0032241507],"gyro_integral_dt":4990,"accelerometer_timestamp_relative":0,"accelerometer_m_s2":[0.1039955318,0.0921962932,-9.7831697464],"accelerometer_integral_dt":4990,"accelerometer_clipping":0}
{"timestamp":935461475,"gyro_rad":[0.0012636756,0.0098774461,0.0013015153],"gyro_integral_dt":5004,"accelerometer_timestamp_relative":0,"accelerometer_m_s2":[0.1435229778,0.0894635394,-9.8129854202],"accelerometer_integral_dt":5004,"accelerometer_clipping":0}
{"timestamp":935460472,"gyro_rad":[0.0020142135,0.0011187628,-0.0011758282],"gyro_integral_dt":4992,"accelerometer_timestamp_relative":0,"accelerometer_m_s2":[0.0360995159,0.1352855712,-9.7629413605],"accelerometer_integral_dt":4992,"accelerometer_clipping":0}
{"timestamp":935469971,"gyro_rad":[0.0135522932,0.0118720774,0.0014852317],"gyro_integral_dt":5007,"accelerometer_timestamp_relative":0,"accelerometer_m_s2":[0.0569856465,0.0964685306,-9.7843523026],"accelerometer_integral_dt":5007,"accelerometer_clipping":0}
{"timestamp":935477529,"gyro_rad":[0.0059294351,-0.0063918158,-0.0006956713],"gyro_integral_dt":4988,"accelerometer_timestamp_relative":0,"accelerometer_m_s2":[0.0055497643,0.1095436588,-9.8021860123],"accelerometer_integral_dt":4988,"accelerometer_clipping":0}
{"timestamp":935481074,"gyro_rad":[-0.0031083212,0.0146744149,-0.0005195923],"gyro_integral_dt":4788,"accelerometer_timestamp_relative":0,"accelerometer_m_s2":[-0.0260511283,0.0549044609,-9.8055791855],"accelerometer_integral_dt":4788,"accelerometer_clipping":0}
{"timestamp":935490155,"gyro_rad":[0.0050914157,0.0015912208,0.0000089057],"gyro_integral_dt":4993,"accelerometer_timestamp_relative":0,"accelerometer_m_s2":[-0.0238679517,-0.0001630627,-9.725022316],"accelerometer_integral_dt":4993,"accelerometer_clipping":0}
{"timestamp":935491326,"gyro_rad":[0.0100054499,0.0045317053,-0.000754338],"gyro_integral_dt":4987,"accelerometer_timestamp_relative":0,"accelerometer_m_s2":[-0.1086725146,0.0346556939,-9.8164415359],"accelerometer_integral_dt":4987,"accelerometer_clipping":0}
{"timestamp":935499568,"gyro_rad":[0.0037647327,0.0067537837,0.0015032712],"gyro_integral_dt":5005,"accelerometer_timestamp_relative":0,"accelerometer_m_s2":[-0.0030674955,-0.0495642871,-9.7598810196],"accelerometer_integral_dt":5005,"accelerometer_clipping":0}
{"timestamp":935510765,"gyro_rad":[-0.0050409166,-0.0012210906,-0.0020017079],"gyro_integral_dt":4990,"accelerometer_timestamp_relative":0,"accelerometer_m_s2":[-0.0671564043,-0.0382480398,-9.816195488],"accelerometer_integral_dt":4990,"accelerometer_clipping":0}
{"timestamp":935509766,"gyro_rad":[0.010264108,0.0149999009,-0.0005859538],"gyro_integral_dt":4997,"accelerometer_timestamp_relative":0,"accelerometer_m_s2":[-0.0305803884,-0.0639954284,-9.7843542099],"accelerometer_integral_dt":4997,"accelerometer_clipping":0}
{"timestamp":935510955,"gyro_rad":[0.0096877944,-0.0045088571,-0.0017405952],"gyro_integral_dt":4994,"accelerometer_timestamp_relative":0,"accelerometer_m_s2":[0.0461559817,-0.087622568,-9.6834459305],"accelerometer_integral_dt":4994,"accelerometer_clipping":0}
{"timestamp":935520360,"gyro_rad":[0.003205494,0.0088651078,-0.000205508],"gyro_integral_dt":4995,"accelerometer_timestamp_relative":0,"accelerometer_m_s2":[-0.003398549,0.0111723179,-9.8809127808],"accelerometer_integral_dt":4995,"accelerometer_clipping":0}
{"timestamp":935521312,"gyro_rad":[0.0011136573,0.0025457875,-0.0009539172],"gyro_integral_dt":4997,"accelerometer_timestamp_relative":0,"accelerometer_m_s2":[0.0876466781,-0.0349996462,-9.7893381119],"accelerometer_integral_dt":4997,"accelerometer_clipping":0}
{"timestamp":935525549,"gyro_rad":[0.0056121633,0.0086351912,-0.0020462386],"gyro_integral_dt":4995,"accelerometer_timestamp_relative":0,"accelerometer_m_s2":[0.0432514437,0.0257318765,-9.7542190552],"accelerometer_integral_dt":4995,"accelerometer_clipping":0}
{"timestamp":935528802,"gyro_rad":[0.0120871104,0.0025121833,-0.0000341505],"gyro_integral_dt":4998,"accelerometer_timestamp_relative":0,"accelerometer_m_s2":[0.1171798483,0.0585978478,-9.7659845352],"accelerometer_integral_dt":4998,"accelerometer_clipping":0}
{"timestamp":935536618,"gyro_rad":[0.0017815316,-0.0001671046,-0.0026348978],"gyro_integral_dt":4991,"accelerometer_timestamp_relative":0,"accelerometer_m_s2":[0.1072768718,0.108442381,-9.808134079],"accelerometer_integral_dt":4991,"accelerometer_clipping":0}
{"timestamp":935537575,"gyro_rad":[-0.0012377987,0.0108139422,0.0001209074],"gyro_integral_dt":4999,"accelerometer_timestamp_relative":0,"accelerometer_m_s2":[0.1098973304,0.0746041387,-9.8014345169],"accelerometer_integral_dt":4999,"accelerometer_clipping":0}
{"timestamp":935550191,"gyro_rad":[0.0073483731,-0.0000129358,-0.0026982648],"gyro_integral_dt":4995,"accelerometer_timestamp_relative":0,"accelerometer_m_s2":[0.0198279433,0.1517350376,-9.7472743988],"accelerometer_integral_dt":4995,"accelerometer_clipping":0}
{"timestamp":935550975,"gyro_rad":[0.0104686255,0.0092815394,0.0006898913],"gyro_integral_dt":4995,"accelerometer_timestamp_relative":0,"accelerometer_m_s2":[0.0597124994,0.0787613541,-9.8080186844],"accelerometer_integral_dt":4995,"accelerometer_clipping":0}
{"timestamp":935555964,"gyro_rad":[0.0008466807,-0.00118194,0.0002357727],"gyro_integral_dt":4996,"accelerometer_timestamp_relative":0,"accelerometer_m_s2":[-0.0422290936,0.1221602708,-9.8191347122],"accelerometer_integral_dt":4996,"accelerometer_clipping":0}
{"timestamp":935560091,"gyro_rad":[-0.0041110674,0.0129205072,-0.0002929673],"gyro_integral_dt":4995,"accelerometer_timestamp_relative":0,"accelerometer_m_s2":[0.0172329694,0.0318995938,-9.7973527908],"accelerometer_integral_dt":4995,"accelerometer_clipping":0}
{"timestamp":935569126,"gyro_rad":[0.0089128595,0.0026273604,0.0009930131],"gyro_integral_dt":4996,"accelerometer_timestamp_relative":0,"accelerometer_m_s2":[-0.0909961164,0.0283698905,-9.7266607285],"accelerometer_integral_dt":4996,"accelerometer_clipping":0}
{"timestamp":935570579,"gyro_rad":[0.0076330067,0.0031413073,-0.0001697069],"gyro_integral_dt":4995,"accelerometer_timestamp_relative":0,"accelerometer_m_s2":[-0.0757448748,-0.0234178267,-9.8226737976],"accelerometer_integral_dt":4995,"accelerometer_clipping":0}
{"timestamp":935580732,"gyro_rad":[0.0002939975,0.0061936211,0.0011727744],"gyro_integral_dt":5000,"accelerometer_timestamp_relative":0,"accelerometer_m_s2":[-0.029700892,-0.077647157,-9.779706955],"accelerometer_integral_dt":5000,"accelerometer_clipping":0}
{"timestamp":935581485,"gyro_rad":[0.0005388744,0.0010537397,-0.0016979958],"gyro_integral_dt":4997,"accelerometer_timestamp_relative":0,"accelerometer_m_s2":[-0.0644211099,-0.0341878608,-9.8291807175],"accelerometer_integral_dt":4997,"accelerometer_clipping":0}
{"timestamp":935589471,"gyro_rad":[0.0115541592,0.0137481745,0.0010764021],"gyro_integral_dt":4999,"accelerometer_timestamp_relative":0,"accelerometer_m_s2":[-0.0118104843,-0.0896459147,-9.738984108],"accelerometer_integral_dt":4999,"accelerometer_clipping":0}
{"timestamp":935591035,"gyro_rad":[0.0087575531,-0.0058336491,-0.0021185251],"gyro_integral_dt":4991,"accelerometer_timestamp_relative":0,"accelerometer_m_s2":[0.0128939766,-0.0480857417,-9.7672519684],"accelerometer_integral_dt":4991,"accelerometer_clipping":0}
{"timestamp":935598616,"gyro_rad":[0.0000710905,0.0108449394,-0.0002178249],"gyro_integral_dt":4991,"accelerometer_timestamp_relative":0,"accelerometer_m_s2":[0.0471173264,-0.0328630358,-9.8583526611],"accelerometer_integral_dt":4991,"accelerometer_clipping":0}
{"timestamp":935609463,"gyro_rad":[0.0045846929,0.0029435642,-0.0010395354],"gyro_integral_dt":5000,"accelerometer_timestamp_relative":0,"accelerometer_m_s2":[0.0677403063,-0.0062253149,-9.7481803894],"accelerometer_integral_dt":5000,"accelerometer_clipping":0}
{"timestamp":935609841,"gyro_rad":[0.0079104761,0.0048430464,-0.0012664131],"gyro_integral_dt":4991,"accelerometer_timestamp_relative":0,"accelerometer_m_s2":[0.0865034014,0.0132241752,-9.7989683151],"accelerometer_integral_dt":4991,"accelerometer_clipping":0}
{"timestamp":935610904,"gyro_rad":[0.0112263393,0.0037054103,0.0016968824],"gyro_integral_dt":4998,"accelerometer_timestamp_relative":0,"accelerometer_m_s2":[0.0880265236,0.0983374193,-9.8026399612],"accelerometer_integral_dt":4998,"accelerometer_clipping":0}
{"timestamp":935620593,"gyro_rad":[-0.0022888654,-0.0005470854,-0.0023144034],"gyro_integral_dt":4992,"accelerometer_timestamp_relative":0,"accelerometer_m_s2":[0.1215672344,0.0909308344,-9.816239357],"accelerometer_integral_dt":4992,"accelerometer_clipping":0}
{"timestamp":935621423,"gyro_rad":[0.0015579333,0.0128601212,0.0011960323],"gyro_integral_dt":5000,"accelerometer_timestamp_relative":0,"accelerometer_m_s2":[0.0532343052,0.1227157637,-9.7715177536],"accelerometer_integral_dt":5000,"accelerometer_clipping":0}
{"timestamp":935621205,"gyro_rad":[0.0118875606,-0.0015696605,-0.002640923],"gyro_integral_dt":4991,"accelerometer_timestamp_relative":0,"accelerometer_m_s2":[0.0415581204,0.1017091274,-9.7701864243],"accelerometer_integral_dt":4991,"accelerometer_clipping":0}
{"timestamp":935639539,"gyro_rad":[0.0060820477,0.0079464111,-0.0011517211],"gyro_integral_dt":4999,"accelerometer_timestamp_relative":0,"accelerometer_m_s2":[0.0397290625,0.088240467,-9.8101139069],"accelerometer_integral_dt":4999,"accelerometer_clipping":0}
{"timestamp":935639453,"gyro_rad":[-0.0008895532,0.0030574801,-0.0002570142],"gyro_integral_dt":4995,"accelerometer_timestamp_relative":0,"accelerometer_m_s2":[-0.0543692857,0.0831177235,-9.8282613754],"accelerometer_integral_dt":4995,"accelerometer_clipping":0}
{"timestamp":935640576,"gyro_rad":[-0.0004844844,0.0067896037,-0.0005121058],"gyro_integral_dt":5004,"accelerometer_timestamp_relative":0,"accelerometer_m_s2":[0.0037735163,-0.0113323098,-9.752322197],"accelerometer_integral_dt":5004,"accelerometer_clipping":0}
{"timestamp":935649152,"gyro_rad":[0.0139065683,0.0065250825,0.0024722747],"gyro_integral_dt":4987,"accelerometer_timestamp_relative":0,"accelerometer_m_s2":[-0.1190679818,0.0339292735,-9.7875156403],"accelerometer_integral_dt":4987,"accelerometer_clipping":0}
{"timestamp":935670726,"gyro_rad":[0.0003700865,0.0004855682,-0.0023877826],"gyro_integral_dt":4994,"accelerometer_timestamp_relative":0,"accelerometer_m_s2":[-0.0084260488,-0.064505361,-9.7861499786],"accelerometer_integral_dt":4994,"accelerometer_clipping":0}
{"timestamp":935670810,"gyro_rad":[-0.0030343954,0.0087738922,0.0014851632],"gyro_integral_dt":5000,"accelerometer_timestamp_relative":0,"accelerometer_m_s2":[-0.0542021766,-0.0497025847,-9.8219985962],"accelerometer_integral_dt":5000,"accelerometer_clipping":0}
{"timestamp":935670377,"gyro_rad":[0.005346329,0.0025285517,-0.0024365168],"gyro_integral_dt":4994,"accelerometer_timestamp_relative":0,"accelerometer_m_s2":[-0.058579538,-0.0785961673,-9.8354377747],"accelerometer_integral_dt":4994,"accelerometer_clipping":0}
{"timestamp":935670797,"gyro_rad":[0.0121554062,0.0128045678,0.0002524104],"gyro_integral_dt":4995,"accelerometer_timestamp_relative":0,"accelerometer_m_s2":[-0.0259025283,-0.0698704571,-9.7021589279],"accelerometer_integral_dt":4995,"accelerometer_clipping":0}
