{"timestamp":68285700,"gyro_rad":[-0.0006450117,0.0077966102,-0.0028407299],"gyro_integral_dt":4998,"accelerometer_timestamp_relative":0,"accelerometer_m_s2":[0.0451903977,0.0064474484,-9.8108243942],"accelerometer_integral_dt":4998,"accelerometer_clipping":0}
{"timestamp":68287004,"gyro_rad":[0.0043327329,0.0043690177,0.0012039943],"gyro_integral_dt":4994,"accelerometer_timestamp_relative":0,"accelerometer_m_s2":[0.0116294203,0.0958142653,-9.773144722],"accelerometer_integral_dt":4994,"accelerometer_clipping":0}
{"timestamp":68290550,"gyro_rad":[0.005544011,-0.0012118223,-0.0017343858],"gyro_integral_dt":4996,"accelerometer_timestamp_relative":0,"accelerometer_m_s2":[-0.0421768799,0.0133962436,-9.8403739929],"accelerometer_integral_dt":4996,"accelerometer_clipping":0}
{"timestamp":68288996,"gyro_rad":[0.0053242361,0.0128829358,0.0017224764],"gyro_integral_dt":4995,"accelerometer_timestamp_relative":0,"accelerometer_m_s2":[-0.0058506755,0.0286356043,-9.7460346222],"accelerometer_integral_dt":4995,"accelerometer_clipping":0}
{"timestamp":68306929,"gyro_rad":[0.0040695476,-0.0065538799,-0.0016202506],"gyro_integral_dt":4996,"accelerometer_timestamp_relative":0,"accelerometer_m_s2":[-0.0178655945,0.0125120105,-9.7992525101],"accelerometer_integral_dt":4996,"accelerometer_clipping":0}
{"timestamp":68306417,"gyro_rad":[0.0019588668,0.0114539582,-0.0002415078],"gyro_integral_dt":4996,"accelerometer_timestamp_relative":0,"accelerometer_m_s2":[0.0126346378,-0.0416005738,-9.8264303207],"accelerometer_integral_dt":4996,"accelerometer_clipping":0}
{"timestamp":68309229,"gyro_rad":[0.0073317303,0.0027047307,-0.0009488043],"gyro_integral_dt":4998,"accelerometer_timestamp_relative":0,"accelerometer_m_s2":[0.0250081476,-0.0576632209,-9.7681255341],"accelerometer_integral_dt":4998,"accelerometer_clipping":0}
{"timestamp":68316532,"gyro_rad":[0.0037960112,0.0035867104,-0.0007253563],"gyro_integral_dt":4993,"accelerometer_timestamp_relative":0,"accelerometer_m_s2":[0.0736979097,-0.0319285095,-9.7999706268],"accelerometer_integral_dt":4993,"accelerometer_clipping":0}
{"timestamp":68324594,"gyro_rad":[0.0079420852,0.0055356924,0.000241472],"gyro_integral_dt":4996,"accelerometer_timestamp_relative":0,"accelerometer_m_s2":[0.0560875311,-0.0611058213,-9.8034572601],"accelerometer_integral_dt":4996,"accelerometer_clipping":0}
{"timestamp":68323557,"gyro_rad":[0.0007642374,0.0017939947,-0.0021186753],"gyro_integral_dt":4996,"accelerometer_timestamp_relative":0,"accelerometer_m_s2":[0.1074497551,-0.0195663366,-9.8175830841],"accelerometer_integral_dt":4996,"accelerometer_clipping":0}
{"timestamp":68328261,"gyro_rad":[0.0093722837,0.0111379903,0.0009644115],"gyro_integral_dt":4998,"accelerometer_timestamp_relative":0,"accelerometer_m_s2":[0.0830933526,0.0107390918,-9.7714681625],"accelerometer_integral_dt":4998,"accelerometer_clipping":0}
{"timestamp":68337138,"gyro_rad":[0.0069611743,-0.0034242729,-0.0019651195],"gyro_integral_dt":4994,"accelerometer_timestamp_relative":0,"accelerometer_m_s2":[0.1252783984,-0.0007434642,-9.825252533],"accelerometer_integral_dt":4994,"accelerometer_clipping":0}
{"timestamp":68337072,"gyro_rad":[0.0020716218,0.0122527881,0.0010206043],"gyro_integral_dt":4996,"accelerometer_timestamp_relative":0,"accelerometer_m_s2":[0.0710047036,0.0342609063,-9.8391227722],"accelerometer_integral_dt":4996,"accelerometer_clipping":0}
{"timestamp":68344937,"gyro_rad":[0.0085043451,0.0022938333,-0.00083258],"gyro_integral_dt":4996,"accelerometer_timestamp_relative":0,"accelerometer_m_s2":[0.0751699507,0.0739168525,-9.75203228],"accelerometer_integral_dt":4996,"accelerometer_clipping":0}
{"timestamp":68347287,"gyro_rad":[0.004770447,0.0052947872,-0.0004828121],"gyro_integral_dt":4995,"accelerometer_timestamp_relative":0,"accelerometer_m_s2":[0.0871423483,0.0455774479,-9.7933778763],"accelerometer_integral_dt":4995,"accelerometer_clipping":0}
{"timestamp":68364525,"gyro_rad":[0.0075732339,0.0073712585,0.0007602186],"gyro_integral_dt":4995,"accelerometer_timestamp_relative":0,"accelerometer_m_s2":[-0.0074080075,0.1196407229,-9.8280591965],"accelerometer_integral_dt":4995,"accelerometer_clipping":0}
{"timestamp":68365141,"gyro_rad":[-0.0027747287,0.0041034305,-0.0009542469],"gyro_integral_dt":4996,"accelerometer_timestamp_relative":0,"accelerometer_m_s2":[0.0550137125,0.02345578,-9.7563791275],"accelerometer_integral_dt":4996,"accelerometer_clipping":0}
{"timestamp":68365124,"gyro_rad":[0.0074058049,0.0071406108,0.0019437337],"gyro_integral_dt":4996,"accelerometer_timestamp_relative":0,"accelerometer_m_s2":[-0.0123688187,0.112749964,-9.7767591476],"accelerometer_integral_dt":4996,"accelerometer_clipping":0}
{"timestamp":68365769,"gyro_rad":[0.0074354005,0.0019262949,-0.001403257],"gyro_integral_dt":4997,"accelerometer_timestamp_relative":0,"accelerometer_m_s2":[-0.0488102064,-0.0012589912,-9.8184366226],"accelerometer_integral_dt":4997,"accelerometer_clipping":0}
{"timestamp":68369883,"gyro_rad":[0.0031404856,0.0099484036,0.0018978587],"gyro_integral_dt":4995,"accelerometer_timestamp_relative":0,"accelerometer_m_s2":[0.007542361,0.0045029824,-9.7296562195],"accelerometer_integral_dt":4995,"accelerometer_clipping":0}
{"timestamp":68376452,"gyro_rad":[0.0032088771,-0.0023906883,-0.0007087262],"gyro_integral_dt":4995,"accelerometer_timestamp_relative":0,"accelerometer_m_s2":[-0.0440509655,0.0108984252,-9.8523445129],"accelerometer_integral_dt":4995,"accelerometer_clipping":0}
{"timestamp":68386549,"gyro_rad":[0.0037432581,0.0098975822,-0.0002409065],"gyro_integral_dt":4996,"accelerometer_timestamp_relative":0,"accelerometer_m_s2":[0.0336171612,-0.0814423487,-9.7812566757],"accelerometer_integral_dt":4996,"accelerometer_clipping":0}
{"timestamp":68387718,"gyro_rad":[0.0084014656,0.0023254568,0.0001022759],"gyro_integral_dt":4997,"accelerometer_timestamp_relative":0,"accelerometer_m_s2":[-0.0221409649,-0.0334922299,-9.7806243896],"accelerometer_integral_dt":4997,"accelerometer_clipping":0}
{"timestamp":68388629,"gyro_rad":[0.0038974271,-0.0002851914,-0.0023086185],"gyro_integral_dt":4995,"accelerometer_timestamp_relative":0,"accelerometer_m_s2":[0.078528814,-0.0588010997,-9.7964887619],"accelerometer_integral_dt":4995,"accelerometer_clipping":0}
{"timestamp":68396629,"gyro_rad":[0.0056773084,0.0090783928,0.0008098159],"gyro_integral_dt":4993,"accelerometer_timestamp_relative":0,"accelerometer_m_s2":[0.0619751811,-0.059492968,-9.8085107803],"accelerometer_integral_dt":4993,"accelerometer_clipping":0}
{"timestamp":68404489,"gyro_rad":[0.0035668102,0.0000348167,-0.0025993418],"gyro_integral_dt":4999,"accelerometer_timestamp_relative":0,"accelerometer_m_s2":[0.1208917946,-0.0482126214,-9.7921447754],"accelerometer_integral_dt":4999,"accelerometer_clipping":0}
{"timestamp":68404756,"gyro_rad":[0.0098436931,0.0115755666,0.001099761],"gyro_integral_dt":5004,"accelerometer_timestamp_relative":0,"accelerometer_m_s2":[0.0849822983,0.0082861418,-9.7767820358],"accelerometer_integral_dt":5004,"accelerometer_clipping":0}
{"timestamp":68415691,"gyro_rad":[0.0059646787,-0.003569185,-0.0014685449],"gyro_integral_dt":4986,"accelerometer_timestamp_relative":0,"accelerometer_m_s2":[0.1422783583,0.000014321,-9.8132390976],"accelerometer_integral_dt":4986,"accelerometer_clipping":0}
{"timestamp":68415947,"gyro_rad":[0.0024453108,0.0138663827,-0.0006173183],"gyro_integral_dt":4998,"accelerometer_timestamp_relative":0,"accelerometer_m_s2":[0.0773417726,0.099471733,-9.8124380112],"accelerometer_integral_dt":4998,"accelerometer_clipping":0}
{"timestamp":68419824,"gyro_rad":[0.0090819383,0.0022444692,0.0007371842],"gyro_integral_dt":5004,"accelerometer_timestamp_relative":0,"accelerometer_m_s2":[0.1102197692,0.0142497979,-9.7534866333],"accelerometer_integral_dt":5004,"accelerometer_clipping":0}
{"timestamp":68425524,"gyro_rad":[0.0043498916,0.0038579619,-0.00073945],"gyro_integral_dt":4986,"accelerometer_timestamp_relative":0,"accelerometer_m_s2":[0.0445719436,0.1132148206,-9.809056282],"accelerometer_integral_dt":4986,"accelerometer_clipping":0}
{"timestamp":68435583,"gyro_rad":[0.0082378974,0.0102158049,0.0013143165],"gyro_integral_dt":4996,"accelerometer_timestamp_relative":0,"accelerometer_m_s2":[0.0364041366,0.0533948801,-9.7912883759],"accelerometer_integral_dt":4996,"accelerometer_clipping":0}
{"timestamp":68436327,"gyro_rad":[-0.0017668551,0.0009462554,-0.0019415676],"gyro_integral_dt":4996,"accelerometer_timestamp_relative":0,"accelerometer_m_s2":[0.0313657895,0.0390394777,-9.7899208069],"accelerometer_integral_dt":4996,"accelerometer_clipping":0}
{"timestamp":68444474,"gyro_rad":[0.0099047981,0.0096349521,0.001780118],"gyro_integral_dt":4994,"accelerometer_timestamp_relative":0,"accelerometer_m_s2":[-0.0307871122,0.0579919666,-9.8144865036],"accelerometer_integral_dt":4994,"accelerometer_clipping":0}
{"timestamp":68445358,"gyro_rad":[0.0056609674,0.0000633458,-0.0006106495],"gyro_integral_dt":4997,"accelerometer_timestamp_relative":0,"accelerometer_m_s2":[0.0118473154,-0.0079241693,-9.7666006088],"accelerometer_integral_dt":4997,"accelerometer_clipping":0}
{"timestamp":68448535,"gyro_rad":[0.0023415205,0.0101178428,0.0004114937],"gyro_integral_dt":4996,"accelerometer_timestamp_relative":0,"accelerometer_m_s2":[-0.0096954256,0.0027333051,-9.7970943451],"accelerometer_integral_dt":4996,"accelerometer_clipping":0}
{"timestamp":68456319,"gyro_rad":[0.004558099,-0.0003120113,-0.0001866484],"gyro_integral_dt":4999,"accelerometer_timestamp_relative":0,"accelerometer_m_s2":[-0.0173437595,0.0056234673,-9.8184280396],"accelerometer_integral_dt":4999,"accelerometer_clipping":0}
{"timestamp":68464781,"gyro_rad":[0.0037121044,0.0077312817,-0.0001169328],"gyro_integral_dt":4994,"accelerometer_timestamp_relative":0,"accelerometer_m_s2":[0.0128226345,-0.1125928387,-9.7801561356],"accelerometer_integral_dt":4994,"accelerometer_clipping":0}
{"timestamp":68464964,"gyro_rad":[0.0088180937,0.004144283,-0.0001335601],"gyro_integral_dt":4995,"accelerometer_timestamp_relative":0,"accelerometer_m_s2":[0.0144522246,0.0163458437,-9.795548439],"accelerometer_integral_dt":4995,"accelerometer_clipping":0}
{"timestamp":68477465,"gyro_rad":[0.0041996911,-0.0009586544,-0.0020471991],"gyro_integral_dt":5005,"accelerometer_timestamp_relative":0,"accelerometer_m_s2":[0.0780928731,-0.0858713984,-9.8009376526],"accelerometer_integral_dt":5005,"accelerometer_clipping":0}
{"timestamp":68478221,"gyro_rad":[0.0052036764,0.0108795138,0.0002335441],"gyro_integral_dt":4988,"accelerometer_timestamp_relative":0,"accelerometer_m_s2":[0.0810453668,-0.0070476928,-9.7846097946],"accelerometer_integral_dt":4988,"accelerometer_clipping":0}
{"timestamp":68485281,"gyro_rad":[0.005954037,-0.0020046073,-0.0029309692],"gyro_integral_dt":4995,"accelerometer_timestamp_relative":0,"accelerometer_m_s2":[0.1218651161,-0.0269401949,-9.7857971191],"accelerometer_integral_dt":4995,"accelerometer_clipping":0}
{"timestamp":68486029,"gyro_rad":[0.0101320697,0.0109688211,-0.0005853205],"gyro_integral_dt":4996,"accelerometer_timestamp_relative":0,"accelerometer_m_s2":[0.1326383799,0.0457360558,-9.8033065796],"accelerometer_integral_dt":4996,"accelerometer_clipping":0}
{"timestamp":68490254,"gyro_rad":[0.0034815492,-0.0021655587,-0.001863932],"gyro_integral_dt":4995,"accelerometer_timestamp_relative":0,"accelerometer_m_s2":[0.1136923507,-0.0192050561,-9.8614149094],"accelerometer_integral_dt":4995,"accelerometer_clipping":0}
{"timestamp":68506090,"gyro_rad":[0.0035637759,0.0140173379,-0.0015373172],"gyro_integral_dt":4995,"accelerometer_timestamp_relative":0,"accelerometer_m_s2":[0.1157993302,0.1101321205,-9.7673416138],"accelerometer_integral_dt":4995,"accelerometer_clipping":0}
{"timestamp":68504997,"gyro_rad":[0.0090487888,0.0008385477,0.0007919464],"gyro_integral_dt":4996,"accelerometer_timestamp_relative":0,"accelerometer_m_s2":[0.0891955569,0.005730351,-9.7640705109],"accelerometer_integral_dt":4996,"accelerometer_clipping":0}
{"timestamp":68506240,"gyro_rad":[0.0044692806,0.0035351641,-0.0005547674],"gyro_integral_dt":4996,"accelerometer_timestamp_relative":0,"accelerometer_m_s2":[0.0359375775,0.1509921402,-9.8194494247],"accelerometer_integral_dt":4996,"accelerometer_clipping":0}
{"timestamp":68514866,"gyro_rad":[0.0029641544,0.0112952059,0.0015665601],"gyro_integral_dt":4993,"accelerometer_timestamp_relative":0,"accelerometer_m_s2":[0.0086178845,0.0164841507,-9.7755050659],"accelerometer_integral_dt":4993,"accelerometer_clipping":0}
{"timestamp":68515436,"gyro_rad":[0.0004415773,-0.0029701134,-0.0012601743],"gyro_integral_dt":5001,"accelerometer_timestamp_relative":0,"accelerometer_m_s2":[0.024873957,0.0808771327,-9.8117866516],"accelerometer_integral_dt":5001,"accelerometer_clipping":0}
{"timestamp":68518507,"gyro_rad":[0.0091899103,0.0128219575,0.001351685],"gyro_integral_dt":4995,"accelerometer_timestamp_relative":0,"accelerometer_m_s2":[-0.0597905181,0.0205610599,-9.8116483688],"accelerometer_integral_dt":4995,"accelerometer_clipping":0}
{"timestamp":68526070,"gyro_rad":[0.0042639724,-0.0016286836,0.0004902568],"gyro_integral_dt":5000,"accelerometer_timestamp_relative":0,"accelerometer_m_s2":[0.0278253667,0.0233826786,-9.7316951752],"accelerometer_integral_dt":5000,"accelerometer_clipping":0}
{"timestamp":68535177,"gyro_rad":[0.0001233199,0.0082266228,0.0006771839],"gyro_integral_dt":4989,"accelerometer_timestamp_relative":0,"accelerometer_m_s2":[-0.0452058092,-0.0047835247,-9.8004541397],"accelerometer_integral_dt":4989,"accelerometer_clipping":0}
{"timestamp":68535929,"gyro_rad":[0.0074545112,0.004070119,0.00054741],"gyro_integral_dt":4997,"accelerometer_timestamp_relative":0,"accelerometer_m_s2":[-0.0223083068,-0.0103140008,-9.8293800354],"accelerometer_integral_dt":4997,"accelerometer_clipping":0}
{"timestamp":68538381,"gyro_rad":[0.0034145319,0.0073219379,-0.0006778539],"gyro_integral_dt":5004,"accelerometer_timestamp_relative":0,"accelerometer_m_s2":[0.0154569363,-0.0937748402,-9.7831134796],"accelerometer_integral_dt":5004,"accelerometer_clipping":0}
{"timestamp":68546876,"gyro_rad":[0.0095399907,0.0041290983,0.0003255792],"gyro_integral_dt":4989,"accelerometer_timestamp_relative":0,"accelerometer_m_s2":[0.0232378524,0.0120663531,-9.7887582779],"accelerometer_integral_dt":4989,"accelerometer_clipping":0}
{"timestamp":68554695,"gyro_rad":[-0.0008000011,0.0013363803,-0.0019494727],"gyro_integral_dt":4992,"accelerometer_timestamp_relative":0,"accelerometer_m_s2":[0.0908017606,-0.0839175805,-9.8106985092],"accelerometer_integral_dt":4992,"accelerometer_clipping":0}
{"timestamp":68556206,"gyro_rad":[0.0077398112,0.0096477382,0.0013818209],"gyro_integral_dt":4999,"accelerometer_timestamp_relative":0,"accelerometer_m_s2":[0.0974944383,-0.0023556745,-9.7886009216],"accelerometer_integral_dt":4999,"accelerometer_clipping":0}
{"timestamp":68564609,"gyro_rad":[0.0064752875,-0.0017639539,-0.0024014632],"gyro_integral_dt":4995,"accelerometer_timestamp_relative":0,"accelerometer_m_s2":[0.0879679099,-0.0204696413,-9.7936306],"accelerometer_integral_dt":4995,"accelerometer_clipping":0}
{"timestamp":68565245,"gyro_rad":[0.0077915173,0.010107439,0.0000673952],"gyro_integral_dt":5000,"accelerometer_timestamp_relative":0,"accelerometer_m_s2":[0.1503679305,0.0356504247,-9.7851409912],"accelerometer_integral_dt":5000,"accelerometer_clipping":0}
{"timestamp":68576529,"gyro_rad":[0.0031496147,0.000101583,-0.0019910079],"gyro_integral_dt":4991,"accelerometer_timestamp_relative":0,"accelerometer_m_s2":[0.0861072093,0.0317414887,-9.8257541656],"accelerometer_integral_dt":4991,"accelerometer_clipping":0}
{"timestamp":68577961,"gyro_rad":[0.0072573083,0.0105995648,-0.0012857573],"gyro_integral_dt":4997,"accelerometer_timestamp_relative":0,"accelerometer_m_s2":[0.1248036548,0.0880141854,-9.7450313568],"accelerometer_integral_dt":4997,"accelerometer_clipping":0}
{"timestamp":68584957,"gyro_rad":[0.0077961157,0.0013629296,0.0009540132],"gyro_integral_dt":4995,"accelerometer_timestamp_relative":0,"accelerometer_m_s2":[0.0636755377,0.0602691658,-9.781917572],"accelerometer_integral_dt":4995,"accelerometer_clipping":0}
{"timestamp":68586518,"gyro_rad":[0.0051063756,0.0049191038,-0.0007451602],"gyro_integral_dt":4996,"accelerometer_timestamp_relative":0,"accelerometer_m_s2":[0.0435818359,0.1337372661,-9.854927063],"accelerometer_integral_dt":4996,"accelerometer_clipping":0}
{"timestamp":68588103,"gyro_rad":[0.0024511025,0.0108936867,0.0008652496],"gyro_integral_dt":4995,"accelerometer_timestamp_relative":0,"accelerometer_m_s2":[0.0332444757,-0.0019462851,-9.7598114014],"accelerometer_integral_dt":4995,"accelerometer_clipping":0}
{"timestamp":68594701,"gyro_rad":[0.0038750963,-0.003867297,-0.0019776961],"gyro_integral_dt":4998,"accelerometer_timestamp_relative":0,"accelerometer_m_s2":[0.0091140671,0.0983263403,-9.8047780991],"accelerometer_integral_dt":4998,"accelerometer_clipping":0}
{"timestamp":68605689,"gyro_rad":[0.0094883787,0.014565588,-0.0001092123],"gyro_integral_dt":5003,"accelerometer_timestamp_relative":0,"accelerometer_m_s2":[-0.057192523,-0.0059455754,-9.7647695541],"accelerometer_integral_dt":5003,"accelerometer_clipping":0}
{"timestamp":68606915,"gyro_rad":[0.0030729708,-0.0035642332,-0.0000506456],"gyro_integral_dt":4988,"accelerometer_timestamp_relative":0,"accelerometer_m_s2":[0.0302569438,0.009771144,-9.75847435],"accelerometer_integral_dt":4988,"accelerometer_clipping":0}
{"timestamp":68614042,"gyro_rad":[0.0005820047,0.0073814513,0.0000048044],"gyro_integral_dt":5003,"accelerometer_timestamp_relative":0,"accelerometer_m_s2":[-0.0534541905,-0.0079859318,-9.8269195557],"accelerometer_integral_dt":5003,"accelerometer_clipping":0}
{"timestamp":68615160,"gyro_rad":[0.0086750574,0.0042316811,0.0007073359],"gyro_integral_dt":4989,"accelerometer_timestamp_relative":0,"accelerometer_m_s2":[0.030763384,-0.0413547195,-9.7789087296],"accelerometer_integral_dt":4989,"accelerometer_clipping":0}
{"timestamp":68618861,"gyro_rad":[0.0031810261,0.005142869,-0.001988034],"gyro_integral_dt":4994,"accelerometer_timestamp_relative":0,"accelerometer_m_s2":[0.0257402267,-0.0477570072,-9.8050365448],"accelerometer_integral_dt":4994,"accelerometer_clipping":0}
{"timestamp":68626492,"gyro_rad":[0.0090872897,0.0053102057,0.0017782784],"gyro_integral_dt":4997,"accelerometer_timestamp_relative":0,"accelerometer_m_s2":[0.0385803543,-0.0347081386,-9.7869949341],"accelerometer_integral_dt":4997,"accelerometer_clipping":0}
{"timestamp":68634945,"gyro_rad":[-0.0006008277,-0.0007397914,-0.0022965034],"gyro_integral_dt":4994,"accelerometer_timestamp_relative":0,"accelerometer_m_s2":[0.095776543,-0.0863115937,-9.8062372208],"accelerometer_integral_dt":4994,"accelerometer_clipping":0}
{"timestamp":68635693,"gyro_rad":[0.0081420857,0.0112594208,0.0009466478],"gyro_integral_dt":5001,"accelerometer_timestamp_relative":0,"accelerometer_m_s2":[0.0991430357,0.0230708029,-9.7870893478],"accelerometer_integral_dt":5001,"accelerometer_clipping":0}
{"timestamp":68644980,"gyro_rad":[0.0060255202,-0.0011973712,-0.0024141776],"gyro_integral_dt":4993,"accelerometer_timestamp_relative":0,"accelerometer_m_s2":[0.1064636633,-0.0209266692,-9.7810878754],"accelerometer_integral_dt":4993,"accelerometer_clipping":0}
{"timestamp":68645737,"gyro_rad":[0.005658058,0.0077359299,-0.0007321713],"gyro_integral_dt":4994,"accelerometer_timestamp_relative":0,"accelerometer_m_s2":[0.1420151591,0.0500179641,-9.7901754379],"accelerometer_integral_dt":4994,"accelerometer_clipping":0}
{"timestamp":68648122,"gyro_rad":[0.0050326888,0.003345202,-0.0019751491],"gyro_integral_dt":4999,"accelerometer_timestamp_relative":0,"accelerometer_m_s2":[0.0824777856,0.0621961839,-9.8160190582],"accelerometer_integral_dt":4999,"accelerometer_clipping":0}
{"timestamp":68655615,"gyro_rad":[0.0049481993,0.0056593637,-0.001934131],"gyro_integral_dt":4992,"accelerometer_timestamp_relative":0,"accelerometer_m_s2":[0.1322080493,0.029780183,-9.741853714],"accelerometer_integral_dt":4992,"accelerometer_clipping":0}
{"timestamp":68665821,"gyro_rad":[0.0083992733,0.0050904639,0.0005742376],"gyro_integral_dt":4997,"accelerometer_timestamp_relative":0,"accelerometer_m_s2":[0.0202660356,0.1078435108,-9.8326997757],"accelerometer_integral_dt":4997,"accelerometer_clipping":0}
{"timestamp":68666442,"gyro_rad":[0.0011788359,0.0036063867,-0.0003431245],"gyro_integral_dt":4996,"accelerometer_timestamp_relative":0,"accelerometer_m_s2":[0.0222440306,0.0707415044,-9.8019189835],"accelerometer_integral_dt":4996,"accelerometer_clipping":0}
{"timestamp":68668981,"gyro_rad":[0.0022969458,0.0099856034,0.0002188258],"gyro_integral_dt":4995,"accelerometer_timestamp_relative":0,"accelerometer_m_s2":[0.0172433965,0.0625327006,-9.7747983932],"accelerometer_integral_dt":4995,"accelerometer_clipping":0}
{"timestamp":68681735,"gyro_rad":[0.0061734896,-0.0039259363,-0.0016211447],"gyro_integral_dt":4995,"accelerometer_timestamp_relative":0,"accelerometer_m_s2":[-0.0266586766,0.0498350896,-9.8402843475],"accelerometer_integral_dt":4995,"accelerometer_clipping":0}
{"timestamp":68680776,"gyro_rad":[0.0072542382,0.0139364405,0.0003737252],"gyro_integral_dt":4998,"accelerometer_timestamp_relative":0,"accelerometer_m_s2":[-0.0198199451,0.0321505815,-9.7304153442],"accelerometer_integral_dt":4998,"accelerometer_clipping":0}
{"timestamp":68690637,"gyro_rad":[0.0030977731,-0.0050470242,0.0007697348],"gyro_integral_dt":4995,"accelerometer_timestamp_relative":0,"accelerometer_m_s2":[0.008976181,-0.0358334668,-9.7884263992],"accelerometer_integral_dt":4995,"accelerometer_clipping":0}
{"timestamp":68687962,"gyro_rad":[0.0017599234,0.0086252205,-0.0009576646],"gyro_integral_dt":4995,"accelerometer_timestamp_relative":0,"accelerometer_m_s2":[-0.0307369214,0.0283053685,-9.8007144928],"accelerometer_integral_dt":4995,"accelerometer_clipping":0}
{"timestamp":68706781,"gyro_rad":[0.0079213614,0.005257572,0.000611862],"gyro_integral_dt":4999,"accelerometer_timestamp_relative":0,"accelerometer_m_s2":[0.0405929983,-0.091451332,-9.7812824249],"accelerometer_integral_dt":4999,"accelerometer_clipping":0}
{"timestamp":68706075,"gyro_rad":[0.0012486676,0.0011585733,-0.0027439492],"gyro_integral_dt":4995,"accelerometer_timestamp_relative":0,"accelerometer_m_s2":[0.037631616,-0.0097280052,-9.8003063202],"accelerometer_integral_dt":4995,"accelerometer_clipping":0}
{"timestamp":68716293,"gyro_rad":[0.0074318801,0.0072871912,0.0019542642],"gyro_integral_dt":4996,"accelerometer_timestamp_relative":0,"accelerometer_m_s2":[0.0544125065,-0.0650076866,-9.8110904694],"accelerometer_integral_dt":4996,"accelerometer_clipping":0}
{"timestamp":68715618,"gyro_rad":[0.0018488298,-0.0018831018,-0.0020757732],"gyro_integral_dt":4994,"accelerometer_timestamp_relative":0,"accelerometer_m_s2":[0.1099896282,-0.0161070749,-9.8053503036],"accelerometer_integral_dt":4994,"accelerometer_clipping":0}
{"timestamp":68716867,"gyro_rad":[0.0075402907,0.012225301,-0.0004178206],"gyro_integral_dt":4997,"accelerometer_timestamp_relative":0,"accelerometer_m_s2":[0.0832461715,-0.0130955549,-9.7864513397],"accelerometer_integral_dt":4997,"accelerometer_clipping":0}
{"timestamp":68726035,"gyro_rad":[0.0065045157,-0.0035285926,-0.0020913742],"gyro_integral_dt":4994,"accelerometer_timestamp_relative":0,"accelerometer_m_s2":[0.1334357411,-0.006577949,-9.7764749527],"accelerometer_integral_dt":4994,"accelerometer_clipping":0}
{"timestamp":68727053,"gyro_rad":[0.0032013725,0.0080146808,-0.0003841016],"gyro_integral_dt":4997,"accelerometer_timestamp_relative":0,"accelerometer_m_s2":[0.0836878493,0.0336766094,-9.8156557083],"accelerometer_integral_dt":4997,"accelerometer_clipping":0}
{"timestamp":68734375,"gyro_rad":[0.0061464887,0.0054591475,-0.000079816],"gyro_integral_dt":4994,"accelerometer_timestamp_relative":0,"accelerometer_m_s2":[0.074592568,0.0762429982,-9.8121805191],"accelerometer_integral_dt":4994,"accelerometer_clipping":0}
{"timestamp":68745843,"gyro_rad":[0.0040740939,0.0026413063,-0.0015628679],"gyro_integral_dt":4993,"accelerometer_timestamp_relative":0,"accelerometer_m_s2":[0.0766978785,0.0288551487,-9.7388868332],"accelerometer_integral_dt":4993,"accelerometer_clipping":0}
{"timestamp":68746174,"gyro_rad":[0.0098436857,0.0076345564,0.0011948498],"gyro_integral_dt":5001,"accelerometer_timestamp_relative":0,"accelerometer_m_s2":[0.01840101,0.1299904287,-9.8445215225],"accelerometer_integral_dt":5001,"accelerometer_clipping":0}
{"timestamp":68746977,"gyro_rad":[-0.0005841436,0.000604224,-0.0008291645],"gyro_integral_dt":4995,"accelerometer_timestamp_relative":0,"accelerometer_m_s2":[0.0298560075,0.03177182,-9.7970561981],"accelerometer_integral_dt":4995,"accelerometer_clipping":0}
{"timestamp":68755277,"gyro_rad":[0.0073253773,-0.0028798413,-0.000806512],"gyro_integral_dt":4993,"accelerometer_timestamp_relative":0,"accelerometer_m_s2":[-0.0202365834,0.0192017239,-9.8143053055],"accelerometer_integral_dt":4993,"accelerometer_clipping":0}
{"timestamp":68765831,"gyro_rad":[0.0056777499,0.0118268179,0.0010072108],"gyro_integral_dt":4999,"accelerometer_timestamp_relative":0,"accelerometer_m_s2":[-0.0000105972,0.0198455043,-9.7579860687],"accelerometer_integral_dt":4999,"accelerometer_clipping":0}
{"timestamp":68775202,"gyro_rad":[0.0029988165,-0.0033398357,-0.0009919043],"gyro_integral_dt":5006,"accelerometer_timestamp_relative":0,"accelerometer_m_s2":[-0.0056495899,-0.0209248886,-9.8349504471],"accelerometer_integral_dt":5006,"accelerometer_clipping":0}
{"timestamp":68775460,"gyro_rad":[0.0023648357,0.009155089,-0.0006422043],"gyro_integral_dt":4985,"accelerometer_timestamp_relative":0,"accelerometer_m_s2":[-0.0030744413,-0.0092445379,-9.7822036743],"accelerometer_integral_dt":4985,"accelerometer_clipping":0}
{"timestamp":68786288,"gyro_rad":[0.0065911906,0.0056777992,0.0010976342],"gyro_integral_dt":4997,"accelerometer_timestamp_relative":0,"accelerometer_m_s2":[0.0146929268,-0.083731927,-9.8153247833],"accelerometer_integral_dt":4997,"accelerometer_clipping":0}
{"timestamp":68785742,"gyro_rad":[0.0042121951,-0.0010855481,-0.00268546],"gyro_integral_dt":4995,"accelerometer_timestamp_relative":0,"accelerometer_m_s2":[0.0564368404,-0.0026711437,-9.7674531937],"accelerometer_integral_dt":4995,"accelerometer_clipping":0}
{"timestamp":68793707,"gyro_rad":[0.0077993432,0.0112925647,0.0012092734],"gyro_integral_dt":4997,"accelerometer_timestamp_relative":0,"accelerometer_m_s2":[0.0714387149,-0.0686766878,-9.8188924789],"accelerometer_integral_dt":4997,"accelerometer_clipping":0}
{"timestamp":68796815,"gyro_rad":[0.0037286601,-0.0025087344,-0.0007025773],"gyro_integral_dt":4995,"accelerometer_timestamp_relative":0,"accelerometer_m_s2":[0.132810235,0.0092328908,-9.7948875427],"accelerometer_integral_dt":4995,"accelerometer_clipping":0}
{"timestamp":68800000,"gyro_rad":[0.0081146639,0.0106888013,0.0003184006],"gyro_integral_dt":4996,"accelerometer_timestamp_relative":0,"accelerometer_m_s2":[0.0677621961,0.0074933041,-9.7689552307],"accelerometer_integral_dt":4996,"accelerometer_clipping":0}
{"timestamp":68798904,"gyro_rad":[0.0096324943,-0.0034406555,-0.0013957645],"gyro_integral_dt":4996,"accelerometer_timestamp_relative":0,"accelerometer_m_s2":[0.1813864708,0.0250151157,-9.7858991623],"accelerometer_integral_dt":4996,"accelerometer_clipping":0}
{"timestamp":68817259,"gyro_rad":[0.00181544,0.0110782208,-0.0003196522],"gyro_integral_dt":4994,"accelerometer_timestamp_relative":0,"accelerometer_m_s2":[0.0471009128,0.0485039093,-9.8232316971],"accelerometer_integral_dt":4994,"accelerometer_clipping":0}
{"timestamp":68816287,"gyro_rad":[0.0087004704,0.0038726896,0.0002192973],"gyro_integral_dt":4998,"accelerometer_timestamp_relative":0,"accelerometer_m_s2":[0.14559865,0.0351310708,-9.7650728226],"accelerometer_integral_dt":4998,"accelerometer_clipping":0}
{"timestamp":68824415,"gyro_rad":[0.0045342478,0.001459826,-0.0030173012],"gyro_integral_dt":5001,"accelerometer_timestamp_relative":0,"accelerometer_m_s2":[0.0321233869,0.0813436732,-9.7689743042],"accelerometer_integral_dt":5001,"accelerometer_clipping":0}
{"timestamp":68823036,"gyro_rad":[0.0070117619,0.0113483313,0.0022352396],"gyro_integral_dt":4992,"accelerometer_timestamp_relative":0,"accelerometer_m_s2":[0.0455806963,0.0884295851,-9.8528137207],"accelerometer_integral_dt":4992,"accelerometer_clipping":0}
{"timestamp":68836591,"gyro_rad":[-0.0006487458,-0.0013968471,-0.0022861559],"gyro_integral_dt":4998,"accelerometer_timestamp_relative":0,"accelerometer_m_s2":[-0.0037440469,0.0346440151,-9.7555246353],"accelerometer_integral_dt":4998,"accelerometer_clipping":0}
{"timestamp":68844512,"gyro_rad":[0.0069710761,0.0106123025,0.0025936654],"gyro_integral_dt":4990,"accelerometer_timestamp_relative":0,"accelerometer_m_s2":[0.0135624036,0.0506132767,-9.8210802078],"accelerometer_integral_dt":4990,"accelerometer_clipping":0}
{"timestamp":68847901,"gyro_rad":[0.0056644124,0.0013657035,-0.0003683452],"gyro_integral_dt":4996,"accelerometer_timestamp_relative":0,"accelerometer_m_s2":[-0.0274559017,0.0174918529,-9.7846794128],"accelerometer_integral_dt":4996,"accelerometer_clipping":0}
{"timestamp":68847060,"gyro_rad":[0.003783301,0.0109184673,0.0006976192],"gyro_integral_dt":4996,"accelerometer_timestamp_relative":0,"accelerometer_m_s2":[-0.0062559689,-0.000363645,-9.7466869354],"accelerometer_integral_dt":4996,"accelerometer_clipping":0}
{"timestamp":68850165,"gyro_rad":[0.0021310102,-0.0018419182,0.0007543223],"gyro_integral_dt":4998,"accelerometer_timestamp_relative":0,"accelerometer_m_s2":[-0.0229399074,-0.0248561148,-9.814330101],"accelerometer_integral_dt":4998,"accelerometer_clipping":0}
{"timestamp":68848063,"gyro_rad":[0.0067561604,0.0076233973,-0.0011233556],"gyro_integral_dt":4994,"accelerometer_timestamp_relative":0,"accelerometer_m_s2":[0.010620215,-0.0303973295,-9.7604112625],"accelerometer_integral_dt":4994,"accelerometer_clipping":0}
{"timestamp":68864370,"gyro_rad":[0.0081650279,0.0060611721,0.0006389058],"gyro_integral_dt":4996,"accelerometer_timestamp_relative":0,"accelerometer_m_s2":[0.0551319644,-0.0643257126,-9.8224229813],"accelerometer_integral_dt":4996,"accelerometer_clipping":0}
{"timestamp":68863223,"gyro_rad":[0.0028675161,-0.0028801386,-0.001340971],"gyro_integral_dt":4995,"accelerometer_timestamp_relative":0,"accelerometer_m_s2":[0.0461925864,-0.02286263,-9.7588472366],"accelerometer_integral_dt":4995,"accelerometer_clipping":0}
{"timestamp":68877568,"gyro_rad":[0.0048116646,0.0140927685,0.0026985733],"gyro_integral_dt":4997,"accelerometer_timestamp_relative":0,"accelerometer_m_s2":[0.0963674635,-0.0544214658,-9.7941551208],"accelerometer_integral_dt":4997,"accelerometer_clipping":0}
{"timestamp":68877713,"gyro_rad":[0.0090456717,-0.003041253,-0.0025148017],"gyro_integral_dt":4993,"accelerometer_timestamp_relative":0,"accelerometer_m_s2":[0.1083919108,0.0029135316,-9.7726974487],"accelerometer_integral_dt":4993,"accelerometer_clipping":0}
{"timestamp":68887034,"gyro_rad":[0.0071713645,0.0134816132,-0.0002853118],"gyro_integral_dt":4998,"accelerometer_timestamp_relative":0,"accelerometer_m_s2":[0.0911959857,0.0140142543,-9.8262605667],"accelerometer_integral_dt":4998,"accelerometer_clipping":0}
{"timestamp":68884619,"gyro_rad":[0.006880674,-0.0028016302,-0.0011591841],"gyro_integral_dt":4996,"accelerometer_timestamp_relative":0,"accelerometer_m_s2":[0.1593114138,0.0106559964,-9.8004970551],"accelerometer_integral_dt":4996,"accelerometer_clipping":0}
{"timestamp":68895253,"gyro_rad":[0.0024788261,0.0104092387,-0.0006506107],"gyro_integral_dt":4994,"accelerometer_timestamp_relative":0,"accelerometer_m_s2":[0.0279740449,0.1017057672,-9.8223114014],"accelerometer_integral_dt":4994,"accelerometer_clipping":0}
{"timestamp":68895364,"gyro_rad":[0.0097817434,0.0017138576,0.0001741244],"gyro_integral_dt":4997,"accelerometer_timestamp_relative":0,"accelerometer_m_s2":[0.1620848328,0.0152668767,-9.7612352371],"accelerometer_integral_dt":4997,"accelerometer_clipping":0}
{"timestamp":68905668,"gyro_rad":[0.0052081854,0.0016771674,-0.0015771452],"gyro_integral_dt":4998,"accelerometer_timestamp_relative":0,"accelerometer_m_s2":[0.0164107103,0.1664252579,-9.7937297821],"accelerometer_integral_dt":4998,"accelerometer_clipping":0}
{"timestamp":68903023,"gyro_rad":[0.0057560341,0.0130253993,0.0016585682],"gyro_integral_dt":4994,"accelerometer_timestamp_relative":0,"accelerometer_m_s2":[0.0468109734,0.0021257072,-9.8164463043],"accelerometer_integral_dt":4994,"accelerometer_clipping":0}
{"timestamp":68908766,"gyro_rad":[-0.0008927565,-0.0044772034,-0.0007347506],"gyro_integral_dt":4995,"accelerometer_timestamp_relative":0,"accelerometer_m_s2":[0.0107436562,0.1044615954,-9.7424621582],"accelerometer_integral_dt":4995,"accelerometer_clipping":0}
{"timestamp":68908450,"gyro_rad":[0.0113165313,0.012384722,0.001107633],"gyro_integral_dt":4999,"accelerometer_timestamp_relative":0,"accelerometer_m_s2":[-0.0288179796,0.0263943542,-9.8649778366],"accelerometer_integral_dt":4999,"accelerometer_clipping":0}
{"timestamp":68927188,"gyro_rad":[0.0057208161,0.0001863046,-0.0016693207],"gyro_integral_dt":4995,"accelerometer_timestamp_relative":0,"accelerometer_m_s2":[-0.0014535299,0.0250972733,-9.7127189636],"accelerometer_integral_dt":4995,"accelerometer_clipping":0}
{"timestamp":68926586,"gyro_rad":[0.001287446,0.0085485885,-0.0001858502],"gyro_integral_dt":4992,"accelerometer_timestamp_relative":0,"accelerometer_m_s2":[-0.0171427336,-0.0064145452,-9.8212528229],"accelerometer_integral_dt":4992,"accelerometer_clipping":0}
{"timestamp":68927249,"gyro_rad":[0.0038542515,0.0006983279,0.0009432273],"gyro_integral_dt":4999,"accelerometer_timestamp_relative":0,"accelerometer_m_s2":[0.0146639496,0.0077365874,-9.8234071732],"accelerometer_integral_dt":4999,"accelerometer_clipping":0}
{"timestamp":68926132,"gyro_rad":[0.0047877384,0.0063074403,-0.0006942175],"gyro_integral_dt":5023,"accelerometer_timestamp_relative":0,"accelerometer_m_s2":[0.0037610559,-0.0766170025,-9.7724781036],"accelerometer_integral_dt":5023,"accelerometer_clipping":0}
{"timestamp":68945945,"gyro_rad":[0.0082148686,0.0052722357,0.0005537666],"gyro_integral_dt":4975,"accelerometer_timestamp_relative":0,"accelerometer_m_s2":[0.0697050095,-0.0371455811,-9.8067007065],"accelerometer_integral_dt":4975,"accelerometer_clipping":0}
{"timestamp":68945237,"gyro_rad":[0.0037607197,-0.0034543949,-0.0022908903],"gyro_integral_dt":4996,"accelerometer_timestamp_relative":0,"accelerometer_m_s2":[0.0419766642,-0.045447126,-9.7680110931],"accelerometer_integral_dt":4996,"accelerometer_clipping":0}
{"timestamp":68948872,"gyro_rad":[0.0044787289,0.0132209025,0.0015119707],"gyro_integral_dt":4986,"accelerometer_timestamp_relative":0,"accelerometer_m_s2":[0.1277416646,-0.0416239128,-9.8132047653],"accelerometer_integral_dt":4986,"accelerometer_clipping":0}
{"timestamp":68948114,"gyro_rad":[0.0088247918,-0.0045889718,-0.0015117252],"gyro_integral_dt":4998,"accelerometer_timestamp_relative":0,"accelerometer_m_s2":[0.0734500512,0.0086328629,-9.779083252],"accelerometer_integral_dt":4998,"accelerometer_clipping":0}
{"timestamp":68956510,"gyro_rad":[0.0048057735,0.0119269695,-0.000525669],"gyro_integral_dt":4993,"accelerometer_timestamp_relative":0,"accelerometer_m_s2":[0.128935203,-0.0087174401,-9.836274147],"accelerometer_integral_dt":4993,"accelerometer_clipping":0}
{"timestamp":68964724,"gyro_rad":[0.0049385973,-0.0017957594,-0.0005350285],"gyro_integral_dt":4998,"accelerometer_timestamp_relative":0,"accelerometer_m_s2":[0.1037142575,0.041253265,-9.791472435],"accelerometer_integral_dt":4998,"accelerometer_clipping":0}
{"timestamp":68965594,"gyro_rad":[0.0040142094,0.0118650431,-0.0027825839],"gyro_integral_dt":4996,"accelerometer_timestamp_relative":0,"accelerometer_m_s2":[0.0731842741,0.0654032007,-9.787528038],"accelerometer_integral_dt":4996,"accelerometer_clipping":0}
{"timestamp":68973685,"gyro_rad":[0.0077943932,0.0009996283,-0.0003321745],"gyro_integral_dt":4995,"accelerometer_timestamp_relative":0,"accelerometer_m_s2":[0.1135628372,0.0259503145,-9.7577705383],"accelerometer_integral_dt":4995,"accelerometer_clipping":0}
{"timestamp":68974401,"gyro_rad":[0.0043847426,0.0034869148,-0.0024832364],"gyro_integral_dt":4996,"accelerometer_timestamp_relative":0,"accelerometer_m_s2":[-0.031692557,0.1291833669,-9.8469409943],"accelerometer_integral_dt":4996,"accelerometer_clipping":0}
{"timestamp":68984947,"gyro_rad":[0.0033085528,0.0123079857,0.0016552561],"gyro_integral_dt":4996,"accelerometer_timestamp_relative":0,"accelerometer_m_s2":[0.0539366044,0.0041470109,-9.7825317383],"accelerometer_integral_dt":4996,"accelerometer_clipping":0}
{"timestamp":68985828,"gyro_rad":[0.0045681698,-0.0057654348,-0.0006446046],"gyro_integral_dt":4996,"accelerometer_timestamp_relative":0,"accelerometer_m_s2":[-0.0080623655,0.0922999159,-9.7603235245],"accelerometer_integral_dt":4996,"accelerometer_clipping":0}
{"timestamp":68993767,"gyro_rad":[0.0093049165,0.015374599,0.0024248974],"gyro_integral_dt":4995,"accelerometer_timestamp_relative":0,"accelerometer_m_s2":[-0.0219818763,-0.0020731406,-9.8634939194],"accelerometer_integral_dt":4995,"accelerometer_clipping":0}
{"timestamp":68994558,"gyro_rad":[0.0058853906,-0.0010865435,-0.0005037799],"gyro_integral_dt":4996,"accelerometer_timestamp_relative":0,"accelerometer_m_s2":[0.0066820402,0.0284309257,-9.7246818542],"accelerometer_integral_dt":4996,"accelerometer_clipping":0}
{"timestamp":69005403,"gyro_rad":[0.0017449955,0.0063335192,0.0007666743],"gyro_integral_dt":4997,"accelerometer_timestamp_relative":0,"accelerometer_m_s2":[-0.0428121872,-0.002992125,-9.843952179],"accelerometer_integral_dt":4997,"accelerometer_clipping":0}
{"timestamp":69006157,"gyro_rad":[0.0065670805,0.0040364913,-0.0001983753],"gyro_integral_dt":4995,"accelerometer_timestamp_relative":0,"accelerometer_m_s2":[0.0392671227,-0.0520960465,-9.7870321274],"accelerometer_integral_dt":4995,"accelerometer_clipping":0}
{"timestamp":69014169,"gyro_rad":[0.0041332766,0.0050242105,-0.002246015],"gyro_integral_dt":4994,"accelerometer_timestamp_relative":0,"accelerometer_m_s2":[-0.0253025759,-0.0458926186,-9.799738884],"accelerometer_integral_dt":4994,"accelerometer_clipping":0}
{"timestamp":69016387,"gyro_rad":[0.0078657409,0.0050025438,0.0012961113],"gyro_integral_dt":4999,"accelerometer_timestamp_relative":0,"accelerometer_m_s2":[0.0974989012,-0.0397898704,-9.7751026154],"accelerometer_integral_dt":4999,"accelerometer_clipping":0}
{"timestamp":69017804,"gyro_rad":[0.003794655,-0.0036708065,-0.0026380473],"gyro_integral_dt":4996,"accelerometer_timestamp_relative":0,"accelerometer_m_s2":[0.0240127183,-0.0379753038,-9.81046772],"accelerometer_integral_dt":4996,"accelerometer_clipping":0}
{"timestamp":69026088,"gyro_rad":[0.0058185398,0.0137881814,-0.0005768515],"gyro_integral_dt":4996,"accelerometer_timestamp_relative":0,"accelerometer_m_s2":[0.1495857537,-0.0116102891,-9.83522892],"accelerometer_integral_dt":4996,"accelerometer_clipping":0}
{"timestamp":69025783,"gyro_rad":[0.0089621702,-0.0040840833,-0.0029486986],"gyro_integral_dt":4994,"accelerometer_timestamp_relative":0,"accelerometer_m_s2":[0.0677778199,0.0247805696,-9.7460918427],"accelerometer_integral_dt":4994,"accelerometer_clipping":0}
{"timestamp":69045456,"gyro_rad":[0.0052414276,0.0089312047,-0.0006861355],"gyro_integral_dt":4996,"accelerometer_timestamp_relative":0,"accelerometer_m_s2":[0.1524453312,0.0017489356,-9.8391933441],"accelerometer_integral_dt":4996,"accelerometer_clipping":0}
{"timestamp":69045070,"gyro_rad":[0.0041395584,0.0048655826,-0.0002417285],"gyro_integral_dt":4996,"accelerometer_timestamp_relative":0,"accelerometer_m_s2":[0.0599884577,0.0564388148,-9.7919406891],"accelerometer_integral_dt":4996,"accelerometer_clipping":0}
{"timestamp":69045884,"gyro_rad":[0.0068007382,0.0056532891,-0.0020859567],"gyro_integral_dt":4996,"accelerometer_timestamp_relative":0,"accelerometer_m_s2":[0.1117282137,0.0381019451,-9.750705719],"accelerometer_integral_dt":4996,"accelerometer_clipping":0}
{"timestamp":69049744,"gyro_rad":[0.0088843293,0.0046924418,0.0013152227],"gyro_integral_dt":4995,"accelerometer_timestamp_relative":0,"accelerometer_m_s2":[0.0573866293,0.0897122994,-9.8114528656],"accelerometer_integral_dt":4995,"accelerometer_clipping":0}
{"timestamp":69054934,"gyro_rad":[0.0027800773,0.0038805234,-0.0023015896],"gyro_integral_dt":4996,"accelerometer_timestamp_relative":0,"accelerometer_m_s2":[0.0073105735,0.0755046234,-9.8048458099],"accelerometer_integral_dt":4996,"accelerometer_clipping":0}
{"timestamp":69065115,"gyro_rad":[0.0007835231,0.0122378599,0.0024387927],"gyro_integral_dt":4995,"accelerometer_timestamp_relative":0,"accelerometer_m_s2":[0.0354557745,0.0371524356,-9.7709407806],"accelerometer_integral_dt":4995,"accelerometer_clipping":0}
{"timestamp":69065396,"gyro_rad":[0.006967884,-0.004491271,-0.0013792694],"gyro_integral_dt":4996,"accelerometer_timestamp_relative":0,"accelerometer_m_s2":[-0.0425129347,0.0691998675,-9.8036651611],"accelerometer_integral_dt":4996,"accelerometer_clipping":0}
{"timestamp":69074897,"gyro_rad":[0.0047979224,0.0144363763,0.0010057449],"gyro_integral_dt":4998,"accelerometer_timestamp_relative":0,"accelerometer_m_s2":[0.0143785151,-0.0001546604,-9.8209953308],"accelerometer_integral_dt":4998,"accelerometer_clipping":0}
{"timestamp":69073432,"gyro_rad":[0.0057068947,-0.0019442046,-0.0000502596],"gyro_integral_dt":4992,"accelerometer_timestamp_relative":0,"accelerometer_m_s2":[-0.0048341881,0.0130539788,-9.7464723587],"accelerometer_integral_dt":4992,"accelerometer_clipping":0}
{"timestamp":69083943,"gyro_rad":[0.0011056404,0.0070215482,-0.0008040581],"gyro_integral_dt":4998,"accelerometer_timestamp_relative":0,"accelerometer_m_s2":[-0.028986102,0.0068367063,-9.8375511169],"accelerometer_integral_dt":4998,"accelerometer_clipping":0}
{"timestamp":69084640,"gyro_rad":[0.007065149,0.0068301111,0.0022483943],"gyro_integral_dt":4994,"accelerometer_timestamp_relative":0,"accelerometer_m_s2":[0.0226781908,-0.0782393441,-9.7566385269],"accelerometer_integral_dt":4994,"accelerometer_clipping":0}
{"timestamp":69089808,"gyro_rad":[0.0042790789,0.0012691382,-0.0018043141],"gyro_integral_dt":4997,"accelerometer_timestamp_relative":0,"accelerometer_m_s2":[0.0079101259,0.0022439463,-9.8132448196],"accelerometer_integral_dt":4997,"accelerometer_clipping":0}
{"timestamp":69106850,"gyro_rad":[0.0080766715,0.0087481122,0.0015844606],"gyro_integral_dt":4996,"accelerometer_timestamp_relative":0,"accelerometer_m_s2":[0.0805242956,-0.0723422617,-9.8056716919],"accelerometer_integral_dt":4996,"accelerometer_clipping":0}
{"timestamp":69106647,"gyro_rad":[0.0023632892,-0.0024784696,-0.0028646616],"gyro_integral_dt":4993,"accelerometer_timestamp_relative":0,"accelerometer_m_s2":[0.0862469375,-0.0329137743,-9.7831411362],"accelerometer_integral_dt":4993,"accelerometer_clipping":0}
{"timestamp":69115513,"gyro_rad":[0.0071059028,0.011317688,-0.0000591528],"gyro_integral_dt":4999,"accelerometer_timestamp_relative":0,"accelerometer_m_s2":[0.0993784219,-0.0436828546,-9.783413887],"accelerometer_integral_dt":4999,"accelerometer_clipping":0}
{"timestamp":69113664,"gyro_rad":[0.0085849911,-0.0025498557,-0.0011239843],"gyro_integral_dt":4995,"accelerometer_timestamp_relative":0,"accelerometer_m_s2":[0.1210323945,0.0275290031,-9.7688207626],"accelerometer_integral_dt":4995,"accelerometer_clipping":0}
{"timestamp":69126327,"gyro_rad":[0.0028117071,0.0079982802,-0.0014473291],"gyro_integral_dt":4996,"accelerometer_timestamp_relative":0,"accelerometer_m_s2":[0.1269506067,-0.0162975676,-9.8544340134],"accelerometer_integral_dt":4996,"accelerometer_clipping":0}
{"timestamp":69125926,"gyro_rad":[0.0073942691,0.0069628176,-0.0004446864],"gyro_integral_dt":4996,"accelerometer_timestamp_relative":0,"accelerometer_m_s2":[0.0754935369,0.0841434002,-9.7755966187],"accelerometer_integral_dt":4996,"accelerometer_clipping":0}
{"timestamp":69129326,"gyro_rad":[0.0044804215,0.0015109101,-0.0013396614],"gyro_integral_dt":4996,"accelerometer_timestamp_relative":0,"accelerometer_m_s2":[0.0874762312,0.0185873359,-9.7856903076],"accelerometer_integral_dt":4996,"accelerometer_clipping":0}
{"timestamp":69135610,"gyro_rad":[0.0095778517,0.0074411943,0.0012928989],"gyro_integral_dt":4996,"accelerometer_timestamp_relative":0,"accelerometer_m_s2":[0.0195741989,0.1398077905,-9.8074712753],"accelerometer_integral_dt":4996,"accelerometer_clipping":0}
{"timestamp":69145564,"gyro_rad":[0.0000048049,0.0017313301,-0.0014247983],"gyro_integral_dt":4995,"accelerometer_timestamp_relative":0,"accelerometer_m_s2":[0.0306408349,0.0144583527,-9.7755317688],"accelerometer_integral_dt":4995,"accelerometer_clipping":0}
{"timestamp":69144787,"gyro_rad":[0.0024437772,0.010256419,0.0014188422],"gyro_integral_dt":4997,"accelerometer_timestamp_relative":0,"accelerometer_m_s2":[0.0383394286,0.1097060069,-9.7980794907],"accelerometer_integral_dt":4997,"accelerometer_clipping":0}
{"timestamp":69148903,"gyro_rad":[0.0097443489,-0.0004096644,0.0004007006],"gyro_integral_dt":4995,"accelerometer_timestamp_relative":0,"accelerometer_m_s2":[-0.0667549372,0.0282792542,-9.8163661957],"accelerometer_integral_dt":4995,"accelerometer_clipping":0}
{"timestamp":69149279,"gyro_rad":[0.0035489798,0.010753856,0.0000107916],"gyro_integral_dt":4995,"accelerometer_timestamp_relative":0,"accelerometer_m_s2":[0.0342446305,0.0221123882,-9.7686653137],"accelerometer_integral_dt":4995,"accelerometer_clipping":0}
{"timestamp":69167072,"gyro_rad":[0.0042739697,-0.0006768738,0.0001281921],"gyro_integral_dt":4998,"accelerometer_timestamp_relative":0,"accelerometer_m_s2":[-0.0438250303,0.0017447667,-9.8031845093],"accelerometer_integral_dt":4998,"accelerometer_clipping":0}
{"timestamp":69166070,"gyro_rad":[0.0027033188,0.0053525292,-0.0014952203],"gyro_integral_dt":4997,"accelerometer_timestamp_relative":0,"accelerometer_m_s2":[0.0162965953,-0.0401716568,-9.8045969009],"accelerometer_integral_dt":4997,"accelerometer_clipping":0}
{"timestamp":69170536,"gyro_rad":[0.0086897518,0.0068722218,0.0010872161],"gyro_integral_dt":5002,"accelerometer_timestamp_relative":0,"accelerometer_m_s2":[0.0029611185,-0.0576120615,-9.7803134918],"accelerometer_integral_dt":5002,"accelerometer_clipping":0}
{"timestamp":69173843,"gyro_rad":[0.0045776386,-0.0017935184,-0.0024487309],"gyro_integral_dt":4990,"accelerometer_timestamp_relative":0,"accelerometer_m_s2":[0.0639769584,-0.0344383046,-9.7910890579],"accelerometer_integral_dt":4990,"accelerometer_clipping":0}
{"timestamp":69180304,"gyro_rad":[0.0047702319,0.0096378531,0.0008838305],"gyro_integral_dt":4994,"accelerometer_timestamp_relative":0,"accelerometer_m_s2":[0.0643232912,-0.0717159584,-9.8188524246],"accelerometer_integral_dt":4994,"accelerometer_clipping":0}
{"timestamp":69179433,"gyro_rad":[0.0046781576,-0.0013898974,-0.0010733944],"gyro_integral_dt":4994,"accelerometer_timestamp_relative":0,"accelerometer_m_s2":[0.098957248,-0.0172634963,-9.8008575439],"accelerometer_integral_dt":4994,"accelerometer_clipping":0}
{"timestamp":69185246,"gyro_rad":[0.0070604486,0.009428462,0.0010390918],"gyro_integral_dt":5008,"accelerometer_timestamp_relative":0,"accelerometer_m_s2":[0.1124598756,-0.0014878889,-9.7966461182],"accelerometer_integral_dt":5008,"accelerometer_clipping":0}
{"timestamp":69194292,"gyro_rad":[0.0104903756,-0.0021068337,-0.002061263],"gyro_integral_dt":4984,"accelerometer_timestamp_relative":0,"accelerometer_m_s2":[0.1259771734,0.0285239685,-9.7956552505],"accelerometer_integral_dt":4984,"accelerometer_clipping":0}
{"timestamp":69195042,"gyro_rad":[-0.0003008423,0.0082431491,-0.0017888197],"gyro_integral_dt":4996,"accelerometer_timestamp_relative":0,"accelerometer_m_s2":[0.0844604298,0.0066203931,-9.8499212265],"accelerometer_integral_dt":4996,"accelerometer_clipping":0}
{"timestamp":69203971,"gyro_rad":[0.0077865147,0.0071725869,0.000902656],"gyro_integral_dt":4993,"accelerometer_timestamp_relative":0,"accelerometer_m_s2":[0.0999173298,0.0859490335,-9.7511701584],"accelerometer_integral_dt":4993,"accelerometer_clipping":0}
{"timestamp":69204506,"gyro_rad":[0.005358371,0.0003529334,-0.001881095],"gyro_integral_dt":4997,"accelerometer_timestamp_relative":0,"accelerometer_m_s2":[0.0823155195,0.0365207121,-9.7880058289],"accelerometer_integral_dt":4997,"accelerometer_clipping":0}
{"timestamp":69215351,"gyro_rad":[0.0093915416,0.0117508117,0.0014648603],"gyro_integral_dt":4999,"accelerometer_timestamp_relative":0,"accelerometer_m_s2":[0.0321808532,0.1322261095,-9.8297510147],"accelerometer_integral_dt":4999,"accelerometer_clipping":0}
{"timestamp":69215416,"gyro_rad":[-0.0011818993,0.0007471021,-0.0025476189],"gyro_integral_dt":4999,"accelerometer_timestamp_relative":0,"accelerometer_m_s2":[0.015898535,0.0112441648,-9.7795953751],"accelerometer_integral_dt":4999,"accelerometer_clipping":0}
{"timestamp":69217990,"gyro_rad":[0.00582213,0.009631875,0.0019382495],"gyro_integral_dt":4993,"accelerometer_timestamp_relative":0,"accelerometer_m_s2":[0.0218061041,0.0767581612,-9.7893667221],"accelerometer_integral_dt":4993,"accelerometer_clipping":0}
{"timestamp":69224528,"gyro_rad":[0.0092557501,0.0003916232,-0.000684333],"gyro_integral_dt":4994,"accelerometer_timestamp_relative":0,"accelerometer_m_s2":[-0.0495332591,0.0173979364,-9.8153762817],"accelerometer_integral_dt":4994,"accelerometer_clipping":0}
{"timestamp":69227724,"gyro_rad":[0.0026229902,0.0086718416,-0.0005807941],"gyro_integral_dt":4999,"accelerometer_timestamp_relative":0,"accelerometer_m_s2":[0.020003045,0.0145730246,-9.7591619492],"accelerometer_integral_dt":4999,"accelerometer_clipping":0}
{"timestamp":69245069,"gyro_rad":[0.0042073433,0.0004552824,0.0015679211],"gyro_integral_dt":4998,"accelerometer_timestamp_relative":0,"accelerometer_m_s2":[-0.0189417321,-0.0088768546,-9.8244972229],"accelerometer_integral_dt":4998,"accelerometer_clipping":0}
{"timestamp":69245428,"gyro_rad":[0.0045205695,0.0050504399,-0.000673098],"gyro_integral_dt":4992,"accelerometer_timestamp_relative":0,"accelerometer_m_s2":[0.0151908994,-0.0441789329,-9.810002327],"accelerometer_integral_dt":4992,"accelerometer_clipping":0}
{"timestamp":69256094,"gyro_rad":[0.0063902987,0.0079247672,0.0020656323],"gyro_integral_dt":5000,"accelerometer_timestamp_relative":0,"accelerometer_m_s2":[0.0355254412,-0.0623148978,-9.7932405472],"accelerometer_integral_dt":5000,"accelerometer_clipping":0}
{"timestamp":69255310,"gyro_rad":[0.0057149986,-0.0050478438,-0.001446328],"gyro_integral_dt":4997,"accelerometer_timestamp_relative":0,"accelerometer_m_s2":[0.0599471517,0.0033114329,-9.7723093033],"accelerometer_integral_dt":4997,"accelerometer_clipping":0}
{"timestamp":69256300,"gyro_rad":[0.0040334128,0.0125236083,0.0004262978],"gyro_integral_dt":5004,"accelerometer_timestamp_relative":0,"accelerometer_m_s2":[0.0885865539,-0.0741539598,-9.7939786911],"accelerometer_integral_dt":5004,"accelerometer_clipping":0}
{"timestamp":69264490,"gyro_rad":[0.008217223,-0.0016415239,-0.0019397257],"gyro_integral_dt":4999,"accelerometer_timestamp_relative":0,"accelerometer_m_s2":[0.0943114981,0.0166048948,-9.7998495102],"accelerometer_integral_dt":4999,"accelerometer_clipping":0}
{"timestamp":69275175,"gyro_rad":[0.0069944868,0.0103933038,-0.0005137879],"gyro_integral_dt":4993,"accelerometer_timestamp_relative":0,"accelerometer_m_s2":[0.1055615693,0.0123827578,-9.7603807449],"accelerometer_integral_dt":4993,"accelerometer_clipping":0}
{"timestamp":69274478,"gyro_rad":[0.0076694414,0.0000090732,-0.0002305272],"gyro_integral_dt":5000,"accelerometer_timestamp_relative":0,"accelerometer_m_s2":[0.1430710107,0.0267350618,-9.793964386],"accelerometer_integral_dt":5000,"accelerometer_clipping":0}
{"timestamp":69279236,"gyro_rad":[0.0008981719,0.0062918463,-0.002198515],"gyro_integral_dt":4999,"accelerometer_timestamp_relative":0,"accelerometer_m_s2":[0.0846076682,0.0526541509,-9.8299045563],"accelerometer_integral_dt":4999,"accelerometer_clipping":0}
{"timestamp":69305232,"gyro_rad":[0.0104527716,0.0076000364,0.0005341717],"gyro_integral_dt":5003,"accelerometer_timestamp_relative":0,"accelerometer_m_s2":[0.130434528,0.0427620485,-9.7431678772],"accelerometer_integral_dt":5003,"accelerometer_clipping":0}
{"timestamp":69305886,"gyro_rad":[0.0043358305,-0.0016794464,-0.0027434842],"gyro_integral_dt":4997,"accelerometer_timestamp_relative":0,"accelerometer_m_s2":[0.0315568894,0.0931594223,-9.8273677826],"accelerometer_integral_dt":4997,"accelerometer_clipping":0}
{"timestamp":69305251,"gyro_rad":[0.0069604279,0.0144042037,0.0010340107],"gyro_integral_dt":4992,"accelerometer_timestamp_relative":0,"accelerometer_m_s2":[0.0354253985,0.0590103492,-9.7794246674],"accelerometer_integral_dt":4992,"accelerometer_clipping":0}
{"timestamp":69305744,"gyro_rad":[-0.0003579712,-0.0038917554,-0.0016609993],"gyro_integral_dt":4999,"accelerometer_timestamp_relative":0,"accelerometer_m_s2":[0.0133509105,0.0220490173,-9.7780723572],"accelerometer_integral_dt":4999,"accelerometer_clipping":0}
{"timestamp":69304217,"gyro_rad":[0.0064871381,0.0100166313,-0.0002192558],"gyro_integral_dt":5001,"accelerometer_timestamp_relative":0,"accelerometer_m_s2":[-0.0242271833,0.0560343899,-9.8389463425],"accelerometer_integral_dt":5001,"accelerometer_clipping":0}
{"timestamp":69305175,"gyro_rad":[0.0060267444,0.0022372366,-0.0009104581],"gyro_integral_dt":5003,"accelerometer_timestamp_relative":0,"accelerometer_m_s2":[-0.0035753921,0.0096739354,-9.7540664673],"accelerometer_integral_dt":5003,"accelerometer_clipping":0}
{"timestamp":69309184,"gyro_rad":[0.0003708144,0.0041273264,-0.0017575384],"gyro_integral_dt":4992,"accelerometer_timestamp_relative":0,"accelerometer_m_s2":[0.0181895345,0.0067848996,-9.7976675034],"accelerometer_integral_dt":4992,"accelerometer_clipping":0}
{"timestamp":69316217,"gyro_rad":[0.0047525726,0.0035051738,0.0019483624],"gyro_integral_dt":4995,"accelerometer_timestamp_relative":0,"accelerometer_m_s2":[-0.0430395901,0.0135267824,-9.8278856277],"accelerometer_integral_dt":4995,"accelerometer_clipping":0}
{"timestamp":69325300,"gyro_rad":[0.0022197906,0.0025442971,-0.0018529232],"gyro_integral_dt":5002,"accelerometer_timestamp_relative":0,"accelerometer_m_s2":[0.0383861437,-0.0868982822,-9.7872934341],"accelerometer_integral_dt":5002,"accelerometer_clipping":0}
{"timestamp":69326033,"gyro_rad":[0.0075965351,0.0077485694,0.0029742604],"gyro_integral_dt":4999,"accelerometer_timestamp_relative":0,"accelerometer_m_s2":[0.0285204388,-0.0172508918,-9.7986946106],"accelerometer_integral_dt":4999,"accelerometer_clipping":0}
{"timestamp":69328285,"gyro_rad":[0.0039716959,-0.0033981956,-0.0018726207],"gyro_integral_dt":5001,"accelerometer_timestamp_relative":0,"accelerometer_m_s2":[0.0528765507,-0.0588594042,-9.7958307266],"accelerometer_integral_dt":5001,"accelerometer_clipping":0}
{"timestamp":69335584,"gyro_rad":[0.0041278922,0.0114326784,0.0005171147],"gyro_integral_dt":4996,"accelerometer_timestamp_relative":0,"accelerometer_m_s2":[0.0991147384,-0.0185339339,-9.8193635941],"accelerometer_integral_dt":4996,"accelerometer_clipping":0}
{"timestamp":69339086,"gyro_rad":[0.007173087,-0.0031890331,-0.0008606624],"gyro_integral_dt":5002,"accelerometer_timestamp_relative":0,"accelerometer_m_s2":[0.0703966171,-0.0081651853,-9.7909708023],"accelerometer_integral_dt":5002,"accelerometer_clipping":0}
{"timestamp":69345648,"gyro_rad":[0.0052828775,0.0079944301,-0.000936796],"gyro_integral_dt":4993,"accelerometer_timestamp_relative":0,"accelerometer_m_s2":[0.1321939677,0.0148350466,-9.7728843689],"accelerometer_integral_dt":4993,"accelerometer_clipping":0}
{"timestamp":69353822,"gyro_rad":[0.005223799,0.0012441322,-0.0012738433],"gyro_integral_dt":5003,"accelerometer_timestamp_relative":0,"accelerometer_m_s2":[0.0938394368,0.0243333038,-9.8236789703],"accelerometer_integral_dt":5003,"accelerometer_clipping":0}
{"timestamp":69354313,"gyro_rad":[0.0019661637,0.0068831416,-0.0012806309],"gyro_integral_dt":4994,"accelerometer_timestamp_relative":0,"accelerometer_m_s2":[0.1108717248,0.0665965676,-9.8069667816],"accelerometer_integral_dt":4994,"accelerometer_clipping":0}
{"timestamp":69357850,"gyro_rad":[0.0087075289,0.0063732192,0.0008494307],"gyro_integral_dt":4997,"accelerometer_timestamp_relative":0,"accelerometer_m_s2":[0.084021993,0.0448693484,-9.7327289581],"accelerometer_integral_dt":4997,"accelerometer_clipping":0}
{"timestamp":69363932,"gyro_rad":[0.0061269673,0.001450992,-0.0015813535],"gyro_integral_dt":5011,"accelerometer_timestamp_relative":0,"accelerometer_m_s2":[0.0192405898,0.0992854461,-9.8766174316],"accelerometer_integral_dt":5011,"accelerometer_clipping":0}
{"timestamp":69374451,"gyro_rad":[0.0046305391,0.0137358084,0.001936111],"gyro_integral_dt":4984,"accelerometer_timestamp_relative":0,"accelerometer_m_s2":[0.0316813402,0.0183571298,-9.7898845673],"accelerometer_integral_dt":4984,"accelerometer_clipping":0}
{"timestamp":69374889,"gyro_rad":[0.004112117,-0.003190275,-0.0007382149],"gyro_integral_dt":5002,"accelerometer_timestamp_relative":0,"accelerometer_m_s2":[0.00563914,0.0573683269,-9.7849578857],"accelerometer_integral_dt":5002,"accelerometer_clipping":0}
{"timestamp":69384000,"gyro_rad":[0.0068925559,0.0116502056,-0.0001439031],"gyro_integral_dt":4995,"accelerometer_timestamp_relative":0,"accelerometer_m_s2":[-0.0635465756,0.0403787792,-9.8246574402],"accelerometer_integral_dt":4995,"accelerometer_clipping":0}
{"timestamp":69385093,"gyro_rad":[0.0075625521,0.0026116967,0.0011096038],"gyro_integral_dt":5008,"accelerometer_timestamp_relative":0,"accelerometer_m_s2":[0.0276123118,-0.0010926691,-9.7204170227],"accelerometer_integral_dt":5008,"accelerometer_clipping":0}
{"timestamp":69393821,"gyro_rad":[-0.000635303,0.0021038454,-0.0008594762],"gyro_integral_dt":4993,"accelerometer_timestamp_relative":0,"accelerometer_m_s2":[-0.0385050401,-0.01207182,-9.8062553406],"accelerometer_integral_dt":4993,"accelerometer_clipping":0}
{"timestamp":69393280,"gyro_rad":[0.0084863398,0.007598246,0.0018152945],"gyro_integral_dt":4997,"accelerometer_timestamp_relative":0,"accelerometer_m_s2":[-0.0173011515,-0.0233050492,-9.820104599],"accelerometer_integral_dt":4997,"accelerometer_clipping":0}
{"timestamp":69399661,"gyro_rad":[0.0032222548,0.0007164101,-0.0016814469],"gyro_integral_dt":5003,"accelerometer_timestamp_relative":0,"accelerometer_m_s2":[0.020085318,-0.0847133696,-9.8064289093],"accelerometer_integral_dt":5003,"accelerometer_clipping":0}
{"timestamp":69404805,"gyro_rad":[0.0080168117,0.0073366682,0.0005666706],"gyro_integral_dt":5000,"accelerometer_timestamp_relative":0,"accelerometer_m_s2":[0.0519886911,-0.0011388126,-9.7558870316],"accelerometer_integral_dt":5000,"accelerometer_clipping":0}
{"timestamp":69414025,"gyro_rad":[0.0049702637,-0.0025051369,-0.0030957775],"gyro_integral_dt":4993,"accelerometer_timestamp_relative":0,"accelerometer_m_s2":[0.0612886585,-0.076416783,-9.8139619827],"accelerometer_integral_dt":4993,"accelerometer_clipping":0}
{"timestamp":69415184,"gyro_rad":[0.0063083344,0.0114775635,0.0003176907],"gyro_integral_dt":5003,"accelerometer_timestamp_relative":0,"accelerometer_m_s2":[0.1236484572,-0.0033756385,-9.8122730255],"accelerometer_integral_dt":5003,"accelerometer_clipping":0}
{"timestamp":69425180,"gyro_rad":[0.0073204413,-0.0000155959,-0.0015938914],"gyro_integral_dt":4993,"accelerometer_timestamp_relative":0,"accelerometer_m_s2":[0.0825108737,0.0078452015,-9.7724323273],"accelerometer_integral_dt":4993,"accelerometer_clipping":0}
{"timestamp":69432282,"gyro_rad":[0.0069175339,0.0051846686,-0.0019027756],"gyro_integral_dt":5004,"accelerometer_timestamp_relative":0,"accelerometer_m_s2":[0.1489378512,0.0140327476,-9.7948389053],"accelerometer_integral_dt":5004,"accelerometer_clipping":0}
