{"timestamp":828327095,"gyro_rad":[0.0017482024,0.0019591674,-0.0023037149],"gyro_integral_dt":4998,"accelerometer_timestamp_relative":0,"accelerometer_m_s2":[0.01219997,-0.0663187429,-9.8040065765],"accelerometer_integral_dt":4998,"accelerometer_clipping":0}
{"timestamp":828328397,"gyro_rad":[0.0061540618,0.010111643,0.0014447242],"gyro_integral_dt":4995,"accelerometer_timestamp_relative":0,"accelerometer_m_s2":[0.036845386,-0.081461139,-9.7720603943],"accelerometer_integral_dt":4995,"accelerometer_clipping":0}
{"timestamp":828331668,"gyro_rad":[0.0067393696,-0.0025293995,-0.0008823981],"gyro_integral_dt":4996,"accelerometer_timestamp_relative":0,"accelerometer_m_s2":[0.0713486373,0.0136127416,-9.7966499329],"accelerometer_integral_dt":4996,"accelerometer_clipping":0}
{"timestamp":828335694,"gyro_rad":[0.0036564155,0.0131468177,0.0006731342],"gyro_integral_dt":4997,"accelerometer_timestamp_relative":0,"accelerometer_m_s2":[0.0841360092,-0.0315010101,-9.8141708374],"accelerometer_integral_dt":4997,"accelerometer_clipping":0}
{"timestamp":828345416,"gyro_rad":[0.0055079274,-0.0017355708,-0.000785511],"gyro_integral_dt":4998,"accelerometer_timestamp_relative":0,"accelerometer_m_s2":[0.120195888,0.0541004799,-9.8038434982],"accelerometer_integral_dt":4998,"accelerometer_clipping":0}
{"timestamp":828346076,"gyro_rad":[0.0049307724,0.0101645151,-0.0009982173],"gyro_integral_dt":4992,"accelerometer_timestamp_relative":0,"accelerometer_m_s2":[0.0821943209,0.0695110038,-9.8080368042],"accelerometer_integral_dt":4992,"accelerometer_clipping":0}
{"timestamp":828346958,"gyro_rad":[0.0065086768,0.003645577,0.0003764679],"gyro_integral_dt":4996,"accelerometer_timestamp_relative":0,"accelerometer_m_s2":[0.1210355684,0.0644610301,-9.7713003159],"accelerometer_integral_dt":4996,"accelerometer_clipping":0}
{"timestamp":828356744,"gyro_rad":[0.0034440507,0.0022897546,-0.003191944],"gyro_integral_dt":4996,"accelerometer_timestamp_relative":0,"accelerometer_m_s2":[0.044783704,0.1583699286,-9.7928915024],"accelerometer_integral_dt":4996,"accelerometer_clipping":0}
{"timestamp":828364410,"gyro_rad":[0.0076467721,0.0089886077,0.0004998026],"gyro_integral_dt":4993,"accelerometer_timestamp_relative":0,"accelerometer_m_s2":[0.1198566407,0.0929910392,-9.7912340164],"accelerometer_integral_dt":4993,"accelerometer_clipping":0}
{"timestamp":828365465,"gyro_rad":[0.0004630284,-0.0005143895,-0.0006996015],"gyro_integral_dt":4997,"accelerometer_timestamp_relative":0,"accelerometer_m_s2":[-0.0258154403,0.1327223033,-9.8071880341],"accelerometer_integral_dt":4997,"accelerometer_clipping":0}
{"timestamp":828370518,"gyro_rad":[0.0046596085,0.0126335109,0.0009393545],"gyro_integral_dt":4992,"accelerometer_timestamp_relative":0,"accelerometer_m_s2":[0.052481655,0.0507186204,-9.7944488525],"accelerometer_integral_dt":4992,"accelerometer_clipping":0}
{"timestamp":828386651,"gyro_rad":[0.0021708119,-0.0022412692,-0.0014975369],"gyro_integral_dt":5000,"accelerometer_timestamp_relative":0,"accelerometer_m_s2":[-0.0470244512,0.0597056113,-9.8009443283],"accelerometer_integral_dt":5000,"accelerometer_clipping":0}
{"timestamp":828385949,"gyro_rad":[0.0046706973,0.012054,0.0006536369],"gyro_integral_dt":4995,"accelerometer_timestamp_relative":0,"accelerometer_m_s2":[-0.0439181998,0.0211988389,-9.7976131439],"accelerometer_integral_dt":4995,"accelerometer_clipping":0}
{"timestamp":828386428,"gyro_rad":[0.0022377679,0.002004328,0.0007697243],"gyro_integral_dt":4993,"accelerometer_timestamp_relative":0,"accelerometer_m_s2":[-0.0493222661,-0.0221705772,-9.7491054535],"accelerometer_integral_dt":4993,"accelerometer_clipping":0}
{"timestamp":828391296,"gyro_rad":[0.001924903,0.0013855906,-0.0014456786],"gyro_integral_dt":4997,"accelerometer_timestamp_relative":0,"accelerometer_m_s2":[-0.0144325467,-0.0324220471,-9.8303565979],"accelerometer_integral_dt":4997,"accelerometer_clipping":0}
{"timestamp":828396089,"gyro_rad":[0.0039696428,0.0106984917,-0.0006011557],"gyro_integral_dt":4994,"accelerometer_timestamp_relative":0,"accelerometer_m_s2":[-0.015053561,-0.0704758465,-9.8089504242],"accelerometer_integral_dt":4994,"accelerometer_clipping":0}
{"timestamp":828400517,"gyro_rad":[0.0027774391,-0.0025195593,-0.0017373989],"gyro_integral_dt":4999,"accelerometer_timestamp_relative":0,"accelerometer_m_s2":[0.0173392966,-0.1116352379,-9.7780361176],"accelerometer_integral_dt":4999,"accelerometer_clipping":0}
{"timestamp":828406330,"gyro_rad":[0.0076717986,0.0096008955,0.0005356065],"gyro_integral_dt":4992,"accelerometer_timestamp_relative":0,"accelerometer_m_s2":[0.0557210557,0.0037232705,-9.7864131927],"accelerometer_integral_dt":4992,"accelerometer_clipping":0}
{"timestamp":828436909,"gyro_rad":[0.005669916,-0.0021206385,-0.0021467095],"gyro_integral_dt":4997,"accelerometer_timestamp_relative":0,"accelerometer_m_s2":[0.0901482999,-0.0624730103,-9.8196325302],"accelerometer_integral_dt":4997,"accelerometer_clipping":0}
{"timestamp":828436230,"gyro_rad":[0.0040330929,0.0124806585,0.0012086596],"gyro_integral_dt":4994,"accelerometer_timestamp_relative":0,"accelerometer_m_s2":[0.106611006,0.0570576638,-9.8025398254],"accelerometer_integral_dt":4994,"accelerometer_clipping":0}
{"timestamp":828434727,"gyro_rad":[0.0081980946,-0.0003035907,-0.0000923121],"gyro_integral_dt":4996,"accelerometer_timestamp_relative":0,"accelerometer_m_s2":[0.0889610574,0.0317057259,-9.7905254364],"accelerometer_integral_dt":4996,"accelerometer_clipping":0}
{"timestamp":828437327,"gyro_rad":[0.0030870494,0.0070282733,-0.0000276847],"gyro_integral_dt":4995,"accelerometer_timestamp_relative":0,"accelerometer_m_s2":[0.1697082967,0.0869356468,-9.8095188141],"accelerometer_integral_dt":4995,"accelerometer_clipping":0}
{"timestamp":828435698,"gyro_rad":[0.0063453326,0.0080635678,0.0009006644],"gyro_integral_dt":4996,"accelerometer_timestamp_relative":0,"accelerometer_m_s2":[0.052292075,0.0966124386,-9.8190345764],"accelerometer_integral_dt":4996,"accelerometer_clipping":0}
{"timestamp":828436850,"gyro_rad":[0.003892662,0.0000469725,-0.0019045197],"gyro_integral_dt":4996,"accelerometer_timestamp_relative":0,"accelerometer_m_s2":[0.11344596,0.1336718947,-9.7792987823],"accelerometer_integral_dt":4996,"accelerometer_clipping":0}
{"timestamp":828446408,"gyro_rad":[0.0052638063,0.0094715971,0.0002825443],"gyro_integral_dt":4994,"accelerometer_timestamp_relative":0,"accelerometer_m_s2":[-0.0146021144,0.0865793675,-9.7923612595],"accelerometer_integral_dt":4994,"accelerometer_clipping":0}
{"timestamp":828446848,"gyro_rad":[0.0023674057,-0.001275911,-0.0025611841],"gyro_integral_dt":4995,"accelerometer_timestamp_relative":0,"accelerometer_m_s2":[0.0305940602,0.1231677085,-9.805434227],"accelerometer_integral_dt":4995,"accelerometer_clipping":0}
{"timestamp":828456227,"gyro_rad":[0.0024234334,0.0089992741,0.0001471545],"gyro_integral_dt":4996,"accelerometer_timestamp_relative":0,"accelerometer_m_s2":[-0.0160583649,0.0162501987,-9.8068904877],"accelerometer_integral_dt":4996,"accelerometer_clipping":0}
{"timestamp":828457138,"gyro_rad":[0.0061554331,0.0005055864,-0.0011098309],"gyro_integral_dt":4997,"accelerometer_timestamp_relative":0,"accelerometer_m_s2":[-0.0458124019,0.0766528472,-9.8192424774],"accelerometer_integral_dt":4997,"accelerometer_clipping":0}
{"timestamp":828464834,"gyro_rad":[0.001814696,0.009407511,-0.0019497407],"gyro_integral_dt":5000,"accelerometer_timestamp_relative":0,"accelerometer_m_s2":[-0.0362485312,-0.0550815761,-9.7503099442],"accelerometer_integral_dt":5000,"accelerometer_clipping":0}
{"timestamp":828464024,"gyro_rad":[0.0072504357,-0.0004835984,0.0004366814],"gyro_integral_dt":4992,"accelerometer_timestamp_relative":0,"accelerometer_m_s2":[-0.0254502557,-0.0002489394,-9.7809858322],"accelerometer_integral_dt":4992,"accelerometer_clipping":0}
{"timestamp":828476038,"gyro_rad":[-0.0008491548,0.0046808808,-0.0012611259],"gyro_integral_dt":4995,"accelerometer_timestamp_relative":0,"accelerometer_m_s2":[-0.0336530171,-0.0892173499,-9.8615760803],"accelerometer_integral_dt":4995,"accelerometer_clipping":0}
{"timestamp":828477038,"gyro_rad":[0.0083489064,0.0074953055,0.0011111954],"gyro_integral_dt":4995,"accelerometer_timestamp_relative":0,"accelerometer_m_s2":[0.0293003749,-0.0920197889,-9.7534885406],"accelerometer_integral_dt":4995,"accelerometer_clipping":0}
{"timestamp":828483207,"gyro_rad":[0.0037401489,-0.0026914666,-0.0013195733],"gyro_integral_dt":4995,"accelerometer_timestamp_relative":0,"accelerometer_m_s2":[0.0258971993,-0.0485756956,-9.8133649826],"accelerometer_integral_dt":4995,"accelerometer_clipping":0}
{"timestamp":828486992,"gyro_rad":[0.0078780828,0.01040278,0.0013773253],"gyro_integral_dt":4994,"accelerometer_timestamp_relative":0,"accelerometer_m_s2":[0.1020912379,-0.0285781231,-9.7800712585],"accelerometer_integral_dt":4994,"accelerometer_clipping":0}
{"timestamp":828494795,"gyro_rad":[0.0031469364,-0.001495272,-0.0009195647],"gyro_integral_dt":4996,"accelerometer_timestamp_relative":0,"accelerometer_m_s2":[0.07996241,-0.0134158181,-9.7826137543],"accelerometer_integral_dt":4996,"accelerometer_clipping":0}
{"timestamp":828495932,"gyro_rad":[0.0069775297,0.0101940399,-0.0013457485],"gyro_integral_dt":4996,"accelerometer_timestamp_relative":0,"accelerometer_m_s2":[0.1344659477,0.0435576588,-9.7916707993],"accelerometer_integral_dt":4996,"accelerometer_clipping":0}
{"timestamp":828506638,"gyro_rad":[0.0064656036,0.0024771662,-0.0013799333],"gyro_integral_dt":4992,"accelerometer_timestamp_relative":0,"accelerometer_m_s2":[0.1041467637,0.0627512336,-9.8388471603],"accelerometer_integral_dt":4992,"accelerometer_clipping":0}
{"timestamp":828508380,"gyro_rad":[0.0031456759,0.0050359932,-0.0008541921],"gyro_integral_dt":4997,"accelerometer_timestamp_relative":0,"accelerometer_m_s2":[0.097468406,0.0845184401,-9.7811899185],"accelerometer_integral_dt":4997,"accelerometer_clipping":0}
{"timestamp":828507095,"gyro_rad":[0.0068911999,0.0097554754,0.0015197402],"gyro_integral_dt":4996,"accelerometer_timestamp_relative":0,"accelerometer_m_s2":[0.0596046858,0.1475125104,-9.7823514938],"accelerometer_integral_dt":4996,"accelerometer_clipping":0}
{"timestamp":828517742,"gyro_rad":[0.0035948993,-0.0007804443,-0.0014282543],"gyro_integral_dt":4997,"accelerometer_timestamp_relative":0,"accelerometer_m_s2":[0.0619839728,0.1005138531,-9.8085918427],"accelerometer_integral_dt":4997,"accelerometer_clipping":0}
{"timestamp":828527130,"gyro_rad":[0.0027949987,0.0139468657,0.0015605238],"gyro_integral_dt":4995,"accelerometer_timestamp_relative":0,"accelerometer_m_s2":[-0.0248069651,0.1037578657,-9.8223495483],"accelerometer_integral_dt":4995,"accelerometer_clipping":0}
{"timestamp":828530542,"gyro_rad":[0.0036704394,-0.0052810558,-0.0016816142],"gyro_integral_dt":4993,"accelerometer_timestamp_relative":0,"accelerometer_m_s2":[0.0187035985,0.0290181227,-9.8125696182],"accelerometer_integral_dt":4993,"accelerometer_clipping":0}
{"timestamp":828529785,"gyro_rad":[0.003734963,0.0115512209,0.0004719054],"gyro_integral_dt":4996,"accelerometer_timestamp_relative":0,"accelerometer_m_s2":[-0.04690722,0.0782888904,-9.7814693451],"accelerometer_integral_dt":4996,"accelerometer_clipping":0}
{"timestamp":828547305,"gyro_rad":[0.0058500478,0.0021070954,-0.0009412164],"gyro_integral_dt":4993,"accelerometer_timestamp_relative":0,"accelerometer_m_s2":[-0.0599719435,-0.0390936173,-9.7843103409],"accelerometer_integral_dt":4993,"accelerometer_clipping":0}
{"timestamp":828546382,"gyro_rad":[0.0001388409,0.0041132267,-0.000317582],"gyro_integral_dt":4998,"accelerometer_timestamp_relative":0,"accelerometer_m_s2":[-0.0180188045,-0.0154073676,-9.7597160339],"accelerometer_integral_dt":4998,"accelerometer_clipping":0}
{"timestamp":828556383,"gyro_rad":[0.0079481304,0.0047879182,0.0010447901],"gyro_integral_dt":4996,"accelerometer_timestamp_relative":0,"accelerometer_m_s2":[-0.0408424102,-0.033726804,-9.8498697281],"accelerometer_integral_dt":4996,"accelerometer_clipping":0}
{"timestamp":828555969,"gyro_rad":[0.0023419105,0.0009400902,-0.0010989743],"gyro_integral_dt":4998,"accelerometer_timestamp_relative":0,"accelerometer_m_s2":[0.0447244979,-0.0802862346,-9.7981300354],"accelerometer_integral_dt":4998,"accelerometer_clipping":0}
{"timestamp":828556706,"gyro_rad":[0.0084713148,0.010579777,0.00118777],"gyro_integral_dt":5001,"accelerometer_timestamp_relative":0,"accelerometer_m_s2":[0.0263164919,-0.0713139996,-9.7785634995],"accelerometer_integral_dt":5001,"accelerometer_clipping":0}
{"timestamp":828557023,"gyro_rad":[0.0050070696,-0.0031315978,-0.0026010319],"gyro_integral_dt":4989,"accelerometer_timestamp_relative":0,"accelerometer_m_s2":[0.0893490016,-0.0154829426,-9.7858943939],"accelerometer_integral_dt":4989,"accelerometer_clipping":0}
{"timestamp":828566205,"gyro_rad":[0.005414342,0.0123886708,0.0007001112],"gyro_integral_dt":5008,"accelerometer_timestamp_relative":0,"accelerometer_m_s2":[0.0753543079,-0.02771792,-9.7853097916],"accelerometer_integral_dt":5008,"accelerometer_clipping":0}
{"timestamp":828571227,"gyro_rad":[0.0047554295,-0.0017223201,-0.0017010743],"gyro_integral_dt":4986,"accelerometer_timestamp_relative":0,"accelerometer_m_s2":[0.0950299799,0.0486382805,-9.8193759918],"accelerometer_integral_dt":4986,"accelerometer_clipping":0}
{"timestamp":828587292,"gyro_rad":[0.0064590508,0.0102911657,-0.0007359925],"gyro_integral_dt":5006,"accelerometer_timestamp_relative":0,"accelerometer_m_s2":[0.103433989,0.0744341984,-9.8032875061],"accelerometer_integral_dt":5006,"accelerometer_clipping":0}
{"timestamp":828586755,"gyro_rad":[0.0057091815,0.0039743208,0.0003113463],"gyro_integral_dt":4981,"accelerometer_timestamp_relative":0,"accelerometer_m_s2":[0.120239377,0.0694740117,-9.753783226],"accelerometer_integral_dt":4981,"accelerometer_clipping":0}
{"timestamp":828587983,"gyro_rad":[0.0027252454,0.0042105517,-0.0011462397],"gyro_integral_dt":4996,"accelerometer_timestamp_relative":0,"accelerometer_m_s2":[0.0546373799,0.150731191,-9.795378685],"accelerometer_integral_dt":4996,"accelerometer_clipping":0}
{"timestamp":828596140,"gyro_rad":[0.0066725342,0.0083620511,0.001473047],"gyro_integral_dt":4993,"accelerometer_timestamp_relative":0,"accelerometer_m_s2":[0.0980809256,0.1084950268,-9.7881088257],"accelerometer_integral_dt":4993,"accelerometer_clipping":0}
{"timestamp":828608330,"gyro_rad":[0.0019229146,0.0006714747,-0.0012140475],"gyro_integral_dt":4996,"accelerometer_timestamp_relative":0,"accelerometer_m_s2":[-0.0226513762,0.1264092177,-9.8022546768],"accelerometer_integral_dt":4996,"accelerometer_clipping":0}
{"timestamp":828607684,"gyro_rad":[0.0041938308,0.0119090425,0.0024587312],"gyro_integral_dt":4996,"accelerometer_timestamp_relative":0,"accelerometer_m_s2":[0.0121815866,0.0451524146,-9.800110817],"accelerometer_integral_dt":4996,"accelerometer_clipping":0}
{"timestamp":828608431,"gyro_rad":[0.0034179804,-0.00396486,-0.0023925386],"gyro_integral_dt":4995,"accelerometer_timestamp_relative":0,"accelerometer_m_s2":[-0.0381078199,0.0807055682,-9.8108472824],"accelerometer_integral_dt":4995,"accelerometer_clipping":0}
{"timestamp":828615971,"gyro_rad":[0.0035250955,0.0123379696,0.0013895901],"gyro_integral_dt":4997,"accelerometer_timestamp_relative":0,"accelerometer_m_s2":[-0.0379596241,0.0019174223,-9.7903957367],"accelerometer_integral_dt":4997,"accelerometer_clipping":0}
{"timestamp":828627380,"gyro_rad":[0.0038882152,0.0008668573,0.0001475921],"gyro_integral_dt":4994,"accelerometer_timestamp_relative":0,"accelerometer_m_s2":[-0.0296561886,-0.0196967497,-9.782002449],"accelerometer_integral_dt":4994,"accelerometer_clipping":0}
{"timestamp":828626439,"gyro_rad":[0.0030050243,0.0028852988,-0.0011839865],"gyro_integral_dt":4996,"accelerometer_timestamp_relative":0,"accelerometer_m_s2":[-0.0264792051,-0.0280701555,-9.8574647903],"accelerometer_integral_dt":4996,"accelerometer_clipping":0}
{"timestamp":828625518,"gyro_rad":[0.005663909,0.0075156372,0.0012808812],"gyro_integral_dt":4991,"accelerometer_timestamp_relative":0,"accelerometer_m_s2":[0.0198901761,-0.0650799423,-9.8107719421],"accelerometer_integral_dt":4991,"accelerometer_clipping":0}
{"timestamp":828636164,"gyro_rad":[0.0015939005,-0.0011835576,-0.0016753089],"gyro_integral_dt":5001,"accelerometer_timestamp_relative":0,"accelerometer_m_s2":[0.0365688577,-0.0897923261,-9.7557992935],"accelerometer_integral_dt":5001,"accelerometer_clipping":0}
{"timestamp":828646318,"gyro_rad":[0.0072682882,0.0104981884,0.0007142894],"gyro_integral_dt":5003,"accelerometer_timestamp_relative":0,"accelerometer_m_s2":[0.0766154453,-0.0178892184,-9.7874250412],"accelerometer_integral_dt":5003,"accelerometer_clipping":0}
{"timestamp":828645407,"gyro_rad":[0.0042787283,-0.0036006102,-0.0023723366],"gyro_integral_dt":4998,"accelerometer_timestamp_relative":0,"accelerometer_m_s2":[0.0657023117,-0.0480688997,-9.8135910034],"accelerometer_integral_dt":4998,"accelerometer_clipping":0}
{"timestamp":828646553,"gyro_rad":[0.003987534,0.0113353832,-0.0001022838],"gyro_integral_dt":4989,"accelerometer_timestamp_relative":0,"accelerometer_m_s2":[0.1057101488,0.0362203047,-9.7997341156],"accelerometer_integral_dt":4989,"accelerometer_clipping":0}
{"timestamp":828654707,"gyro_rad":[0.0082390392,-0.0000136085,-0.0011890488],"gyro_integral_dt":4999,"accelerometer_timestamp_relative":0,"accelerometer_m_s2":[0.0727258995,0.0588029809,-9.8402576447],"accelerometer_integral_dt":4999,"accelerometer_clipping":0}
{"timestamp":828654535,"gyro_rad":[0.0029873087,0.0085890479,-0.0013740574],"gyro_integral_dt":5010,"accelerometer_timestamp_relative":0,"accelerometer_m_s2":[0.1405778229,0.0805616677,-9.7964982986],"accelerometer_integral_dt":5010,"accelerometer_clipping":0}
{"timestamp":828664709,"gyro_rad":[0.004657621,0.0049676695,0.0004206656],"gyro_integral_dt":4984,"accelerometer_timestamp_relative":0,"accelerometer_m_s2":[0.0525875203,0.1142911986,-9.7783651352],"accelerometer_integral_dt":4984,"accelerometer_clipping":0}
{"timestamp":828665804,"gyro_rad":[0.004312627,0.0020665585,-0.0017920528],"gyro_integral_dt":5001,"accelerometer_timestamp_relative":0,"accelerometer_m_s2":[0.114416033,0.1321293861,-9.8156719208],"accelerometer_integral_dt":5001,"accelerometer_clipping":0}
{"timestamp":828670532,"gyro_rad":[0.0039413734,0.0119762914,0.0015362663],"gyro_integral_dt":5005,"accelerometer_timestamp_relative":0,"accelerometer_m_s2":[-0.0113248331,0.1195534766,-9.8160982132],"accelerometer_integral_dt":5005,"accelerometer_clipping":0}
{"timestamp":828681580,"gyro_rad":[0.0029624572,-0.0026598428,-0.0015003522],"gyro_integral_dt":4994,"accelerometer_timestamp_relative":0,"accelerometer_m_s2":[-0.0002444499,0.0976141095,-9.8011884689],"accelerometer_integral_dt":4994,"accelerometer_clipping":0}
{"timestamp":828687002,"gyro_rad":[0.0026182898,0.0100078713,0.0016620037],"gyro_integral_dt":4994,"accelerometer_timestamp_relative":0,"accelerometer_m_s2":[-0.0285267662,0.0245105773,-9.7913236618],"accelerometer_integral_dt":4994,"accelerometer_clipping":0}
{"timestamp":828697973,"gyro_rad":[0.0074491967,0.0015159473,0.0001409163],"gyro_integral_dt":5000,"accelerometer_timestamp_relative":0,"accelerometer_m_s2":[-0.0370946191,0.0610307269,-9.8257284164],"accelerometer_integral_dt":5000,"accelerometer_clipping":0}
{"timestamp":828696229,"gyro_rad":[-0.0011074954,0.0072166347,0.0004361976],"gyro_integral_dt":5001,"accelerometer_timestamp_relative":0,"accelerometer_m_s2":[-0.0469639674,-0.0330121778,-9.7623186111],"accelerometer_integral_dt":5001,"accelerometer_clipping":0}
{"timestamp":828707474,"gyro_rad":[0.0061916295,-0.0009772673,0.0001725436],"gyro_integral_dt":5000,"accelerometer_timestamp_relative":0,"accelerometer_m_s2":[-0.0099167023,-0.0165430047,-9.8001976013],"accelerometer_integral_dt":5000,"accelerometer_clipping":0}
{"timestamp":828707076,"gyro_rad":[0.0001637486,0.0046579395,-0.0019241298],"gyro_integral_dt":4993,"accelerometer_timestamp_relative":0,"accelerometer_m_s2":[-0.0109635415,-0.0597667024,-9.8218946457],"accelerometer_integral_dt":4993,"accelerometer_clipping":0}
{"timestamp":828708142,"gyro_rad":[0.0075592804,0.0090852482,0.0007011296],"gyro_integral_dt":4995,"accelerometer_timestamp_relative":0,"accelerometer_m_s2":[0.0498565957,-0.0895046294,-9.7416219711],"accelerometer_integral_dt":4995,"accelerometer_clipping":0}
{"timestamp":828729455,"gyro_rad":[0.0018594546,-0.002077915,-0.0017694802],"gyro_integral_dt":5003,"accelerometer_timestamp_relative":0,"accelerometer_m_s2":[0.010469282,-0.0447455607,-9.7991714478],"accelerometer_integral_dt":5003,"accelerometer_clipping":0}
{"timestamp":828730374,"gyro_rad":[0.0091267582,0.0119311586,0.0003663925],"gyro_integral_dt":4990,"accelerometer_timestamp_relative":0,"accelerometer_m_s2":[0.0728582814,-0.0108363181,-9.8152122498],"accelerometer_integral_dt":4990,"accelerometer_clipping":0}
{"timestamp":828729208,"gyro_rad":[0.0029302463,-0.0020880392,0.0001070937],"gyro_integral_dt":5005,"accelerometer_timestamp_relative":0,"accelerometer_m_s2":[0.0783117637,-0.0244415477,-9.8147687912],"accelerometer_integral_dt":5005,"accelerometer_clipping":0}
{"timestamp":828731142,"gyro_rad":[0.0061532604,0.01117648,-0.0015406995],"gyro_integral_dt":4986,"accelerometer_timestamp_relative":0,"accelerometer_m_s2":[0.1235775501,0.0547022372,-9.7857561111],"accelerometer_integral_dt":4986,"accelerometer_clipping":0}
{"timestamp":828728989,"gyro_rad":[0.0065971212,0.0022960319,-0.0009929978],"gyro_integral_dt":5011,"accelerometer_timestamp_relative":0,"accelerometer_m_s2":[0.1113508791,0.0703058541,-9.8151550293],"accelerometer_integral_dt":5011,"accelerometer_clipping":0}
{"timestamp":828740150,"gyro_rad":[0.001081272,0.0041618384,-0.0003216658],"gyro_integral_dt":4986,"accelerometer_timestamp_relative":0,"accelerometer_m_s2":[0.1005151868,0.0717313886,-9.7731542587],"accelerometer_integral_dt":4986,"accelerometer_clipping":0}
{"timestamp":828745055,"gyro_rad":[0.0081378557,0.0083911233,0.001596119],"gyro_integral_dt":4997,"accelerometer_timestamp_relative":0,"accelerometer_m_s2":[0.0590355508,0.1546572745,-9.81270504],"accelerometer_integral_dt":4997,"accelerometer_clipping":0}
{"timestamp":828757432,"gyro_rad":[0.0028870797,-0.0009696849,-0.00194947],"gyro_integral_dt":5016,"accelerometer_timestamp_relative":0,"accelerometer_m_s2":[0.0792785659,0.0755292773,-9.7995052338],"accelerometer_integral_dt":5016,"accelerometer_clipping":0}
{"timestamp":828757268,"gyro_rad":[0.0033799873,0.0144538926,0.0015495806],"gyro_integral_dt":4983,"accelerometer_timestamp_relative":0,"accelerometer_m_s2":[-0.0380923524,0.1489124298,-9.8175554276],"accelerometer_integral_dt":4983,"accelerometer_clipping":0}
{"timestamp":828760994,"gyro_rad":[0.0048466995,-0.0054234425,-0.002077172],"gyro_integral_dt":5000,"accelerometer_timestamp_relative":0,"accelerometer_m_s2":[0.0157416426,-0.0024926197,-9.7951488495],"accelerometer_integral_dt":5000,"accelerometer_clipping":0}
{"timestamp":828760182,"gyro_rad":[0.0032258381,0.0121191852,0.0006188835],"gyro_integral_dt":4995,"accelerometer_timestamp_relative":0,"accelerometer_m_s2":[-0.0711027235,0.1188983321,-9.803030014],"accelerometer_integral_dt":4995,"accelerometer_clipping":0}
{"timestamp":828777179,"gyro_rad":[0.0052109323,0.0013721208,-0.0000821541],"gyro_integral_dt":5003,"accelerometer_timestamp_relative":0,"accelerometer_m_s2":[-0.0401989557,-0.0763177872,-9.8053665161],"accelerometer_integral_dt":5003,"accelerometer_clipping":0}
{"timestamp":828776549,"gyro_rad":[0.0001747264,0.0042750374,-0.0000186637],"gyro_integral_dt":4990,"accelerometer_timestamp_relative":0,"accelerometer_m_s2":[-0.0149573572,0.0181126688,-9.7749128342],"accelerometer_integral_dt":4990,"accelerometer_clipping":0}
{"timestamp":828777347,"gyro_rad":[0.0084880525,0.0051290267,-0.0004774666],"gyro_integral_dt":5004,"accelerometer_timestamp_relative":0,"accelerometer_m_s2":[-0.0333508849,-0.079491362,-9.8539514542],"accelerometer_integral_dt":5004,"accelerometer_clipping":0}
{"timestamp":828786466,"gyro_rad":[0.0022699023,0.0037082431,-0.0015517116],"gyro_integral_dt":4995,"accelerometer_timestamp_relative":0,"accelerometer_m_s2":[0.0394463614,-0.0510801561,-9.748128891],"accelerometer_integral_dt":4995,"accelerometer_clipping":0}
{"timestamp":828794231,"gyro_rad":[0.0083170347,0.0067661908,0.0016683962],"gyro_integral_dt":5013,"accelerometer_timestamp_relative":0,"accelerometer_m_s2":[0.0167766642,-0.090578869,-9.8041238785],"accelerometer_integral_dt":5013,"accelerometer_clipping":0}
{"timestamp":828795178,"gyro_rad":[0.0047119153,-0.003605807,-0.0010635189],"gyro_integral_dt":4985,"accelerometer_timestamp_relative":0,"accelerometer_m_s2":[0.0954465345,0.0071437792,-9.7862911224],"accelerometer_integral_dt":4985,"accelerometer_clipping":0}
{"timestamp":828796148,"gyro_rad":[0.0046561989,0.0132479221,0.0007708343],"gyro_integral_dt":4998,"accelerometer_timestamp_relative":0,"accelerometer_m_s2":[0.0875752568,-0.0524994656,-9.8178873062],"accelerometer_integral_dt":4998,"accelerometer_clipping":0}
{"timestamp":828807501,"gyro_rad":[0.0066563743,-0.0019330406,-0.0015834185],"gyro_integral_dt":4998,"accelerometer_timestamp_relative":0,"accelerometer_m_s2":[0.103843689,0.065929845,-9.8073396683],"accelerometer_integral_dt":4998,"accelerometer_clipping":0}
{"timestamp":828808222,"gyro_rad":[0.0058495225,0.0096592018,0.0004205518],"gyro_integral_dt":5001,"accelerometer_timestamp_relative":0,"accelerometer_m_s2":[0.1104735807,0.0422045775,-9.7926692963],"accelerometer_integral_dt":5001,"accelerometer_clipping":0}
{"timestamp":828815665,"gyro_rad":[0.0040431614,0.0011150751,0.0002649738],"gyro_integral_dt":4996,"accelerometer_timestamp_relative":0,"accelerometer_m_s2":[0.1359507143,0.1109550521,-9.8045854568],"accelerometer_integral_dt":4996,"accelerometer_clipping":0}
{"timestamp":828815199,"gyro_rad":[0.0026177801,0.0055114236,-0.002401134],"gyro_integral_dt":4996,"accelerometer_timestamp_relative":0,"accelerometer_m_s2":[0.0587188527,0.1256640404,-9.7951030731],"accelerometer_integral_dt":4996,"accelerometer_clipping":0}
{"timestamp":828824699,"gyro_rad":[0.0082238717,0.0066570612,0.0009036848],"gyro_integral_dt":5000,"accelerometer_timestamp_relative":0,"accelerometer_m_s2":[0.092106536,0.1176165044,-9.7858505249],"accelerometer_integral_dt":5000,"accelerometer_clipping":0}
{"timestamp":828826842,"gyro_rad":[-0.00019311,0.0009608281,-0.0018346745],"gyro_integral_dt":4997,"accelerometer_timestamp_relative":0,"accelerometer_m_s2":[-0.0322086476,0.1373843402,-9.80235672],"accelerometer_integral_dt":4997,"accelerometer_clipping":0}
{"timestamp":828830332,"gyro_rad":[0.0045424532,0.0116756884,0.0009759227],"gyro_integral_dt":4999,"accelerometer_timestamp_relative":0,"accelerometer_m_s2":[0.0070147049,0.0605215468,-9.7707147598],"accelerometer_integral_dt":4999,"accelerometer_clipping":0}
{"timestamp":828836848,"gyro_rad":[0.00312619,-0.0052729375,-0.001276426],"gyro_integral_dt":5000,"accelerometer_timestamp_relative":0,"accelerometer_m_s2":[-0.0615997352,0.0363328904,-9.8315181732],"accelerometer_integral_dt":5000,"accelerometer_clipping":0}
{"timestamp":828840760,"gyro_rad":[0.005294906,0.014641067,0.0012965704],"gyro_integral_dt":5001,"accelerometer_timestamp_relative":0,"accelerometer_m_s2":[-0.0407948345,0.0302968714,-9.8063001633],"accelerometer_integral_dt":5001,"accelerometer_clipping":0}
{"timestamp":828846091,"gyro_rad":[0.0048858845,-0.0017540869,0.0010546756],"gyro_integral_dt":4995,"accelerometer_timestamp_relative":0,"accelerometer_m_s2":[-0.0318143703,-0.0387659445,-9.7664079666],"accelerometer_integral_dt":4995,"accelerometer_clipping":0}
{"timestamp":828850059,"gyro_rad":[0.0034379067,0.0047601047,-0.0002681116],"gyro_integral_dt":4997,"accelerometer_timestamp_relative":0,"accelerometer_m_s2":[-0.0340637155,-0.0086792801,-9.8411455154],"accelerometer_integral_dt":4997,"accelerometer_clipping":0}
{"timestamp":828855443,"gyro_rad":[0.0054470957,0.0077565284,0.0004684325],"gyro_integral_dt":4995,"accelerometer_timestamp_relative":0,"accelerometer_m_s2":[0.013735299,-0.0966684222,-9.8179779053],"accelerometer_integral_dt":4995,"accelerometer_clipping":0}
{"timestamp":828859895,"gyro_rad":[0.0030011367,-0.0016594556,-0.0018337604],"gyro_integral_dt":5002,"accelerometer_timestamp_relative":0,"accelerometer_m_s2":[0.0333025418,-0.0671129227,-9.7666292191],"accelerometer_integral_dt":5002,"accelerometer_clipping":0}
{"timestamp":828867134,"gyro_rad":[0.0076196929,0.0110045597,0.0016837862],"gyro_integral_dt":4999,"accelerometer_timestamp_relative":0,"accelerometer_m_s2":[0.0528839491,-0.0252058916,-9.7902269363],"accelerometer_integral_dt":4999,"accelerometer_clipping":0}
{"timestamp":828870091,"gyro_rad":[0.0032666002,-0.0042987973,-0.0025897429],"gyro_integral_dt":4994,"accelerometer_timestamp_relative":0,"accelerometer_m_s2":[0.0876690969,-0.0341453142,-9.8005371094],"accelerometer_integral_dt":4994,"accelerometer_clipping":0}
{"timestamp":828876531,"gyro_rad":[0.0039639673,0.013268291,0.0008790172],"gyro_integral_dt":5003,"accelerometer_timestamp_relative":0,"accelerometer_m_s2":[0.1042123586,-0.0051859026,-9.8001718521],"accelerometer_integral_dt":5003,"accelerometer_clipping":0}
{"timestamp":828894927,"gyro_rad":[0.0074420003,-0.0005263311,-0.0010737159],"gyro_integral_dt":4996,"accelerometer_timestamp_relative":0,"accelerometer_m_s2":[0.101407066,0.049488347,-9.8241634369],"accelerometer_integral_dt":4996,"accelerometer_clipping":0}
{"timestamp":828896114,"gyro_rad":[0.0042500491,0.0090096761,0.0001107138],"gyro_integral_dt":4995,"accelerometer_timestamp_relative":0,"accelerometer_m_s2":[0.1248018816,0.0614370555,-9.8006381989],"accelerometer_integral_dt":4995,"accelerometer_clipping":0}
{"timestamp":828896296,"gyro_rad":[0.0045011318,0.0024687485,0.0010236894],"gyro_integral_dt":5005,"accelerometer_timestamp_relative":0,"accelerometer_m_s2":[0.0514499135,0.1138674989,-9.7993392944],"accelerometer_integral_dt":5005,"accelerometer_clipping":0}
{"timestamp":828897048,"gyro_rad":[0.0032564574,0.0033003944,-0.0005902834],"gyro_integral_dt":4992,"accelerometer_timestamp_relative":0,"accelerometer_m_s2":[0.0849583372,0.1390646249,-9.7953691483],"accelerometer_integral_dt":4992,"accelerometer_clipping":0}
{"timestamp":828906645,"gyro_rad":[0.0067654341,0.0097277993,0.0007812788],"gyro_integral_dt":5003,"accelerometer_timestamp_relative":0,"accelerometer_m_s2":[0.0215840656,0.0951337814,-9.7967643738],"accelerometer_integral_dt":5003,"accelerometer_clipping":0}
{"timestamp":828907841,"gyro_rad":[0.0024314653,-0.0006351196,-0.001621326],"gyro_integral_dt":4999,"accelerometer_timestamp_relative":0,"accelerometer_m_s2":[-0.001628923,0.0805887952,-9.8132371902],"accelerometer_integral_dt":4999,"accelerometer_clipping":0}
{"timestamp":828908244,"gyro_rad":[0.0024883435,0.010981855,-0.000031347],"gyro_integral_dt":5003,"accelerometer_timestamp_relative":0,"accelerometer_m_s2":[0.007599622,0.0447744168,-9.7951412201],"accelerometer_integral_dt":5003,"accelerometer_clipping":0}
{"timestamp":828921224,"gyro_rad":[0.0056008496,-0.0020281142,-0.0003229421],"gyro_integral_dt":4995,"accelerometer_timestamp_relative":0,"accelerometer_m_s2":[-0.0507035926,0.0654737428,-9.7965784073],"accelerometer_integral_dt":4995,"accelerometer_clipping":0}
{"timestamp":828920430,"gyro_rad":[0.0025492883,0.0104514444,0.0008704268],"gyro_integral_dt":4991,"accelerometer_timestamp_relative":0,"accelerometer_m_s2":[-0.0473919921,-0.0448024347,-9.7642278671],"accelerometer_integral_dt":4991,"accelerometer_clipping":0}
{"timestamp":828927361,"gyro_rad":[0.0053357249,-0.0014046592,-0.0000636105],"gyro_integral_dt":5004,"accelerometer_timestamp_relative":0,"accelerometer_m_s2":[-0.0264262501,-0.005183734,-9.7869338989],"accelerometer_integral_dt":5004,"accelerometer_clipping":0}
{"timestamp":828936259,"gyro_rad":[0.0017996307,0.0060134563,-0.0020145981],"gyro_integral_dt":4997,"accelerometer_timestamp_relative":0,"accelerometer_m_s2":[-0.0218821373,-0.059233848,-9.8349437714],"accelerometer_integral_dt":4997,"accelerometer_clipping":0}
{"timestamp":828937067,"gyro_rad":[0.0073543638,0.0073174946,0.0011734645],"gyro_integral_dt":4997,"accelerometer_timestamp_relative":0,"accelerometer_m_s2":[0.0247722063,-0.0829531103,-9.779378891],"accelerometer_integral_dt":4997,"accelerometer_clipping":0}
{"timestamp":828945197,"gyro_rad":[0.0034690264,-0.0032443714,-0.0027218794],"gyro_integral_dt":4995,"accelerometer_timestamp_relative":0,"accelerometer_m_s2":[0.0486400202,-0.0367887467,-9.7630710602],"accelerometer_integral_dt":4995,"accelerometer_clipping":0}
{"timestamp":828948181,"gyro_rad":[0.0072780391,0.0093642483,0.0007630971],"gyro_integral_dt":5002,"accelerometer_timestamp_relative":0,"accelerometer_m_s2":[0.0675343648,-0.0318046361,-9.8194036484],"accelerometer_integral_dt":5002,"accelerometer_clipping":0}
{"timestamp":828950225,"gyro_rad":[0.0021680719,-0.0021024758,-0.0025638533],"gyro_integral_dt":4995,"accelerometer_timestamp_relative":0,"accelerometer_m_s2":[0.109278895,-0.020284839,-9.8098163605],"accelerometer_integral_dt":4995,"accelerometer_clipping":0}
{"timestamp":828960944,"gyro_rad":[0.0069310558,0.0110119395,0.0008549162],"gyro_integral_dt":5004,"accelerometer_timestamp_relative":0,"accelerometer_m_s2":[0.0957256332,0.0607401803,-9.7956161499],"accelerometer_integral_dt":5004,"accelerometer_clipping":0}
{"timestamp":828960344,"gyro_rad":[0.0079436284,0.0009184161,-0.0012833874],"gyro_integral_dt":4991,"accelerometer_timestamp_relative":0,"accelerometer_m_s2":[0.0948844105,0.0567752533,-9.7824516296],"accelerometer_integral_dt":4991,"accelerometer_clipping":0}
{"timestamp":828965372,"gyro_rad":[0.0004553773,0.0075635938,-0.000803398],"gyro_integral_dt":5007,"accelerometer_timestamp_relative":0,"accelerometer_m_s2":[0.0862094313,0.0807797536,-9.7784948349],"accelerometer_integral_dt":5007,"accelerometer_clipping":0}
{"timestamp":828970918,"gyro_rad":[0.0089511815,0.0064844871,-0.0011451667],"gyro_integral_dt":4991,"accelerometer_timestamp_relative":0,"accelerometer_m_s2":[0.0764318854,0.1342572123,-9.8208713531],"accelerometer_integral_dt":4991,"accelerometer_clipping":0}
{"timestamp":828976654,"gyro_rad":[0.0030405491,0.0001581289,-0.0022238058],"gyro_integral_dt":5009,"accelerometer_timestamp_relative":0,"accelerometer_m_s2":[0.0608335063,0.0625784099,-9.8206157684],"accelerometer_integral_dt":5009,"accelerometer_clipping":0}
{"timestamp":828984557,"gyro_rad":[0.0037092036,0.0142016467,0.0013193112],"gyro_integral_dt":4993,"accelerometer_timestamp_relative":0,"accelerometer_m_s2":[-0.0301972274,0.1338508278,-9.8028583527],"accelerometer_integral_dt":4993,"accelerometer_clipping":0}
{"timestamp":828985025,"gyro_rad":[0.0012674507,-0.0047429004,-0.000721795],"gyro_integral_dt":4997,"accelerometer_timestamp_relative":0,"accelerometer_m_s2":[0.0094476864,0.0239649378,-9.7657365799],"accelerometer_integral_dt":4997,"accelerometer_clipping":0}
{"timestamp":828986578,"gyro_rad":[0.0038619288,0.0129993884,0.000674721],"gyro_integral_dt":4999,"accelerometer_timestamp_relative":0,"accelerometer_m_s2":[-0.0381506495,0.0862454027,-9.8079214096],"accelerometer_integral_dt":4999,"accelerometer_clipping":0}
{"timestamp":828996524,"gyro_rad":[0.005483273,0.0010233595,-0.0010851598],"gyro_integral_dt":5002,"accelerometer_timestamp_relative":0,"accelerometer_m_s2":[-0.04587752,-0.0294445287,-9.7972097397],"accelerometer_integral_dt":5002,"accelerometer_clipping":0}
{"timestamp":829005447,"gyro_rad":[0.0005222585,0.0067067165,-0.0004167841],"gyro_integral_dt":4991,"accelerometer_timestamp_relative":0,"accelerometer_m_s2":[0.0089559816,-0.0105570043,-9.7629013062],"accelerometer_integral_dt":4991,"accelerometer_clipping":0}
{"timestamp":829006583,"gyro_rad":[0.0045445324,0.0017808763,0.0007365519],"gyro_integral_dt":5004,"accelerometer_timestamp_relative":0,"accelerometer_m_s2":[-0.0549618229,-0.0630118549,-9.8491153717],"accelerometer_integral_dt":5004,"accelerometer_clipping":0}
{"timestamp":829006930,"gyro_rad":[0.0034630694,0.0038927156,-0.0013942309],"gyro_integral_dt":4999,"accelerometer_timestamp_relative":0,"accelerometer_m_s2":[0.0237497166,-0.077574499,-9.7635803223],"accelerometer_integral_dt":4999,"accelerometer_clipping":0}
{"timestamp":829016443,"gyro_rad":[0.0062595145,0.0070798998,0.0010339166],"gyro_integral_dt":4994,"accelerometer_timestamp_relative":0,"accelerometer_m_s2":[0.0074976226,-0.0700467974,-9.7846984863],"accelerometer_integral_dt":4994,"accelerometer_clipping":0}
{"timestamp":829024736,"gyro_rad":[0.004396216,-0.0031464689,-0.001617652],"gyro_integral_dt":5000,"accelerometer_timestamp_relative":0,"accelerometer_m_s2":[0.0948353782,0.0126041556,-9.8010110855],"accelerometer_integral_dt":5000,"accelerometer_clipping":0}
{"timestamp":829025462,"gyro_rad":[0.0050425567,0.01223615,0.0009615179],"gyro_integral_dt":4995,"accelerometer_timestamp_relative":0,"accelerometer_m_s2":[0.0675269514,-0.0496789552,-9.8392333984],"accelerometer_integral_dt":4995,"accelerometer_clipping":0}
{"timestamp":829026379,"gyro_rad":[0.0070587932,-0.0024167956,-0.0018215569],"gyro_integral_dt":4792,"accelerometer_timestamp_relative":0,"accelerometer_m_s2":[0.1153164431,0.0501997024,-9.7694864273],"accelerometer_integral_dt":4792,"accelerometer_clipping":0}
{"timestamp":829039663,"gyro_rad":[0.0035650856,0.0093630077,-0.0011437306],"gyro_integral_dt":4991,"accelerometer_timestamp_relative":0,"accelerometer_m_s2":[0.0875739977,0.0388999023,-9.8020620346],"accelerometer_integral_dt":4991,"accelerometer_clipping":0}
{"timestamp":829040037,"gyro_rad":[0.0072251344,-0.0000085776,-0.001685077],"gyro_integral_dt":4999,"accelerometer_timestamp_relative":0,"accelerometer_m_s2":[0.1559461653,0.0827589631,-9.7727928162],"accelerometer_integral_dt":4999,"accelerometer_clipping":0}
{"timestamp":829045446,"gyro_rad":[0.0004977454,0.0063027246,-0.0020067941],"gyro_integral_dt":4993,"accelerometer_timestamp_relative":0,"accelerometer_m_s2":[0.0543501712,0.1188583001,-9.8244934082],"accelerometer_integral_dt":4993,"accelerometer_clipping":0}
{"timestamp":829052400,"gyro_rad":[0.0102026761,0.0056822444,0.0006478953],"gyro_integral_dt":4995,"accelerometer_timestamp_relative":0,"accelerometer_m_s2":[0.1113230437,0.1155700907,-9.792473793],"accelerometer_integral_dt":4995,"accelerometer_clipping":0}
{"timestamp":829060460,"gyro_rad":[-0.0017420033,0.0009819623,-0.0026270824],"gyro_integral_dt":4996,"accelerometer_timestamp_relative":0,"accelerometer_m_s2":[-0.0518391989,0.099393405,-9.8114156723],"accelerometer_integral_dt":4996,"accelerometer_clipping":0}
{"timestamp":829070951,"gyro_rad":[0.0079758,0.0111070154,0.0010644228],"gyro_integral_dt":4995,"accelerometer_timestamp_relative":0,"accelerometer_m_s2":[0.0406798273,0.0825085863,-9.7816286087],"accelerometer_integral_dt":4995,"accelerometer_clipping":0}
{"timestamp":829071002,"gyro_rad":[0.0006936678,-0.005416166,-0.0027449736],"gyro_integral_dt":4997,"accelerometer_timestamp_relative":0,"accelerometer_m_s2":[-0.0472048111,0.0316458195,-9.7967195511],"accelerometer_integral_dt":4997,"accelerometer_clipping":0}
{"timestamp":829075838,"gyro_rad":[0.0071570403,0.0140981022,-0.0005680791],"gyro_integral_dt":4991,"accelerometer_timestamp_relative":0,"accelerometer_m_s2":[-0.0215358362,0.0477733314,-9.8189821243],"accelerometer_integral_dt":4991,"accelerometer_clipping":0}
{"timestamp":829079885,"gyro_rad":[0.0012677457,-0.001640389,-0.0001440739],"gyro_integral_dt":4999,"accelerometer_timestamp_relative":0,"accelerometer_m_s2":[-0.0328027233,-0.0677404851,-9.7485799789],"accelerometer_integral_dt":4999,"accelerometer_clipping":0}
{"timestamp":829082551,"gyro_rad":[0.0026763387,0.00459531,-0.0007175173],"gyro_integral_dt":4994,"accelerometer_timestamp_relative":0,"accelerometer_m_s2":[-0.0363356806,-0.0070850323,-9.8164396286],"accelerometer_integral_dt":4994,"accelerometer_clipping":0}
{"timestamp":829090165,"gyro_rad":[0.0055902139,0.00651058,0.001111805],"gyro_integral_dt":4998,"accelerometer_timestamp_relative":0,"accelerometer_m_s2":[-0.0240827445,-0.0814020783,-9.8204441071],"accelerometer_integral_dt":4998,"accelerometer_clipping":0}
{"timestamp":829091707,"gyro_rad":[0.0032801141,-0.0001409556,-0.0002638533],"gyro_integral_dt":4994,"accelerometer_timestamp_relative":0,"accelerometer_m_s2":[0.0188254677,-0.089051418,-9.77257061],"accelerometer_integral_dt":4994,"accelerometer_clipping":0}
{"timestamp":829100097,"gyro_rad":[0.0057250331,0.0091018705,0.0000962312],"gyro_integral_dt":4992,"accelerometer_timestamp_relative":0,"accelerometer_m_s2":[0.0610636733,-0.0315880552,-9.8069095612],"accelerometer_integral_dt":4992,"accelerometer_clipping":0}
{"timestamp":829100800,"gyro_rad":[0.0057343296,-0.0032125118,-0.0013182528],"gyro_integral_dt":4999,"accelerometer_timestamp_relative":0,"accelerometer_m_s2":[0.0817692205,-0.0557602793,-9.7875347137],"accelerometer_integral_dt":4999,"accelerometer_clipping":0}
{"timestamp":829109946,"gyro_rad":[0.0031455245,0.0140754515,0.0002968938],"gyro_integral_dt":4995,"accelerometer_timestamp_relative":0,"accelerometer_m_s2":[0.0929517448,0.0153433327,-9.8238048553],"accelerometer_integral_dt":4995,"accelerometer_clipping":0}
{"timestamp":829121897,"gyro_rad":[0.0085345116,-0.0015202084,-0.0008860652],"gyro_integral_dt":4995,"accelerometer_timestamp_relative":0,"accelerometer_m_s2":[0.1009417176,0.0549683608,-9.7865886688],"accelerometer_integral_dt":4995,"accelerometer_clipping":0}
{"timestamp":829120453,"gyro_rad":[0.0008715259,0.0109663634,0.0001707828],"gyro_integral_dt":4996,"accelerometer_timestamp_relative":0,"accelerometer_m_s2":[0.1297717243,0.0625705048,-9.829120636],"accelerometer_integral_dt":4996,"accelerometer_clipping":0}
{"timestamp":829132182,"gyro_rad":[0.0061768908,0.0030265702,0.000164021],"gyro_integral_dt":4995,"accelerometer_timestamp_relative":0,"accelerometer_m_s2":[0.0821590796,0.1033103019,-9.7935590744],"accelerometer_integral_dt":4995,"accelerometer_clipping":0}
{"timestamp":829132274,"gyro_rad":[0.0027969191,0.0044206409,-0.0011865435],"gyro_integral_dt":4995,"accelerometer_timestamp_relative":0,"accelerometer_m_s2":[0.0946395695,0.1330805719,-9.7678937912],"accelerometer_integral_dt":4995,"accelerometer_clipping":0}
{"timestamp":829133253,"gyro_rad":[0.0059756418,0.0072788601,-0.0001804296],"gyro_integral_dt":4996,"accelerometer_timestamp_relative":0,"accelerometer_m_s2":[0.009430781,0.0789977759,-9.8041439056],"accelerometer_integral_dt":4996,"accelerometer_clipping":0}
{"timestamp":829139992,"gyro_rad":[-0.000249257,0.0017921308,-0.0025803288],"gyro_integral_dt":4995,"accelerometer_timestamp_relative":0,"accelerometer_m_s2":[-0.020121837,0.1217804253,-9.8170118332],"accelerometer_integral_dt":4995,"accelerometer_clipping":0}
{"timestamp":829143040,"gyro_rad":[0.0039615203,0.0085736224,0.0001242993],"gyro_integral_dt":4995,"accelerometer_timestamp_relative":0,"accelerometer_m_s2":[-0.001464617,-0.0043008225,-9.8007259369],"accelerometer_integral_dt":4995,"accelerometer_clipping":0}
{"timestamp":829151842,"gyro_rad":[0.0041765734,-0.0013959309,-0.0028648379],"gyro_integral_dt":4994,"accelerometer_timestamp_relative":0,"accelerometer_m_s2":[-0.0419302434,0.0757224783,-9.8285703659],"accelerometer_integral_dt":4994,"accelerometer_clipping":0}
{"timestamp":829152530,"gyro_rad":[0.0055234139,0.0108537776,-0.000231531],"gyro_integral_dt":5000,"accelerometer_timestamp_relative":0,"accelerometer_m_s2":[-0.0379426777,-0.0651603416,-9.7573900223],"accelerometer_integral_dt":5000,"accelerometer_clipping":0}
{"timestamp":829161025,"gyro_rad":[0.0036279925,-0.0030042941,0.0001994375],"gyro_integral_dt":4993,"accelerometer_timestamp_relative":0,"accelerometer_m_s2":[-0.0094704237,-0.0169643778,-9.8004417419],"accelerometer_integral_dt":4993,"accelerometer_clipping":0}
{"timestamp":829161512,"gyro_rad":[0.0025600994,0.0088621266,-0.0018492638],"gyro_integral_dt":4993,"accelerometer_timestamp_relative":0,"accelerometer_m_s2":[-0.0609321035,-0.0640306696,-9.8466377258],"accelerometer_integral_dt":4993,"accelerometer_clipping":0}
{"timestamp":829170000,"gyro_rad":[0.007813707,0.005226735,0.0002431035],"gyro_integral_dt":4998,"accelerometer_timestamp_relative":0,"accelerometer_m_s2":[0.0283665601,-0.0866645053,-9.7344741821],"accelerometer_integral_dt":4998,"accelerometer_clipping":0}
{"timestamp":829170919,"gyro_rad":[0.0028012113,0.0002405459,-0.001737371],"gyro_integral_dt":4995,"accelerometer_timestamp_relative":0,"accelerometer_m_s2":[-0.0013547507,-0.0463459156,-9.8205890656],"accelerometer_integral_dt":4995,"accelerometer_clipping":0}
{"timestamp":829180765,"gyro_rad":[0.0075329095,0.0117932204,0.0019360317],"gyro_integral_dt":4997,"accelerometer_timestamp_relative":0,"accelerometer_m_s2":[0.1197540909,-0.0153240189,-9.7873382568],"accelerometer_integral_dt":4997,"accelerometer_clipping":0}
{"timestamp":829179344,"gyro_rad":[0.0031273828,-0.0023089978,-0.0027196389],"gyro_integral_dt":4995,"accelerometer_timestamp_relative":0,"accelerometer_m_s2":[0.0736733228,-0.0182527509,-9.7952098846],"accelerometer_integral_dt":4995,"accelerometer_clipping":0}
{"timestamp":829184925,"gyro_rad":[0.0073528085,0.0114624714,0.000089167],"gyro_integral_dt":5003,"accelerometer_timestamp_relative":0,"accelerometer_m_s2":[0.1151933149,0.0907267928,-9.8190431595],"accelerometer_integral_dt":5003,"accelerometer_clipping":0}
{"timestamp":829192125,"gyro_rad":[0.0071691331,0.0001146461,-0.001843488],"gyro_integral_dt":4987,"accelerometer_timestamp_relative":0,"accelerometer_m_s2":[0.1116060913,0.0631523728,-9.7998762131],"accelerometer_integral_dt":4987,"accelerometer_clipping":0}
{"timestamp":829200748,"gyro_rad":[0.0014042273,0.0070613422,-0.0011454558],"gyro_integral_dt":4998,"accelerometer_timestamp_relative":0,"accelerometer_m_s2":[0.1076248586,0.0606872439,-9.7870988846],"accelerometer_integral_dt":4998,"accelerometer_clipping":0}
{"timestamp":829200623,"gyro_rad":[0.0069694901,0.0056102443,0.000252679],"gyro_integral_dt":4991,"accelerometer_timestamp_relative":0,"accelerometer_m_s2":[0.0543845631,0.1475917846,-9.7968034744],"accelerometer_integral_dt":4991,"accelerometer_clipping":0}
{"timestamp":829206650,"gyro_rad":[0.0036720517,-0.000259757,-0.0032038235],"gyro_integral_dt":4997,"accelerometer_timestamp_relative":0,"accelerometer_m_s2":[0.072984688,0.0694319755,-9.8086557388],"accelerometer_integral_dt":4997,"accelerometer_clipping":0}
{"timestamp":829231392,"gyro_rad":[0.0045391098,0.0112668509,0.0011303612],"gyro_integral_dt":4995,"accelerometer_timestamp_relative":0,"accelerometer_m_s2":[-0.0602399409,0.1348193884,-9.8063488007],"accelerometer_integral_dt":4995,"accelerometer_clipping":0}
{"timestamp":829228954,"gyro_rad":[0.0014779953,-0.0047504096,-0.0032957138],"gyro_integral_dt":4996,"accelerometer_timestamp_relative":0,"accelerometer_m_s2":[0.0294313319,0.0269964971,-9.7886390686],"accelerometer_integral_dt":4996,"accelerometer_clipping":0}
{"timestamp":829231266,"gyro_rad":[0.0053314865,0.0117961867,0.0002987809],"gyro_integral_dt":4995,"accelerometer_timestamp_relative":0,"accelerometer_m_s2":[-0.0397939831,0.0875405967,-9.8306283951],"accelerometer_integral_dt":4995,"accelerometer_clipping":0}
{"timestamp":829230175,"gyro_rad":[0.0046985885,-0.002166826,-0.001199094],"gyro_integral_dt":4996,"accelerometer_timestamp_relative":0,"accelerometer_m_s2":[-0.0402491167,-0.046323888,-9.780462265],"accelerometer_integral_dt":4996,"accelerometer_clipping":0}
{"timestamp":829230617,"gyro_rad":[0.0015067811,0.0073411041,-0.0013687531],"gyro_integral_dt":4996,"accelerometer_timestamp_relative":0,"accelerometer_m_s2":[-0.0384542756,-0.0096633164,-9.7529621124],"accelerometer_integral_dt":4996,"accelerometer_clipping":0}
{"timestamp":829239035,"gyro_rad":[0.0068019307,0.0008958599,-0.0003612057],"gyro_integral_dt":4995,"accelerometer_timestamp_relative":0,"accelerometer_m_s2":[-0.0471460633,-0.0612640902,-9.847653389],"accelerometer_integral_dt":4995,"accelerometer_clipping":0}
{"timestamp":829240467,"gyro_rad":[0.002620203,0.0045960033,-0.001897132],"gyro_integral_dt":4996,"accelerometer_timestamp_relative":0,"accelerometer_m_s2":[0.0147314677,-0.0602100864,-9.7958240509],"accelerometer_integral_dt":4996,"accelerometer_clipping":0}
{"timestamp":829251288,"gyro_rad":[0.0079952339,0.0069132219,0.0009972274],"gyro_integral_dt":4996,"accelerometer_timestamp_relative":0,"accelerometer_m_s2":[0.0273907818,-0.0964986607,-9.7669200897],"accelerometer_integral_dt":4996,"accelerometer_clipping":0}
{"timestamp":829252261,"gyro_rad":[0.0035592807,-0.0009499975,-0.0028798925],"gyro_integral_dt":4997,"accelerometer_timestamp_relative":0,"accelerometer_m_s2":[0.0886856169,0.0174139533,-9.8206014633],"accelerometer_integral_dt":4997,"accelerometer_clipping":0}
{"timestamp":829259475,"gyro_rad":[0.0049522822,0.0130705135,0.0017325317],"gyro_integral_dt":4994,"accelerometer_timestamp_relative":0,"accelerometer_m_s2":[0.0774978399,-0.0471493416,-9.8026990891],"accelerometer_integral_dt":4994,"accelerometer_clipping":0}
{"timestamp":829259966,"gyro_rad":[0.0037360815,-0.0024744361,-0.0031430929],"gyro_integral_dt":4996,"accelerometer_timestamp_relative":0,"accelerometer_m_s2":[0.1316651106,0.0700622201,-9.7728824615],"accelerometer_integral_dt":4996,"accelerometer_clipping":0}
{"timestamp":829269783,"gyro_rad":[0.0087491795,0.0115870899,0.0000714422],"gyro_integral_dt":4994,"accelerometer_timestamp_relative":0,"accelerometer_m_s2":[0.1032016128,0.0579969324,-9.8110294342],"accelerometer_integral_dt":4994,"accelerometer_clipping":0}
{"timestamp":829270602,"gyro_rad":[0.0062050535,-0.0003245191,0.0001044513],"gyro_integral_dt":4996,"accelerometer_timestamp_relative":0,"accelerometer_m_s2":[0.1098288149,0.0720402375,-9.7944841385],"accelerometer_integral_dt":4996,"accelerometer_clipping":0}
{"timestamp":829280277,"gyro_rad":[0.0022930733,0.0062413272,-0.000285193],"gyro_integral_dt":4995,"accelerometer_timestamp_relative":0,"accelerometer_m_s2":[0.0661936253,0.139468044,-9.8069534302],"accelerometer_integral_dt":4995,"accelerometer_clipping":0}
{"timestamp":829281981,"gyro_rad":[0.0080255857,0.0054226089,0.0012755957],"gyro_integral_dt":4997,"accelerometer_timestamp_relative":0,"accelerometer_m_s2":[0.0893288255,0.1211526245,-9.7739973068],"accelerometer_integral_dt":4997,"accelerometer_clipping":0}
{"timestamp":829289222,"gyro_rad":[0.0028182301,0.0019692178,-0.0017086732],"gyro_integral_dt":4993,"accelerometer_timestamp_relative":0,"accelerometer_m_s2":[-0.0250264443,0.1041712686,-9.7922735214],"accelerometer_integral_dt":4993,"accelerometer_clipping":0}
{"timestamp":829290635,"gyro_rad":[0.0049601942,0.0119916759,0.0007801272],"gyro_integral_dt":4995,"accelerometer_timestamp_relative":0,"accelerometer_m_s2":[0.0097818328,0.0648772195,-9.8136672974],"accelerometer_integral_dt":4995,"accelerometer_clipping":0}
{"timestamp":829299505,"gyro_rad":[0.0005605365,-0.0042377128,-0.0029693695],"gyro_integral_dt":4996,"accelerometer_timestamp_relative":0,"accelerometer_m_s2":[-0.0252811182,0.0301330555,-9.794052124],"accelerometer_integral_dt":4996,"accelerometer_clipping":0}
{"timestamp":829303862,"gyro_rad":[0.0057064099,0.013492547,0.0011633493],"gyro_integral_dt":4996,"accelerometer_timestamp_relative":0,"accelerometer_m_s2":[-0.0222860724,0.041647885,-9.8066101074],"accelerometer_integral_dt":4996,"accelerometer_clipping":0}
{"timestamp":829312249,"gyro_rad":[0.0024562911,-0.002076399,-0.0012632604],"gyro_integral_dt":4995,"accelerometer_timestamp_relative":0,"accelerometer_m_s2":[-0.0316309705,-0.0378020555,-9.7532672882],"accelerometer_integral_dt":4995,"accelerometer_clipping":0}
{"timestamp":829313556,"gyro_rad":[0.002900223,0.0064920364,-0.0004809251],"gyro_integral_dt":4996,"accelerometer_timestamp_relative":0,"accelerometer_m_s2":[-0.0263403505,0.0111608887,-9.8104934692],"accelerometer_integral_dt":4996,"accelerometer_clipping":0}
{"timestamp":829319774,"gyro_rad":[0.0067170803,0.0052583111,0.0001983153],"gyro_integral_dt":4997,"accelerometer_timestamp_relative":0,"accelerometer_m_s2":[-0.0111315753,-0.0425014049,-9.8343153],"accelerometer_integral_dt":4997,"accelerometer_clipping":0}
{"timestamp":829341923,"gyro_rad":[0.0016962696,0.0025890523,-0.0030094301],"gyro_integral_dt":4993,"accelerometer_timestamp_relative":0,"accelerometer_m_s2":[0.0332985669,-0.0855025053,-9.7934894562],"accelerometer_integral_dt":4993,"accelerometer_clipping":0}
{"timestamp":829340472,"gyro_rad":[0.0079973107,0.0077385101,0.0000200123],"gyro_integral_dt":4996,"accelerometer_timestamp_relative":0,"accelerometer_m_s2":[0.0329476893,-0.0134883076,-9.7819833755],"accelerometer_integral_dt":4996,"accelerometer_clipping":0}
{"timestamp":829341073,"gyro_rad":[0.0049024434,-0.0021394468,-0.0031912636],"gyro_integral_dt":4998,"accelerometer_timestamp_relative":0,"accelerometer_m_s2":[0.1101244092,-0.0419150218,-9.7956180573],"accelerometer_integral_dt":4998,"accelerometer_clipping":0}
{"timestamp":829340680,"gyro_rad":[0.0044408753,0.0138996318,-0.0001957669],"gyro_integral_dt":4996,"accelerometer_timestamp_relative":0,"accelerometer_m_s2":[0.1145683452,0.0250928644,-9.8189630508],"accelerometer_integral_dt":4996,"accelerometer_clipping":0}
{"timestamp":829342486,"gyro_rad":[0.0060219755,-0.004184043,-0.0020318429],"gyro_integral_dt":4994,"accelerometer_timestamp_relative":0,"accelerometer_m_s2":[0.1127383336,0.0608067028,-9.8093852997],"accelerometer_integral_dt":4994,"accelerometer_clipping":0}
{"timestamp":829350066,"gyro_rad":[0.0060666301,0.0117084803,0.0007806023],"gyro_integral_dt":4995,"accelerometer_timestamp_relative":0,"accelerometer_m_s2":[0.1277901232,0.0934536308,-9.808760643],"accelerometer_integral_dt":4995,"accelerometer_clipping":0}
{"timestamp":829351552,"gyro_rad":[0.0049334653,0.0016601393,-0.0009555009],"gyro_integral_dt":4995,"accelerometer_timestamp_relative":0,"accelerometer_m_s2":[0.083676219,0.0795967206,-9.7969408035],"accelerometer_integral_dt":4995,"accelerometer_clipping":0}
{"timestamp":829359461,"gyro_rad":[0.0039829309,0.0049636252,-0.0015943401],"gyro_integral_dt":4993,"accelerometer_timestamp_relative":0,"accelerometer_m_s2":[0.0994009897,0.1518396884,-9.7967233658],"accelerometer_integral_dt":4993,"accelerometer_clipping":0}
{"timestamp":829360100,"gyro_rad":[0.0063110781,0.0068606711,0.0000548376],"gyro_integral_dt":4998,"accelerometer_timestamp_relative":0,"accelerometer_m_s2":[0.0237104669,0.0686785728,-9.7985248566],"accelerometer_integral_dt":4998,"accelerometer_clipping":0}
{"timestamp":829368884,"gyro_rad":[0.0005400289,0.0021582099,-0.0013302123],"gyro_integral_dt":4995,"accelerometer_timestamp_relative":0,"accelerometer_m_s2":[-0.0060862908,0.1332411468,-9.7843866348],"accelerometer_integral_dt":4995,"accelerometer_clipping":0}
{"timestamp":829370336,"gyro_rad":[0.0031612385,0.0091560222,0.0014547007],"gyro_integral_dt":4995,"accelerometer_timestamp_relative":0,"accelerometer_m_s2":[-0.0055420091,0.0120768538,-9.806769371],"accelerometer_integral_dt":4995,"accelerometer_clipping":0}
{"timestamp":829379579,"gyro_rad":[0.0038134414,-0.0015600323,-0.0026450644],"gyro_integral_dt":4996,"accelerometer_timestamp_relative":0,"accelerometer_m_s2":[-0.0374175794,0.0933471322,-9.7981996536],"accelerometer_integral_dt":4996,"accelerometer_clipping":0}
{"timestamp":829380905,"gyro_rad":[0.0026058012,0.0117150042,0.0004708958],"gyro_integral_dt":5001,"accelerometer_timestamp_relative":0,"accelerometer_m_s2":[-0.04539093,-0.0754146278,-9.7483148575],"accelerometer_integral_dt":5001,"accelerometer_clipping":0}
{"timestamp":829389855,"gyro_rad":[0.0044088862,-0.0033945476,-0.0009528656],"gyro_integral_dt":4989,"accelerometer_timestamp_relative":0,"accelerometer_m_s2":[-0.0270671062,0.0055459128,-9.7880172729],"accelerometer_integral_dt":4989,"accelerometer_clipping":0}
{"timestamp":829390372,"gyro_rad":[0.0017586637,0.0069890297,-0.0002886115],"gyro_integral_dt":4996,"accelerometer_timestamp_relative":0,"accelerometer_m_s2":[-0.0435306132,-0.0975474715,-9.8633890152],"accelerometer_integral_dt":4996,"accelerometer_clipping":0}
{"timestamp":829399407,"gyro_rad":[0.0071052448,0.0058524963,0.001015528],"gyro_integral_dt":5004,"accelerometer_timestamp_relative":0,"accelerometer_m_s2":[0.0271281842,-0.0511402078,-9.7672719955],"accelerometer_integral_dt":5004,"accelerometer_clipping":0}
{"timestamp":829400922,"gyro_rad":[0.0015787483,-0.0009588911,-0.0015499656],"gyro_integral_dt":4989,"accelerometer_timestamp_relative":0,"accelerometer_m_s2":[0.0317035653,-0.0736229494,-9.8042573929],"accelerometer_integral_dt":4989,"accelerometer_clipping":0}
{"timestamp":829403317,"gyro_rad":[0.009725837,0.0092953527,-0.0003701439],"gyro_integral_dt":4995,"accelerometer_timestamp_relative":0,"accelerometer_m_s2":[0.0808452591,0.008274653,-9.7892465591],"accelerometer_integral_dt":4995,"accelerometer_clipping":0}
{"timestamp":829413582,"gyro_rad":[0.0025598893,-0.0002931875,-0.0028335601],"gyro_integral_dt":4993,"accelerometer_timestamp_relative":0,"accelerometer_m_s2":[0.0859482437,-0.0440570638,-9.8142080307],"accelerometer_integral_dt":4993,"accelerometer_clipping":0}
{"timestamp":829420298,"gyro_rad":[0.0088259568,0.011651542,0.000644237],"gyro_integral_dt":4996,"accelerometer_timestamp_relative":0,"accelerometer_m_s2":[0.117075853,0.0827547237,-9.7836065292],"accelerometer_integral_dt":4996,"accelerometer_clipping":0}
{"timestamp":829422830,"gyro_rad":[0.0070241373,-0.0004099087,-0.0012891924],"gyro_integral_dt":4995,"accelerometer_timestamp_relative":0,"accelerometer_m_s2":[0.113194935,0.0456252024,-9.8323278427],"accelerometer_integral_dt":4995,"accelerometer_clipping":0}
{"timestamp":829429369,"gyro_rad":[0.0025734711,0.0068795509,-0.0017600467],"gyro_integral_dt":4995,"accelerometer_timestamp_relative":0,"accelerometer_m_s2":[0.1260102391,0.1025897786,-9.7786951065],"accelerometer_integral_dt":4995,"accelerometer_clipping":0}
{"timestamp":829434073,"gyro_rad":[0.0068890667,0.0049487008,0.0010556031],"gyro_integral_dt":4997,"accelerometer_timestamp_relative":0,"accelerometer_m_s2":[0.0280311666,0.1264778227,-9.811753273],"accelerometer_integral_dt":4997,"accelerometer_clipping":0}
{"timestamp":829440502,"gyro_rad":[0.0009894725,0.001368766,-0.0020377345],"gyro_integral_dt":4995,"accelerometer_timestamp_relative":0,"accelerometer_m_s2":[0.0659819022,0.0963985473,-9.8035383224],"accelerometer_integral_dt":4995,"accelerometer_clipping":0}
{"timestamp":829441180,"gyro_rad":[0.0057451273,0.0117657203,0.0007436819],"gyro_integral_dt":4997,"accelerometer_timestamp_relative":0,"accelerometer_m_s2":[-0.0377673358,0.1073465049,-9.7870187759],"accelerometer_integral_dt":4997,"accelerometer_clipping":0}
{"timestamp":829450094,"gyro_rad":[0.0018859287,-0.0045149801,-0.002034795],"gyro_integral_dt":4993,"accelerometer_timestamp_relative":0,"accelerometer_m_s2":[0.0171539374,0.0215948224,-9.7757301331],"accelerometer_integral_dt":4993,"accelerometer_clipping":0}
{"timestamp":829451632,"gyro_rad":[0.0036356277,0.0126658473,0.000669046],"gyro_integral_dt":4997,"accelerometer_timestamp_relative":0,"accelerometer_m_s2":[-0.0607186221,0.0837007537,-9.8296098709],"accelerometer_integral_dt":4997,"accelerometer_clipping":0}
{"timestamp":829468546,"gyro_rad":[0.0057335021,-0.0001965634,-0.0023660176],"gyro_integral_dt":4994,"accelerometer_timestamp_relative":0,"accelerometer_m_s2":[-0.0402754806,-0.0201905966,-9.797039032],"accelerometer_integral_dt":4994,"accelerometer_clipping":0}
{"timestamp":829471107,"gyro_rad":[0.001975507,0.00691493,0.0001952782],"gyro_integral_dt":4998,"accelerometer_timestamp_relative":0,"accelerometer_m_s2":[-0.0195276774,-0.0253406316,-9.7560415268],"accelerometer_integral_dt":4998,"accelerometer_clipping":0}
{"timestamp":829470996,"gyro_rad":[0.0060760151,-0.0001860764,0.0003861015],"gyro_integral_dt":4993,"accelerometer_timestamp_relative":0,"accelerometer_m_s2":[-0.0383799598,-0.0395477079,-9.8635053635],"accelerometer_integral_dt":4993,"accelerometer_clipping":0}
