{"timestamp":219319486,"gyro_rad":[0.0030097608,0.0055741537,-0.0018518271],"gyro_integral_dt":4998,"accelerometer_timestamp_relative":0,"accelerometer_m_s2":[0.0106097572,-0.0332672112,-9.8313369751],"accelerometer_integral_dt":4998,"accelerometer_clipping":0}
{"timestamp":219318739,"gyro_rad":[0.0079397475,0.0063881283,0.0006720441],"gyro_integral_dt":4990,"accelerometer_timestamp_relative":0,"accelerometer_m_s2":[0.0731286556,-0.069491908,-9.776640892],"accelerometer_integral_dt":4990,"accelerometer_clipping":0}
{"timestamp":219328593,"gyro_rad":[0.0018911924,-0.0043897098,-0.0031143583],"gyro_integral_dt":5000,"accelerometer_timestamp_relative":0,"accelerometer_m_s2":[0.084495239,0.0219822284,-9.7340869904],"accelerometer_integral_dt":5000,"accelerometer_clipping":0}
{"timestamp":219329319,"gyro_rad":[0.0073184245,0.0120836711,-0.0000982217],"gyro_integral_dt":4995,"accelerometer_timestamp_relative":0,"accelerometer_m_s2":[0.1343692094,-0.0328710712,-9.7553672791],"accelerometer_integral_dt":4995,"accelerometer_clipping":0}
{"timestamp":219340935,"gyro_rad":[0.0037742059,-0.0027130693,-0.0024321848],"gyro_integral_dt":4996,"accelerometer_timestamp_relative":0,"accelerometer_m_s2":[0.1365540922,0.0656982586,-9.7876958847],"accelerometer_integral_dt":4996,"accelerometer_clipping":0}
{"timestamp":219342086,"gyro_rad":[0.0059742606,0.0097851222,0.0011996385],"gyro_integral_dt":4995,"accelerometer_timestamp_relative":0,"accelerometer_m_s2":[0.1146213934,0.0307536852,-9.8100671768],"accelerometer_integral_dt":4995,"accelerometer_clipping":0}
{"timestamp":219348275,"gyro_rad":[0.0051548174,0.0004372829,-0.0015793933],"gyro_integral_dt":4991,"accelerometer_timestamp_relative":0,"accelerometer_m_s2":[0.1150679067,0.0539384559,-9.8269367218],"accelerometer_integral_dt":4991,"accelerometer_clipping":0}
{"timestamp":219349568,"gyro_rad":[0.0023232421,0.008871262,0.0001497161],"gyro_integral_dt":4998,"accelerometer_timestamp_relative":0,"accelerometer_m_s2":[0.0605356768,0.0673986971,-9.7708654404],"accelerometer_integral_dt":4998,"accelerometer_clipping":0}
{"timestamp":219357032,"gyro_rad":[0.007237406,0.0068325032,0.0018246421],"gyro_integral_dt":4994,"accelerometer_timestamp_relative":0,"accelerometer_m_s2":[0.0991488993,0.0397011153,-9.7104539871],"accelerometer_integral_dt":4994,"accelerometer_clipping":0}
{"timestamp":219362145,"gyro_rad":[0.0005678759,-0.0025050461,-0.0008893661],"gyro_integral_dt":4997,"accelerometer_timestamp_relative":0,"accelerometer_m_s2":[-0.0080307042,0.0675858408,-9.8096818924],"accelerometer_integral_dt":4997,"accelerometer_clipping":0}
{"timestamp":219366386,"gyro_rad":[0.0038687943,0.0128439842,0.0015302446],"gyro_integral_dt":4994,"accelerometer_timestamp_relative":0,"accelerometer_m_s2":[0.0121448552,0.0289413594,-9.839053154],"accelerometer_integral_dt":4994,"accelerometer_clipping":0}
{"timestamp":219372074,"gyro_rad":[0.0029162248,-0.0050081648,-0.0022424385],"gyro_integral_dt":4998,"accelerometer_timestamp_relative":0,"accelerometer_m_s2":[-0.007855258,0.0028515318,-9.815164566],"accelerometer_integral_dt":4998,"accelerometer_clipping":0}
{"timestamp":219378006,"gyro_rad":[0.0068387254,0.0117352372,0.0004888606],"gyro_integral_dt":4995,"accelerometer_timestamp_relative":0,"accelerometer_m_s2":[-0.046618104,0.0109701324,-9.7604761124],"accelerometer_integral_dt":4995,"accelerometer_clipping":0}
{"timestamp":219379495,"gyro_rad":[0.0044209599,-0.0026995272,-0.0004088712],"gyro_integral_dt":4994,"accelerometer_timestamp_relative":0,"accelerometer_m_s2":[-0.0193192903,-0.0268882252,-9.6861038208],"accelerometer_integral_dt":4994,"accelerometer_clipping":0}
{"timestamp":219390304,"gyro_rad":[0.001848383,0.0041694399,-0.0003051221],"gyro_integral_dt":4994,"accelerometer_timestamp_relative":0,"accelerometer_m_s2":[0.0033492993,-0.024790803,-9.8048772812],"accelerometer_integral_dt":4994,"accelerometer_clipping":0}
{"timestamp":219390017,"gyro_rad":[0.0068656653,0.0054464708,0.0006992929],"gyro_integral_dt":4995,"accelerometer_timestamp_relative":0,"accelerometer_m_s2":[0.0076297517,-0.0507431552,-9.8672294617],"accelerometer_integral_dt":4995,"accelerometer_clipping":0}
{"timestamp":219391212,"gyro_rad":[0.0044151926,0.0005303778,-0.0022095286],"gyro_integral_dt":4996,"accelerometer_timestamp_relative":0,"accelerometer_m_s2":[0.0769492835,-0.0610182658,-9.807258606],"accelerometer_integral_dt":4996,"accelerometer_clipping":0}
{"timestamp":219400910,"gyro_rad":[0.0065311952,0.0055714012,0.0009019427],"gyro_integral_dt":4995,"accelerometer_timestamp_relative":0,"accelerometer_m_s2":[0.073601909,-0.0055934815,-9.7731819153],"accelerometer_integral_dt":4995,"accelerometer_clipping":0}
{"timestamp":219410851,"gyro_rad":[0.004345993,-0.0022387269,-0.0024829919],"gyro_integral_dt":4993,"accelerometer_timestamp_relative":0,"accelerometer_m_s2":[0.1302973628,-0.0013383343,-9.7268037796],"accelerometer_integral_dt":4993,"accelerometer_clipping":0}
{"timestamp":219412360,"gyro_rad":[0.0052859564,0.0108034667,0.0007437541],"gyro_integral_dt":4998,"accelerometer_timestamp_relative":0,"accelerometer_m_s2":[0.1283480376,-0.0016693993,-9.7786903381],"accelerometer_integral_dt":4998,"accelerometer_clipping":0}
{"timestamp":219413479,"gyro_rad":[0.0068863183,-0.0029462154,-0.0029684326],"gyro_integral_dt":4994,"accelerometer_timestamp_relative":0,"accelerometer_m_s2":[0.1169683561,0.0432772487,-9.8506355286],"accelerometer_integral_dt":4994,"accelerometer_clipping":0}
{"timestamp":219432114,"gyro_rad":[0.0029937085,0.0093025649,-0.0023258156],"gyro_integral_dt":4997,"accelerometer_timestamp_relative":0,"accelerometer_m_s2":[0.1448463053,0.024462102,-9.836892128],"accelerometer_integral_dt":4997,"accelerometer_clipping":0}
{"timestamp":219430564,"gyro_rad":[0.0080736121,0.0014217622,-0.0003359695],"gyro_integral_dt":4998,"accelerometer_timestamp_relative":0,"accelerometer_m_s2":[0.0701936781,0.0673593357,-9.7937135696],"accelerometer_integral_dt":4998,"accelerometer_clipping":0}
{"timestamp":219431153,"gyro_rad":[0.0034562366,0.0059093339,-0.000485121],"gyro_integral_dt":4993,"accelerometer_timestamp_relative":0,"accelerometer_m_s2":[0.0505548231,0.0877118558,-9.6995201111],"accelerometer_integral_dt":4993,"accelerometer_clipping":0}
{"timestamp":219439076,"gyro_rad":[0.0066946973,0.006714975,0.0010532566],"gyro_integral_dt":4997,"accelerometer_timestamp_relative":0,"accelerometer_m_s2":[0.0537554324,0.0554707311,-9.741150856],"accelerometer_integral_dt":4997,"accelerometer_clipping":0}
{"timestamp":219440144,"gyro_rad":[-0.0000472425,0.0023449501,-0.0021890593],"gyro_integral_dt":4992,"accelerometer_timestamp_relative":0,"accelerometer_m_s2":[-0.0094971042,0.0626479611,-9.8465967178],"accelerometer_integral_dt":4992,"accelerometer_clipping":0}
{"timestamp":219450080,"gyro_rad":[0.0040177563,0.0123984851,0.0035254825],"gyro_integral_dt":4996,"accelerometer_timestamp_relative":0,"accelerometer_m_s2":[0.0182231534,-0.0117746945,-9.7932939529],"accelerometer_integral_dt":4996,"accelerometer_clipping":0}
{"timestamp":219449567,"gyro_rad":[0.0053318073,-0.0029328391,-0.0011094728],"gyro_integral_dt":4995,"accelerometer_timestamp_relative":0,"accelerometer_m_s2":[-0.0521525666,0.0111061651,-9.7958192825],"accelerometer_integral_dt":4995,"accelerometer_clipping":0}
{"timestamp":219460399,"gyro_rad":[0.0059436299,0.0111926701,0.0010543381],"gyro_integral_dt":4995,"accelerometer_timestamp_relative":0,"accelerometer_m_s2":[-0.0184335783,-0.0313214734,-9.7089605331],"accelerometer_integral_dt":4995,"accelerometer_clipping":0}
{"timestamp":219459767,"gyro_rad":[0.0031255858,-0.0014500202,0.0004955213],"gyro_integral_dt":4996,"accelerometer_timestamp_relative":0,"accelerometer_m_s2":[0.0045471247,-0.0071142218,-9.7631940842],"accelerometer_integral_dt":4996,"accelerometer_clipping":0}
{"timestamp":219461221,"gyro_rad":[0.0017456248,0.0060716723,-0.0000565331],"gyro_integral_dt":4996,"accelerometer_timestamp_relative":0,"accelerometer_m_s2":[0.010499143,-0.0210794415,-9.8454179764],"accelerometer_integral_dt":4996,"accelerometer_clipping":0}
{"timestamp":219471812,"gyro_rad":[0.0058993683,0.005691377,0.001290726],"gyro_integral_dt":4995,"accelerometer_timestamp_relative":0,"accelerometer_m_s2":[0.0574572943,-0.055285465,-9.8241662979],"accelerometer_integral_dt":4995,"accelerometer_clipping":0}
{"timestamp":219479740,"gyro_rad":[0.0031245148,-0.0033450297,-0.0016736995],"gyro_integral_dt":4992,"accelerometer_timestamp_relative":0,"accelerometer_m_s2":[0.059765134,-0.0268333666,-9.7837266922],"accelerometer_integral_dt":4992,"accelerometer_clipping":0}
{"timestamp":219479265,"gyro_rad":[0.0083757099,0.0097441887,0.0007984069],"gyro_integral_dt":4999,"accelerometer_timestamp_relative":0,"accelerometer_m_s2":[0.1061752588,0.0138554899,-9.7454929352],"accelerometer_integral_dt":4999,"accelerometer_clipping":0}
{"timestamp":219488717,"gyro_rad":[0.0033338822,-0.0019362586,-0.0028341208],"gyro_integral_dt":4995,"accelerometer_timestamp_relative":0,"accelerometer_m_s2":[0.1382313371,-0.0085990112,-9.7589626312],"accelerometer_integral_dt":4995,"accelerometer_clipping":0}
{"timestamp":219489173,"gyro_rad":[0.0043640076,0.0105492482,0.0005986723],"gyro_integral_dt":4996,"accelerometer_timestamp_relative":0,"accelerometer_m_s2":[0.1330917627,0.076538153,-9.8137979507],"accelerometer_integral_dt":4996,"accelerometer_clipping":0}
{"timestamp":219498852,"gyro_rad":[0.0074170479,-0.0021986924,-0.0017651519],"gyro_integral_dt":4990,"accelerometer_timestamp_relative":0,"accelerometer_m_s2":[0.1348531693,0.0183268897,-9.8468503952],"accelerometer_integral_dt":4990,"accelerometer_clipping":0}
{"timestamp":219498128,"gyro_rad":[0.0021840965,0.007262826,-0.001713369],"gyro_integral_dt":5000,"accelerometer_timestamp_relative":0,"accelerometer_m_s2":[0.1108578071,0.0274236612,-9.8159656525],"accelerometer_integral_dt":5000,"accelerometer_clipping":0}
{"timestamp":219515982,"gyro_rad":[0.0066200797,0.0050528441,-0.0001729584],"gyro_integral_dt":4995,"accelerometer_timestamp_relative":0,"accelerometer_m_s2":[0.0597920492,0.0778466314,-9.7478656769],"accelerometer_integral_dt":4995,"accelerometer_clipping":0}
{"timestamp":219516236,"gyro_rad":[0.0035635661,-0.0002006072,-0.0016975986],"gyro_integral_dt":4996,"accelerometer_timestamp_relative":0,"accelerometer_m_s2":[0.0661396384,0.0712681413,-9.7235908508],"accelerometer_integral_dt":4996,"accelerometer_clipping":0}
{"timestamp":219513349,"gyro_rad":[0.0058888774,0.0111734718,0.0020391922],"gyro_integral_dt":4996,"accelerometer_timestamp_relative":0,"accelerometer_m_s2":[-0.0047266167,0.0725483596,-9.8374233246],"accelerometer_integral_dt":4996,"accelerometer_clipping":0}
{"timestamp":219521058,"gyro_rad":[0.0014605429,0.000123824,-0.0014864529],"gyro_integral_dt":4993,"accelerometer_timestamp_relative":0,"accelerometer_m_s2":[0.0084702382,0.0205918327,-9.8218660355],"accelerometer_integral_dt":4993,"accelerometer_clipping":0}
{"timestamp":219528415,"gyro_rad":[0.0065473737,0.0085614435,0.0011319052],"gyro_integral_dt":4996,"accelerometer_timestamp_relative":0,"accelerometer_m_s2":[-0.0077697076,0.032167878,-9.8072557449],"accelerometer_integral_dt":4996,"accelerometer_clipping":0}
{"timestamp":219529670,"gyro_rad":[0.0042680358,-0.002069734,-0.0020446444],"gyro_integral_dt":4995,"accelerometer_timestamp_relative":0,"accelerometer_m_s2":[-0.0313343629,-0.0208284091,-9.7642307281],"accelerometer_integral_dt":4995,"accelerometer_clipping":0}
{"timestamp":219539568,"gyro_rad":[0.0030340871,0.0105431462,0.0004078124],"gyro_integral_dt":4996,"accelerometer_timestamp_relative":0,"accelerometer_m_s2":[-0.0228199903,-0.0006007273,-9.7143411636],"accelerometer_integral_dt":4996,"accelerometer_clipping":0}
{"timestamp":219551467,"gyro_rad":[0.0054870802,-0.0009578005,-0.0010783926],"gyro_integral_dt":4999,"accelerometer_timestamp_relative":0,"accelerometer_m_s2":[0.0182836205,-0.0423275568,-9.8101787567],"accelerometer_integral_dt":4999,"accelerometer_clipping":0}
{"timestamp":219549593,"gyro_rad":[0.0030203725,0.0050724191,-0.0011991644],"gyro_integral_dt":4996,"accelerometer_timestamp_relative":0,"accelerometer_m_s2":[-0.0089710206,-0.0217394885,-9.8673858643],"accelerometer_integral_dt":4996,"accelerometer_clipping":0}
{"timestamp":219561521,"gyro_rad":[0.0076083238,0.0049111363,0.0003120063],"gyro_integral_dt":4994,"accelerometer_timestamp_relative":0,"accelerometer_m_s2":[0.0917468965,-0.0629959106,-9.8117284775],"accelerometer_integral_dt":4994,"accelerometer_clipping":0}
{"timestamp":219560416,"gyro_rad":[0.0043256683,-0.001965028,-0.0032588304],"gyro_integral_dt":4994,"accelerometer_timestamp_relative":0,"accelerometer_m_s2":[0.0547936782,0.0131013831,-9.7553300858],"accelerometer_integral_dt":4994,"accelerometer_clipping":0}
{"timestamp":219572726,"gyro_rad":[0.0055158944,0.0108065046,0.0013370829],"gyro_integral_dt":4996,"accelerometer_timestamp_relative":0,"accelerometer_m_s2":[0.1246432588,-0.0433084816,-9.7276144028],"accelerometer_integral_dt":4996,"accelerometer_clipping":0}
{"timestamp":219571807,"gyro_rad":[0.0055670762,-0.0047634775,-0.0015599065],"gyro_integral_dt":4993,"accelerometer_timestamp_relative":0,"accelerometer_m_s2":[0.1236514449,0.0539407656,-9.7897720337],"accelerometer_integral_dt":4993,"accelerometer_clipping":0}
{"timestamp":219572729,"gyro_rad":[0.0079489201,0.0093475673,0.000511696],"gyro_integral_dt":4995,"accelerometer_timestamp_relative":0,"accelerometer_m_s2":[0.1241266131,0.0205538999,-9.8453769684],"accelerometer_integral_dt":4995,"accelerometer_clipping":0}
{"timestamp":219578465,"gyro_rad":[0.0045106984,-0.0014709823,-0.0002565961],"gyro_integral_dt":4995,"accelerometer_timestamp_relative":0,"accelerometer_m_s2":[0.114710018,0.0380619206,-9.8269929886],"accelerometer_integral_dt":4995,"accelerometer_clipping":0}
{"timestamp":219591262,"gyro_rad":[0.0017651605,0.0068280064,-0.0004234277],"gyro_integral_dt":5004,"accelerometer_timestamp_relative":0,"accelerometer_m_s2":[0.0796800405,0.0617234148,-9.7428426743],"accelerometer_integral_dt":5004,"accelerometer_clipping":0}
{"timestamp":219590405,"gyro_rad":[0.0077222083,0.0058111912,0.0005197395],"gyro_integral_dt":4987,"accelerometer_timestamp_relative":0,"accelerometer_m_s2":[0.0861141607,0.0699304864,-9.7005901337],"accelerometer_integral_dt":4987,"accelerometer_clipping":0}
{"timestamp":219601772,"gyro_rad":[0.0019384725,0.000746956,-0.0030425792],"gyro_integral_dt":4999,"accelerometer_timestamp_relative":0,"accelerometer_m_s2":[0.0158972088,0.0425623842,-9.8013162613],"accelerometer_integral_dt":4999,"accelerometer_clipping":0}
{"timestamp":219601097,"gyro_rad":[0.0039992393,0.0123475045,0.0009116405],"gyro_integral_dt":4991,"accelerometer_timestamp_relative":0,"accelerometer_m_s2":[0.0007039602,0.0357133672,-9.8355379105],"accelerometer_integral_dt":4991,"accelerometer_clipping":0}
{"timestamp":219601891,"gyro_rad":[0.0012706995,-0.0058213701,-0.001883732],"gyro_integral_dt":4995,"accelerometer_timestamp_relative":0,"accelerometer_m_s2":[-0.0187277142,0.0088393874,-9.8403072357],"accelerometer_integral_dt":4995,"accelerometer_clipping":0}
{"timestamp":219609548,"gyro_rad":[0.0074159969,0.0122885071,0.000333934],"gyro_integral_dt":4997,"accelerometer_timestamp_relative":0,"accelerometer_m_s2":[-0.0352778956,0.0349497385,-9.7806215286],"accelerometer_integral_dt":4997,"accelerometer_clipping":0}
{"timestamp":219610651,"gyro_rad":[0.0052661682,-0.0015789856,-0.0000168634],"gyro_integral_dt":4995,"accelerometer_timestamp_relative":0,"accelerometer_m_s2":[0.0031380348,-0.0519870594,-9.6850795746],"accelerometer_integral_dt":4995,"accelerometer_clipping":0}
{"timestamp":219619156,"gyro_rad":[0.0022934629,0.0073877992,-0.0007676136],"gyro_integral_dt":4994,"accelerometer_timestamp_relative":0,"accelerometer_m_s2":[0.0002043146,-0.0091594672,-9.7737188339],"accelerometer_integral_dt":4994,"accelerometer_clipping":0}
{"timestamp":219619369,"gyro_rad":[0.0054538939,0.0033223,-0.0002859091],"gyro_integral_dt":5000,"accelerometer_timestamp_relative":0,"accelerometer_m_s2":[0.0149735687,-0.0554448329,-9.8528652191],"accelerometer_integral_dt":5000,"accelerometer_clipping":0}
{"timestamp":219636648,"gyro_rad":[0.0046817986,0.0053567775,-0.0015585857],"gyro_integral_dt":4992,"accelerometer_timestamp_relative":0,"accelerometer_m_s2":[0.0665948316,-0.0068547507,-9.7840147018],"accelerometer_integral_dt":4992,"accelerometer_clipping":0}
{"timestamp":219637599,"gyro_rad":[0.0076951487,0.0051689558,0.0003287749],"gyro_integral_dt":4994,"accelerometer_timestamp_relative":0,"accelerometer_m_s2":[0.0695904121,-0.0494732633,-9.7752428055],"accelerometer_integral_dt":4994,"accelerometer_clipping":0}
{"timestamp":219636892,"gyro_rad":[0.0031875358,-0.0016683175,-0.003417576],"gyro_integral_dt":4996,"accelerometer_timestamp_relative":0,"accelerometer_m_s2":[0.1108501852,0.0022968673,-9.7289180756],"accelerometer_integral_dt":4996,"accelerometer_clipping":0}
{"timestamp":219658423,"gyro_rad":[0.0067268498,0.011348037,0.0010046823],"gyro_integral_dt":4997,"accelerometer_timestamp_relative":0,"accelerometer_m_s2":[0.1270140857,-0.0109927393,-9.7837514877],"accelerometer_integral_dt":4997,"accelerometer_clipping":0}
{"timestamp":219659720,"gyro_rad":[0.0065612774,-0.0030623476,-0.0016368233],"gyro_integral_dt":5000,"accelerometer_timestamp_relative":0,"accelerometer_m_s2":[0.1288751066,0.058851622,-9.8107767105],"accelerometer_integral_dt":5000,"accelerometer_clipping":0}
{"timestamp":219660802,"gyro_rad":[0.004846965,0.0095031615,-0.0001187747],"gyro_integral_dt":4997,"accelerometer_timestamp_relative":0,"accelerometer_m_s2":[0.1389771253,0.0311878119,-9.8260993958],"accelerometer_integral_dt":4997,"accelerometer_clipping":0}
{"timestamp":219659732,"gyro_rad":[0.0049964488,-0.0002199714,-0.0009748701],"gyro_integral_dt":4984,"accelerometer_timestamp_relative":0,"accelerometer_m_s2":[0.1028643996,0.0531918928,-9.8029689789],"accelerometer_integral_dt":4984,"accelerometer_clipping":0}
{"timestamp":219660691,"gyro_rad":[0.0046341955,0.0077973288,-0.0016634197],"gyro_integral_dt":4999,"accelerometer_timestamp_relative":0,"accelerometer_m_s2":[0.0787883103,0.070894897,-9.751074791],"accelerometer_integral_dt":4999,"accelerometer_clipping":0}
{"timestamp":219670680,"gyro_rad":[0.0085803531,0.003976122,0.0009785198],"gyro_integral_dt":4994,"accelerometer_timestamp_relative":0,"accelerometer_m_s2":[0.0552137867,0.0491615012,-9.770532608],"accelerometer_integral_dt":4994,"accelerometer_clipping":0}
{"timestamp":219671686,"gyro_rad":[0.0012884927,0.0022753193,-0.001403496],"gyro_integral_dt":4996,"accelerometer_timestamp_relative":0,"accelerometer_m_s2":[-0.0217301287,0.0585137382,-9.8275566101],"accelerometer_integral_dt":4996,"accelerometer_clipping":0}
{"timestamp":219676898,"gyro_rad":[0.0046648686,0.0109483628,0.0026485582],"gyro_integral_dt":4996,"accelerometer_timestamp_relative":0,"accelerometer_m_s2":[0.0155436927,0.0221579131,-9.7852344513],"accelerometer_integral_dt":4996,"accelerometer_clipping":0}
{"timestamp":219690811,"gyro_rad":[0.0052646208,-0.003816959,-0.0013648232],"gyro_integral_dt":4994,"accelerometer_timestamp_relative":0,"accelerometer_m_s2":[-0.0306099318,0.0179881062,-9.8038244247],"accelerometer_integral_dt":4994,"accelerometer_clipping":0}
{"timestamp":219691664,"gyro_rad":[0.0050607598,0.0131460251,0.0012153303],"gyro_integral_dt":4996,"accelerometer_timestamp_relative":0,"accelerometer_m_s2":[-0.0245843045,-0.0184751265,-9.7357721329],"accelerometer_integral_dt":4996,"accelerometer_clipping":0}
{"timestamp":219701627,"gyro_rad":[0.0050824606,-0.0023888287,-0.0009109618],"gyro_integral_dt":4992,"accelerometer_timestamp_relative":0,"accelerometer_m_s2":[0.0018819438,-0.0130901244,-9.725320816],"accelerometer_integral_dt":4992,"accelerometer_clipping":0}
{"timestamp":219700494,"gyro_rad":[0.0020062411,0.0066617779,-0.00141729],"gyro_integral_dt":5001,"accelerometer_timestamp_relative":0,"accelerometer_m_s2":[-0.0008989673,-0.0497821383,-9.8330173492],"accelerometer_integral_dt":5001,"accelerometer_clipping":0}
{"timestamp":219701421,"gyro_rad":[0.0075058062,0.0056986408,0.0005948507],"gyro_integral_dt":4993,"accelerometer_timestamp_relative":0,"accelerometer_m_s2":[0.0432091877,-0.0392820388,-9.8359699249],"accelerometer_integral_dt":4993,"accelerometer_clipping":0}
{"timestamp":219709043,"gyro_rad":[0.0038103538,0.00001878,-0.0030158095],"gyro_integral_dt":4998,"accelerometer_timestamp_relative":0,"accelerometer_m_s2":[0.0658844486,-0.0464039072,-9.7919273376],"accelerometer_integral_dt":4998,"accelerometer_clipping":0}
{"timestamp":219714194,"gyro_rad":[0.0076480238,0.0081707574,0.0012247143],"gyro_integral_dt":4991,"accelerometer_timestamp_relative":0,"accelerometer_m_s2":[0.0607809834,0.0011546423,-9.7722940445],"accelerometer_integral_dt":4991,"accelerometer_clipping":0}
{"timestamp":219713690,"gyro_rad":[0.0043382715,-0.002693824,-0.0025050782],"gyro_integral_dt":4997,"accelerometer_timestamp_relative":0,"accelerometer_m_s2":[0.1414353549,-0.0339003615,-9.733625412],"accelerometer_integral_dt":4997,"accelerometer_clipping":0}
{"timestamp":219720630,"gyro_rad":[0.006534134,0.0106969336,0.0005305791],"gyro_integral_dt":4995,"accelerometer_timestamp_relative":0,"accelerometer_m_s2":[0.1288870722,0.0674666986,-9.7848272324],"accelerometer_integral_dt":4995,"accelerometer_clipping":0}
{"timestamp":219724611,"gyro_rad":[0.0061926148,-0.0028107732,-0.0031740968],"gyro_integral_dt":4996,"accelerometer_timestamp_relative":0,"accelerometer_m_s2":[0.1134138182,0.0286988281,-9.8161945343],"accelerometer_integral_dt":4996,"accelerometer_clipping":0}
{"timestamp":219735424,"gyro_rad":[0.0027651358,0.0081806127,-0.0003669007],"gyro_integral_dt":4992,"accelerometer_timestamp_relative":0,"accelerometer_m_s2":[0.1289573163,0.040564578,-9.8215579987],"accelerometer_integral_dt":4992,"accelerometer_clipping":0}
{"timestamp":219735331,"gyro_rad":[0.0079933945,0.0031799562,-0.0011618392],"gyro_integral_dt":4998,"accelerometer_timestamp_relative":0,"accelerometer_m_s2":[0.0499673225,0.0715229139,-9.7536888123],"accelerometer_integral_dt":4998,"accelerometer_clipping":0}
{"timestamp":219741299,"gyro_rad":[0.0044463235,0.0041376534,-0.0013432633],"gyro_integral_dt":4997,"accelerometer_timestamp_relative":0,"accelerometer_m_s2":[0.0676459223,0.0661505461,-9.7302408218],"accelerometer_integral_dt":4997,"accelerometer_clipping":0}
{"timestamp":219742809,"gyro_rad":[0.0062692985,0.0071749366,0.0018455487],"gyro_integral_dt":4994,"accelerometer_timestamp_relative":0,"accelerometer_m_s2":[-0.0031000038,0.0441379473,-9.827123642],"accelerometer_integral_dt":4994,"accelerometer_clipping":0}
{"timestamp":219761367,"gyro_rad":[0.000701261,0.0007601383,-0.0008660606],"gyro_integral_dt":4995,"accelerometer_timestamp_relative":0,"accelerometer_m_s2":[-0.0029283531,0.0347930044,-9.8105382919],"accelerometer_integral_dt":4995,"accelerometer_clipping":0}
{"timestamp":219761006,"gyro_rad":[0.0067090779,0.0093730027,0.0012111717],"gyro_integral_dt":4993,"accelerometer_timestamp_relative":0,"accelerometer_m_s2":[-0.0128888758,-0.0090661077,-9.8091077805],"accelerometer_integral_dt":4993,"accelerometer_clipping":0}
{"timestamp":219761974,"gyro_rad":[0.0068850787,-0.0021008754,-0.0006502722],"gyro_integral_dt":4998,"accelerometer_timestamp_relative":0,"accelerometer_m_s2":[-0.0614857711,-0.0005825615,-9.7950801849],"accelerometer_integral_dt":4998,"accelerometer_clipping":0}
{"timestamp":219770263,"gyro_rad":[0.0040872693,0.0103779621,0.0002594024],"gyro_integral_dt":4995,"accelerometer_timestamp_relative":0,"accelerometer_m_s2":[-0.0048126229,-0.0381151326,-9.7270488739],"accelerometer_integral_dt":4995,"accelerometer_clipping":0}
{"timestamp":219770218,"gyro_rad":[0.0046237153,-0.0018647012,-0.0009494542],"gyro_integral_dt":4994,"accelerometer_timestamp_relative":0,"accelerometer_m_s2":[0.020212654,0.0053502051,-9.7983484268],"accelerometer_integral_dt":4994,"accelerometer_clipping":0}
{"timestamp":219779850,"gyro_rad":[0.0046410938,0.0063674226,-0.0015118422],"gyro_integral_dt":4997,"accelerometer_timestamp_relative":0,"accelerometer_m_s2":[-0.0083323698,-0.0335453488,-9.8239736557],"accelerometer_integral_dt":4997,"accelerometer_clipping":0}
{"timestamp":219780448,"gyro_rad":[0.0071068532,0.0061800573,0.0004763243],"gyro_integral_dt":4994,"accelerometer_timestamp_relative":0,"accelerometer_m_s2":[0.0762863159,-0.0500524081,-9.7884025574],"accelerometer_integral_dt":4994,"accelerometer_clipping":0}
{"timestamp":219790789,"gyro_rad":[0.0031762102,-0.0027614639,-0.0013185969],"gyro_integral_dt":4999,"accelerometer_timestamp_relative":0,"accelerometer_m_s2":[0.0508295298,-0.0267280601,-9.7845745087],"accelerometer_integral_dt":4999,"accelerometer_clipping":0}
{"timestamp":219791526,"gyro_rad":[0.0080759786,0.0107709067,0.0016691468],"gyro_integral_dt":4994,"accelerometer_timestamp_relative":0,"accelerometer_m_s2":[0.118943423,-0.0340273082,-9.7563858032],"accelerometer_integral_dt":4994,"accelerometer_clipping":0}
{"timestamp":219799464,"gyro_rad":[0.0038400192,-0.0022710473,-0.0018844126],"gyro_integral_dt":4996,"accelerometer_timestamp_relative":0,"accelerometer_m_s2":[0.1320020109,0.0059884107,-9.7968769073],"accelerometer_integral_dt":4996,"accelerometer_clipping":0}
{"timestamp":219798666,"gyro_rad":[0.0077137938,0.0121971834,-0.0013941656],"gyro_integral_dt":4996,"accelerometer_timestamp_relative":0,"accelerometer_m_s2":[0.1010973752,0.0735277981,-9.8136911392],"accelerometer_integral_dt":4996,"accelerometer_clipping":0}
{"timestamp":219808341,"gyro_rad":[0.0045083091,-0.0021258399,-0.0006331451],"gyro_integral_dt":4997,"accelerometer_timestamp_relative":0,"accelerometer_m_s2":[0.141960904,0.0182044562,-9.8118467331],"accelerometer_integral_dt":4997,"accelerometer_clipping":0}
{"timestamp":219809509,"gyro_rad":[0.002043562,0.0079783397,-0.0005993472],"gyro_integral_dt":4991,"accelerometer_timestamp_relative":0,"accelerometer_m_s2":[0.0767180249,0.078929536,-9.8045558929],"accelerometer_integral_dt":4991,"accelerometer_clipping":0}
{"timestamp":219821882,"gyro_rad":[0.007766631,0.0043544555,-0.0008791763],"gyro_integral_dt":4994,"accelerometer_timestamp_relative":0,"accelerometer_m_s2":[0.0876355842,0.0498930253,-9.7158670425],"accelerometer_integral_dt":4994,"accelerometer_clipping":0}
{"timestamp":219822647,"gyro_rad":[0.0024405324,0.0000164237,-0.0022837494],"gyro_integral_dt":4996,"accelerometer_timestamp_relative":0,"accelerometer_m_s2":[0.0303436182,0.0764881596,-9.7709102631],"accelerometer_integral_dt":4996,"accelerometer_clipping":0}
{"timestamp":219824614,"gyro_rad":[0.0043288367,0.01181933,0.0020183658],"gyro_integral_dt":4996,"accelerometer_timestamp_relative":0,"accelerometer_m_s2":[-0.0101221893,0.0299304035,-9.8288879395],"accelerometer_integral_dt":4996,"accelerometer_clipping":0}
{"timestamp":219833252,"gyro_rad":[-0.0010860359,-0.0015789852,-0.0013048471],"gyro_integral_dt":4994,"accelerometer_timestamp_relative":0,"accelerometer_m_s2":[0.0138312196,0.0236924496,-9.8114004135],"accelerometer_integral_dt":4994,"accelerometer_clipping":0}
{"timestamp":219833001,"gyro_rad":[0.0073432378,0.0114976941,0.0012719432],"gyro_integral_dt":4995,"accelerometer_timestamp_relative":0,"accelerometer_m_s2":[-0.0644331798,0.0182928834,-9.8272724152],"accelerometer_integral_dt":4995,"accelerometer_clipping":0}
{"timestamp":219840515,"gyro_rad":[0.0036640719,-0.0022084778,-0.0022154893],"gyro_integral_dt":4997,"accelerometer_timestamp_relative":0,"accelerometer_m_s2":[-0.0023586128,-0.0358949751,-9.7019386292],"accelerometer_integral_dt":4997,"accelerometer_clipping":0}
{"timestamp":219848792,"gyro_rad":[0.0018407373,0.0086426083,0.0005979172],"gyro_integral_dt":4995,"accelerometer_timestamp_relative":0,"accelerometer_m_s2":[0.00791003,-0.0105459271,-9.7239179611],"accelerometer_integral_dt":4995,"accelerometer_clipping":0}
{"timestamp":219849772,"gyro_rad":[0.00576725,0.0004569812,0.0005950569],"gyro_integral_dt":4995,"accelerometer_timestamp_relative":0,"accelerometer_m_s2":[-0.0067480658,-0.0170855112,-9.8250579834],"accelerometer_integral_dt":4995,"accelerometer_clipping":0}
{"timestamp":219860055,"gyro_rad":[0.002253928,0.0043266341,-0.0011591287],"gyro_integral_dt":4995,"accelerometer_timestamp_relative":0,"accelerometer_m_s2":[0.0530353226,-0.0437849127,-9.8364744186],"accelerometer_integral_dt":4995,"accelerometer_clipping":0}
{"timestamp":219860797,"gyro_rad":[0.006049695,0.0040174103,0.00034243],"gyro_integral_dt":4995,"accelerometer_timestamp_relative":0,"accelerometer_m_s2":[0.0637900531,-0.0136552704,-9.8287029266],"accelerometer_integral_dt":4995,"accelerometer_clipping":0}
{"timestamp":219868769,"gyro_rad":[0.0038311302,-0.0028832478,-0.003741873],"gyro_integral_dt":4997,"accelerometer_timestamp_relative":0,"accelerometer_m_s2":[0.1129073799,0.010115535,-9.7358989716],"accelerometer_integral_dt":4997,"accelerometer_clipping":0}
{"timestamp":219869656,"gyro_rad":[0.0062297666,0.0103616454,0.0010414945],"gyro_integral_dt":4994,"accelerometer_timestamp_relative":0,"accelerometer_m_s2":[0.1348506212,0.0033669926,-9.7345733643],"accelerometer_integral_dt":4994,"accelerometer_clipping":0}
{"timestamp":219880693,"gyro_rad":[0.0055599953,-0.0033508402,-0.0022447219],"gyro_integral_dt":4995,"accelerometer_timestamp_relative":0,"accelerometer_m_s2":[0.1290896535,0.0588256232,-9.7803115845],"accelerometer_integral_dt":4995,"accelerometer_clipping":0}
{"timestamp":219881484,"gyro_rad":[0.0058037434,0.0102461213,0.0004276205],"gyro_integral_dt":4993,"accelerometer_timestamp_relative":0,"accelerometer_m_s2":[0.1263702959,0.0287470371,-9.8583507538],"accelerometer_integral_dt":4993,"accelerometer_clipping":0}
{"timestamp":219890390,"gyro_rad":[0.0048493952,-0.0003805305,-0.0007154681],"gyro_integral_dt":4998,"accelerometer_timestamp_relative":0,"accelerometer_m_s2":[0.1065807641,0.0502517521,-9.8308467865],"accelerometer_integral_dt":4998,"accelerometer_clipping":0}
{"timestamp":219891416,"gyro_rad":[0.0025046465,0.008263927,-0.0007059216],"gyro_integral_dt":4996,"accelerometer_timestamp_relative":0,"accelerometer_m_s2":[0.0605567582,0.0692998916,-9.7147035599],"accelerometer_integral_dt":4996,"accelerometer_clipping":0}
{"timestamp":219899107,"gyro_rad":[0.0096675185,0.0040063527,0.0006423132],"gyro_integral_dt":4995,"accelerometer_timestamp_relative":0,"accelerometer_m_s2":[0.0730815828,0.0596935265,-9.7113456726],"accelerometer_integral_dt":4995,"accelerometer_clipping":0}
{"timestamp":219900643,"gyro_rad":[0.0005645033,0.0020651305,-0.0024433504],"gyro_integral_dt":4994,"accelerometer_timestamp_relative":0,"accelerometer_m_s2":[-0.0153199732,0.0696011409,-9.8426494598],"accelerometer_integral_dt":4994,"accelerometer_clipping":0}
{"timestamp":219908889,"gyro_rad":[0.0026770635,0.0115624834,0.0021545053],"gyro_integral_dt":4998,"accelerometer_timestamp_relative":0,"accelerometer_m_s2":[0.0054901312,-0.0040724208,-9.8467273712],"accelerometer_integral_dt":4998,"accelerometer_clipping":0}
{"timestamp":219909498,"gyro_rad":[0.0036061949,-0.004700359,-0.0011589585],"gyro_integral_dt":4993,"accelerometer_timestamp_relative":0,"accelerometer_m_s2":[-0.0344303846,0.0436189771,-9.8405828476],"accelerometer_integral_dt":4993,"accelerometer_clipping":0}
{"timestamp":219919974,"gyro_rad":[0.005762531,0.0128587028,0.0019107859],"gyro_integral_dt":4995,"accelerometer_timestamp_relative":0,"accelerometer_m_s2":[-0.061227221,-0.0283089448,-9.7343959808],"accelerometer_integral_dt":4995,"accelerometer_clipping":0}
{"timestamp":219921008,"gyro_rad":[0.0043258993,-0.0027740083,-0.001318602],"gyro_integral_dt":4998,"accelerometer_timestamp_relative":0,"accelerometer_m_s2":[0.0053393305,0.0059455228,-9.6891880035],"accelerometer_integral_dt":4998,"accelerometer_clipping":0}
{"timestamp":219929872,"gyro_rad":[0.0027129406,0.0069185053,-0.0012158196],"gyro_integral_dt":4993,"accelerometer_timestamp_relative":0,"accelerometer_m_s2":[0.0098055191,-0.056115713,-9.8203344345],"accelerometer_integral_dt":4993,"accelerometer_clipping":0}
{"timestamp":219928805,"gyro_rad":[0.0075924019,0.0044344766,-0.0000003114],"gyro_integral_dt":4996,"accelerometer_timestamp_relative":0,"accelerometer_m_s2":[0.0212871209,-0.0324712135,-9.8294868469],"accelerometer_integral_dt":4996,"accelerometer_clipping":0}
{"timestamp":219938717,"gyro_rad":[0.003612705,0.0017670036,-0.001927094],"gyro_integral_dt":4995,"accelerometer_timestamp_relative":0,"accelerometer_m_s2":[0.084381707,-0.0577741079,-9.7869701385],"accelerometer_integral_dt":4995,"accelerometer_clipping":0}
{"timestamp":219939672,"gyro_rad":[0.0083091278,0.0072739683,0.0020934427],"gyro_integral_dt":4996,"accelerometer_timestamp_relative":0,"accelerometer_m_s2":[0.0813216791,0.0053684977,-9.7653112411],"accelerometer_integral_dt":4996,"accelerometer_clipping":0}
{"timestamp":219949625,"gyro_rad":[0.00173423,-0.0012867954,-0.0020874732],"gyro_integral_dt":4994,"accelerometer_timestamp_relative":0,"accelerometer_m_s2":[0.1561298966,-0.0568836704,-9.7563085556],"accelerometer_integral_dt":4994,"accelerometer_clipping":0}
{"timestamp":219950370,"gyro_rad":[0.0062665823,0.0110665848,0.0007728816],"gyro_integral_dt":4998,"accelerometer_timestamp_relative":0,"accelerometer_m_s2":[0.1093908176,0.0575344935,-9.8027172089],"accelerometer_integral_dt":4998,"accelerometer_clipping":0}
{"timestamp":219960089,"gyro_rad":[0.0067708362,-0.0030993952,-0.0022490947],"gyro_integral_dt":4993,"accelerometer_timestamp_relative":0,"accelerometer_m_s2":[0.1157150492,0.0312773883,-9.8453264236],"accelerometer_integral_dt":4993,"accelerometer_clipping":0}
{"timestamp":219959231,"gyro_rad":[0.0022247715,0.0110398075,-0.0000027456],"gyro_integral_dt":4996,"accelerometer_timestamp_relative":0,"accelerometer_m_s2":[0.1183284223,0.0417416953,-9.8367443085],"accelerometer_integral_dt":4996,"accelerometer_clipping":0}
{"timestamp":219969478,"gyro_rad":[0.0041488665,0.002491669,0.0007301613],"gyro_integral_dt":4995,"accelerometer_timestamp_relative":0,"accelerometer_m_s2":[0.0767884329,0.0601680875,-9.7606906891],"accelerometer_integral_dt":4995,"accelerometer_clipping":0}
{"timestamp":219970386,"gyro_rad":[0.0054023401,0.0039327606,-0.0008645189],"gyro_integral_dt":4995,"accelerometer_timestamp_relative":0,"accelerometer_m_s2":[0.0958904102,0.0662620142,-9.693649292],"accelerometer_integral_dt":4995,"accelerometer_clipping":0}
{"timestamp":219979445,"gyro_rad":[0.0058768871,0.0053526955,0.0010311747],"gyro_integral_dt":4994,"accelerometer_timestamp_relative":0,"accelerometer_m_s2":[-0.0015398926,0.0562494062,-9.8238811493],"accelerometer_integral_dt":4994,"accelerometer_clipping":0}
{"timestamp":219979844,"gyro_rad":[0.0003299331,0.0017712198,-0.0024223132],"gyro_integral_dt":4997,"accelerometer_timestamp_relative":0,"accelerometer_m_s2":[0.0274118762,0.0402544141,-9.8260364532],"accelerometer_integral_dt":4997,"accelerometer_clipping":0}
{"timestamp":219990129,"gyro_rad":[0.0041378862,0.0074479659,0.0019118289],"gyro_integral_dt":4992,"accelerometer_timestamp_relative":0,"accelerometer_m_s2":[-0.0193086211,0.0197006743,-9.824344635],"accelerometer_integral_dt":4992,"accelerometer_clipping":0}
{"timestamp":219990998,"gyro_rad":[0.0059439181,-0.0023233979,-0.0010621126],"gyro_integral_dt":4998,"accelerometer_timestamp_relative":0,"accelerometer_m_s2":[-0.0320769139,-0.005282057,-9.7719717026],"accelerometer_integral_dt":4998,"accelerometer_clipping":0}
{"timestamp":219998914,"gyro_rad":[0.0034701393,0.0113462545,-0.0008191578],"gyro_integral_dt":4997,"accelerometer_timestamp_relative":0,"accelerometer_m_s2":[-0.0126578743,-0.0391430892,-9.7059726715],"accelerometer_integral_dt":4997,"accelerometer_clipping":0}
{"timestamp":219999984,"gyro_rad":[0.0045787231,-0.0035212045,0.0001909535],"gyro_integral_dt":4994,"accelerometer_timestamp_relative":0,"accelerometer_m_s2":[-0.0094348751,-0.0152261527,-9.7837467194],"accelerometer_integral_dt":4994,"accelerometer_clipping":0}
{"timestamp":220010827,"gyro_rad":[0.0023956378,0.0078640822,-0.0008900694],"gyro_integral_dt":4995,"accelerometer_timestamp_relative":0,"accelerometer_m_s2":[0.0030794269,-0.0595438443,-9.8577451706],"accelerometer_integral_dt":4995,"accelerometer_clipping":0}
{"timestamp":220011666,"gyro_rad":[0.0093712611,0.0058047771,-0.0007524265],"gyro_integral_dt":4996,"accelerometer_timestamp_relative":0,"accelerometer_m_s2":[0.0859657302,-0.0206152815,-9.805765152],"accelerometer_integral_dt":4996,"accelerometer_clipping":0}
{"timestamp":220021946,"gyro_rad":[0.0021080084,-0.0017903248,-0.0029207061],"gyro_integral_dt":4996,"accelerometer_timestamp_relative":0,"accelerometer_m_s2":[0.0653394982,-0.0203459039,-9.813662529],"accelerometer_integral_dt":4996,"accelerometer_clipping":0}
{"timestamp":220031975,"gyro_rad":[0.007471316,0.0092418967,0.0007030964],"gyro_integral_dt":4995,"accelerometer_timestamp_relative":0,"accelerometer_m_s2":[0.1444229037,-0.0001493201,-9.709728241],"accelerometer_integral_dt":4995,"accelerometer_clipping":0}
{"timestamp":220029653,"gyro_rad":[0.0037231811,-0.002104806,-0.0022431738],"gyro_integral_dt":4995,"accelerometer_timestamp_relative":0,"accelerometer_m_s2":[0.1197331995,0.0428876691,-9.7569799423],"accelerometer_integral_dt":4995,"accelerometer_clipping":0}
{"timestamp":220040463,"gyro_rad":[0.0082192076,0.0109162387,0.0009435125],"gyro_integral_dt":4996,"accelerometer_timestamp_relative":0,"accelerometer_m_s2":[0.1147551239,0.0472930409,-9.8172101974],"accelerometer_integral_dt":4996,"accelerometer_clipping":0}
{"timestamp":220040264,"gyro_rad":[0.0020704186,-0.002418431,-0.0012841857],"gyro_integral_dt":4995,"accelerometer_timestamp_relative":0,"accelerometer_m_s2":[0.1118169352,0.0220170096,-9.844083786],"accelerometer_integral_dt":4995,"accelerometer_clipping":0}
{"timestamp":220049331,"gyro_rad":[0.0033541881,0.0099286679,-0.0014593346],"gyro_integral_dt":4995,"accelerometer_timestamp_relative":0,"accelerometer_m_s2":[0.0937822908,0.0802302063,-9.7953720093],"accelerometer_integral_dt":4995,"accelerometer_clipping":0}
{"timestamp":220052254,"gyro_rad":[0.0094467606,0.0041373591,-0.000586106],"gyro_integral_dt":4993,"accelerometer_timestamp_relative":0,"accelerometer_m_s2":[0.0685469508,0.0666805282,-9.6887121201],"accelerometer_integral_dt":4993,"accelerometer_clipping":0}
{"timestamp":220060191,"gyro_rad":[0.0037915492,0.0004220348,-0.0024820529],"gyro_integral_dt":4997,"accelerometer_timestamp_relative":0,"accelerometer_m_s2":[0.0579091571,0.0592384227,-9.7594203949],"accelerometer_integral_dt":4997,"accelerometer_clipping":0}
{"timestamp":220058168,"gyro_rad":[0.0060202619,0.0114491777,0.001295323],"gyro_integral_dt":4996,"accelerometer_timestamp_relative":0,"accelerometer_m_s2":[-0.0263377931,0.0469683222,-9.858502388],"accelerometer_integral_dt":4996,"accelerometer_clipping":0}
{"timestamp":220071831,"gyro_rad":[0.0013650061,-0.0012952341,-0.003103171],"gyro_integral_dt":4994,"accelerometer_timestamp_relative":0,"accelerometer_m_s2":[0.0345813073,0.0243940204,-9.8395738602],"accelerometer_integral_dt":4994,"accelerometer_clipping":0}
{"timestamp":220071009,"gyro_rad":[0.0068707932,0.0112851551,0.0009821791],"gyro_integral_dt":4998,"accelerometer_timestamp_relative":0,"accelerometer_m_s2":[-0.0613631904,0.0166182443,-9.8142147064],"accelerometer_integral_dt":4998,"accelerometer_clipping":0}
{"timestamp":220080831,"gyro_rad":[0.0046474924,-0.0010357614,-0.0025161295],"gyro_integral_dt":4994,"accelerometer_timestamp_relative":0,"accelerometer_m_s2":[-0.0139641399,-0.0359898396,-9.7174901962],"accelerometer_integral_dt":4994,"accelerometer_clipping":0}
{"timestamp":220079337,"gyro_rad":[0.0019724572,0.0079916064,0.0018634342],"gyro_integral_dt":4992,"accelerometer_timestamp_relative":0,"accelerometer_m_s2":[0.0176468957,-0.0402214192,-9.7276859283],"accelerometer_integral_dt":4992,"accelerometer_clipping":0}
{"timestamp":220100560,"gyro_rad":[0.004719316,-0.0006823412,0.000248518],"gyro_integral_dt":4999,"accelerometer_timestamp_relative":0,"accelerometer_m_s2":[-0.0105796773,-0.0265662987,-9.831278801],"accelerometer_integral_dt":4999,"accelerometer_clipping":0}
{"timestamp":220100549,"gyro_rad":[0.0034532666,0.0075853639,-0.0013449505],"gyro_integral_dt":4994,"accelerometer_timestamp_relative":0,"accelerometer_m_s2":[0.0690202564,-0.0430983379,-9.8209600449],"accelerometer_integral_dt":4994,"accelerometer_clipping":0}
{"timestamp":220101506,"gyro_rad":[0.0071466914,0.0028260453,0.0010619098],"gyro_integral_dt":4995,"accelerometer_timestamp_relative":0,"accelerometer_m_s2":[0.0732647851,-0.0406230651,-9.7636222839],"accelerometer_integral_dt":4995,"accelerometer_clipping":0}
{"timestamp":220100420,"gyro_rad":[0.0014405452,-0.000760422,-0.0024190838],"gyro_integral_dt":4998,"accelerometer_timestamp_relative":0,"accelerometer_m_s2":[0.1031514555,0.0016190545,-9.737745285],"accelerometer_integral_dt":4998,"accelerometer_clipping":0}
{"timestamp":220111376,"gyro_rad":[0.0061050178,0.0112063261,0.0005104846],"gyro_integral_dt":4992,"accelerometer_timestamp_relative":0,"accelerometer_m_s2":[0.1338886619,-0.0245412998,-9.7496347427],"accelerometer_integral_dt":4992,"accelerometer_clipping":0}
{"timestamp":220110454,"gyro_rad":[0.0049345782,-0.0025595676,-0.002229003],"gyro_integral_dt":4994,"accelerometer_timestamp_relative":0,"accelerometer_m_s2":[0.1081477851,0.0586871989,-9.8175411224],"accelerometer_integral_dt":4994,"accelerometer_clipping":0}
{"timestamp":220111783,"gyro_rad":[0.0068506789,0.0111217732,-0.0008883244],"gyro_integral_dt":4998,"accelerometer_timestamp_relative":0,"accelerometer_m_s2":[0.0966244638,0.0494461618,-9.8531112671],"accelerometer_integral_dt":4998,"accelerometer_clipping":0}
{"timestamp":220120276,"gyro_rad":[0.0036933739,-0.0022940885,-0.0010011877],"gyro_integral_dt":4995,"accelerometer_timestamp_relative":0,"accelerometer_m_s2":[0.1230555698,0.0656971708,-9.8035955429],"accelerometer_integral_dt":4995,"accelerometer_clipping":0}
{"timestamp":220119513,"gyro_rad":[0.0026509226,0.010102585,-0.000810882],"gyro_integral_dt":4996,"accelerometer_timestamp_relative":0,"accelerometer_m_s2":[0.0536312871,0.0668519959,-9.715461731],"accelerometer_integral_dt":4996,"accelerometer_clipping":0}
{"timestamp":220130141,"gyro_rad":[0.0066869804,0.0032190643,0.0000492838],"gyro_integral_dt":4992,"accelerometer_timestamp_relative":0,"accelerometer_m_s2":[0.0687912181,0.0539614223,-9.6947755814],"accelerometer_integral_dt":4992,"accelerometer_clipping":0}
{"timestamp":220131645,"gyro_rad":[0.0008639643,0.0029714776,-0.0009742689],"gyro_integral_dt":4998,"accelerometer_timestamp_relative":0,"accelerometer_m_s2":[-0.0297255982,0.0418016762,-9.8386850357],"accelerometer_integral_dt":4998,"accelerometer_clipping":0}
{"timestamp":220140472,"gyro_rad":[0.0039483737,0.0107058445,0.0029982112],"gyro_integral_dt":4995,"accelerometer_timestamp_relative":0,"accelerometer_m_s2":[-0.0027773862,0.0186473373,-9.8390445709],"accelerometer_integral_dt":4995,"accelerometer_clipping":0}
{"timestamp":220141521,"gyro_rad":[0.0026112518,-0.0038652658,-0.0020913505],"gyro_integral_dt":5003,"accelerometer_timestamp_relative":0,"accelerometer_m_s2":[-0.0348447189,0.0251985043,-9.822558403],"accelerometer_integral_dt":5003,"accelerometer_clipping":0}
{"timestamp":220150666,"gyro_rad":[0.0084833736,0.0135411555,0.0004304484],"gyro_integral_dt":4988,"accelerometer_timestamp_relative":0,"accelerometer_m_s2":[-0.0315074213,-0.021166632,-9.7393655777],"accelerometer_integral_dt":4988,"accelerometer_clipping":0}
{"timestamp":220152252,"gyro_rad":[0.0029731281,-0.0036943289,-0.0005213299],"gyro_integral_dt":4996,"accelerometer_timestamp_relative":0,"accelerometer_m_s2":[-0.0151223252,-0.0267464202,-9.7135343552],"accelerometer_integral_dt":4996,"accelerometer_clipping":0}
{"timestamp":220168453,"gyro_rad":[0.0019466795,0.0075828675,0.0011518182],"gyro_integral_dt":4994,"accelerometer_timestamp_relative":0,"accelerometer_m_s2":[-0.0139441695,-0.0394878164,-9.8198671341],"accelerometer_integral_dt":4994,"accelerometer_clipping":0}
{"timestamp":220170093,"gyro_rad":[0.0078516593,0.0026321262,-0.0008359346],"gyro_integral_dt":4995,"accelerometer_timestamp_relative":0,"accelerometer_m_s2":[-0.0032507572,-0.0322946198,-9.8566761017],"accelerometer_integral_dt":4995,"accelerometer_clipping":0}
{"timestamp":220170144,"gyro_rad":[0.0028771765,0.0029141423,-0.0012851319],"gyro_integral_dt":4997,"accelerometer_timestamp_relative":0,"accelerometer_m_s2":[0.1034941375,-0.0508127548,-9.8183021545],"accelerometer_integral_dt":4997,"accelerometer_clipping":0}
{"timestamp":220170928,"gyro_rad":[0.0069337948,0.007057894,0.0008127732],"gyro_integral_dt":5002,"accelerometer_timestamp_relative":0,"accelerometer_m_s2":[0.0588899367,0.0001232506,-9.7619256973],"accelerometer_integral_dt":5002,"accelerometer_clipping":0}
{"timestamp":220177106,"gyro_rad":[0.0041863821,0.0003708643,-0.0029899755],"gyro_integral_dt":4985,"accelerometer_timestamp_relative":0,"accelerometer_m_s2":[0.1265639663,-0.036798466,-9.7293281555],"accelerometer_integral_dt":4985,"accelerometer_clipping":0}
{"timestamp":220178080,"gyro_rad":[0.0064712716,0.0107162558,0.0010275379],"gyro_integral_dt":4999,"accelerometer_timestamp_relative":0,"accelerometer_m_s2":[0.1248824149,0.0449930653,-9.7738628387],"accelerometer_integral_dt":4999,"accelerometer_clipping":0}
{"timestamp":220189305,"gyro_rad":[0.0051732631,-0.0029696478,-0.0024744757],"gyro_integral_dt":4991,"accelerometer_timestamp_relative":0,"accelerometer_m_s2":[0.1088058427,0.0728111193,-9.8470611572],"accelerometer_integral_dt":4991,"accelerometer_clipping":0}
{"timestamp":220190096,"gyro_rad":[0.0022779941,0.0104943682,0.0000486997],"gyro_integral_dt":4999,"accelerometer_timestamp_relative":0,"accelerometer_m_s2":[0.1328180581,0.0073835971,-9.8154668808],"accelerometer_integral_dt":4999,"accelerometer_clipping":0}
{"timestamp":220199907,"gyro_rad":[0.0051720068,0.0002006294,-0.0021659241],"gyro_integral_dt":4994,"accelerometer_timestamp_relative":0,"accelerometer_m_s2":[0.0343334042,0.1053053215,-9.7829914093],"accelerometer_integral_dt":4994,"accelerometer_clipping":0}
{"timestamp":220200538,"gyro_rad":[0.0043823039,0.0066933255,-0.0023232375],"gyro_integral_dt":4996,"accelerometer_timestamp_relative":0,"accelerometer_m_s2":[0.086414285,0.0581038333,-9.6935539246],"accelerometer_integral_dt":4996,"accelerometer_clipping":0}
{"timestamp":220211662,"gyro_rad":[0.0066336659,0.0051783891,-0.0002131761],"gyro_integral_dt":4995,"accelerometer_timestamp_relative":0,"accelerometer_m_s2":[0.0095271403,0.0633756742,-9.7970962524],"accelerometer_integral_dt":4995,"accelerometer_clipping":0}
{"timestamp":220213007,"gyro_rad":[-0.0005434146,0.0042353282,-0.0009494158],"gyro_integral_dt":4996,"accelerometer_timestamp_relative":0,"accelerometer_m_s2":[-0.0013221941,0.0285173003,-9.85704422],"accelerometer_integral_dt":4996,"accelerometer_clipping":0}
{"timestamp":220217332,"gyro_rad":[0.0051769572,0.0093454774,0.0012414644],"gyro_integral_dt":4995,"accelerometer_timestamp_relative":0,"accelerometer_m_s2":[0.013976559,0.0023018545,-9.7996406555],"accelerometer_integral_dt":4995,"accelerometer_clipping":0}
{"timestamp":220219019,"gyro_rad":[0.0045396211,-0.0016818376,-0.00177519],"gyro_integral_dt":4995,"accelerometer_timestamp_relative":0,"accelerometer_m_s2":[-0.0705675706,0.010858261,-9.7831544876],"accelerometer_integral_dt":4995,"accelerometer_clipping":0}
{"timestamp":220238439,"gyro_rad":[0.0038590902,0.0118831573,0.0025492704],"gyro_integral_dt":4998,"accelerometer_timestamp_relative":0,"accelerometer_m_s2":[-0.0088911755,-0.0329896174,-9.6838283539],"accelerometer_integral_dt":4998,"accelerometer_clipping":0}
{"timestamp":220238802,"gyro_rad":[0.0036740643,-0.003724443,-0.0005736531],"gyro_integral_dt":4993,"accelerometer_timestamp_relative":0,"accelerometer_m_s2":[-0.0019080644,-0.0215769522,-9.7910146713],"accelerometer_integral_dt":4993,"accelerometer_clipping":0}
{"timestamp":220237799,"gyro_rad":[0.0014305111,0.0102913752,-0.000322274],"gyro_integral_dt":4999,"accelerometer_timestamp_relative":0,"accelerometer_m_s2":[-0.005443255,-0.0218732804,-9.8635787964],"accelerometer_integral_dt":4999,"accelerometer_clipping":0}
{"timestamp":220239225,"gyro_rad":[0.0077806362,0.0047569745,0.0008302942],"gyro_integral_dt":4994,"accelerometer_timestamp_relative":0,"accelerometer_m_s2":[0.0703826845,-0.0449388884,-9.7869300842],"accelerometer_integral_dt":4994,"accelerometer_clipping":0}
{"timestamp":220245581,"gyro_rad":[0.0029687055,0.0011206673,-0.0019938834],"gyro_integral_dt":4994,"accelerometer_timestamp_relative":0,"accelerometer_m_s2":[0.0762977302,-0.0152740963,-9.7886133194],"accelerometer_integral_dt":4994,"accelerometer_clipping":0}
{"timestamp":220250220,"gyro_rad":[0.0080836387,0.0087282099,0.0014184996],"gyro_integral_dt":4997,"accelerometer_timestamp_relative":0,"accelerometer_m_s2":[0.1215493456,-0.0304207504,-9.7299919128],"accelerometer_integral_dt":4997,"accelerometer_clipping":0}
{"timestamp":220258640,"gyro_rad":[0.0010270079,-0.0021082412,-0.0033666959],"gyro_integral_dt":4994,"accelerometer_timestamp_relative":0,"accelerometer_m_s2":[0.1365027428,0.0078986408,-9.7969732285],"accelerometer_integral_dt":4994,"accelerometer_clipping":0}
{"timestamp":220260206,"gyro_rad":[0.0083971033,0.0117950998,0.0006918535],"gyro_integral_dt":4993,"accelerometer_timestamp_relative":0,"accelerometer_m_s2":[0.1000627577,0.0468367599,-9.8280439377],"accelerometer_integral_dt":4993,"accelerometer_clipping":0}
{"timestamp":220270491,"gyro_rad":[0.0048015816,-0.0042204792,-0.0016989467],"gyro_integral_dt":4998,"accelerometer_timestamp_relative":0,"accelerometer_m_s2":[0.1255641729,0.0225212369,-9.8345661163],"accelerometer_integral_dt":4998,"accelerometer_clipping":0}
{"timestamp":220271200,"gyro_rad":[0.0036708405,0.0094036479,-0.0008230496],"gyro_integral_dt":4993,"accelerometer_timestamp_relative":0,"accelerometer_m_s2":[0.0898201317,0.0684780702,-9.7945671082],"accelerometer_integral_dt":4993,"accelerometer_clipping":0}
{"timestamp":220277899,"gyro_rad":[0.0072485525,0.0027395,-0.000000834],"gyro_integral_dt":4996,"accelerometer_timestamp_relative":0,"accelerometer_m_s2":[0.0701700076,0.0645705536,-9.7122192383],"accelerometer_integral_dt":4996,"accelerometer_clipping":0}
{"timestamp":220278657,"gyro_rad":[0.0026898254,0.0030281891,-0.0010583044],"gyro_integral_dt":4996,"accelerometer_timestamp_relative":0,"accelerometer_m_s2":[0.062875919,0.0300943162,-9.7439689636],"accelerometer_integral_dt":4996,"accelerometer_clipping":0}
{"timestamp":220287979,"gyro_rad":[0.005019465,0.0091924127,0.0008555979],"gyro_integral_dt":4991,"accelerometer_timestamp_relative":0,"accelerometer_m_s2":[-0.0488781519,0.0596088581,-9.854924202],"accelerometer_integral_dt":4991,"accelerometer_clipping":0}
{"timestamp":220288895,"gyro_rad":[0.0013525984,0.0003371762,-0.0004318422],"gyro_integral_dt":4999,"accelerometer_timestamp_relative":0,"accelerometer_m_s2":[0.0275054201,-0.0130022205,-9.7940979004],"accelerometer_integral_dt":4999,"accelerometer_clipping":0}
{"timestamp":220299333,"gyro_rad":[0.007928865,0.0096809929,0.0016030543],"gyro_integral_dt":4992,"accelerometer_timestamp_relative":0,"accelerometer_m_s2":[-0.0594401062,0.0361472704,-9.8171825409],"accelerometer_integral_dt":4992,"accelerometer_clipping":0}
{"timestamp":220299661,"gyro_rad":[0.0051814076,-0.0008377722,-0.0024723993],"gyro_integral_dt":4995,"accelerometer_timestamp_relative":0,"accelerometer_m_s2":[-0.0050643552,-0.0569507293,-9.7171649933],"accelerometer_integral_dt":4995,"accelerometer_clipping":0}
{"timestamp":220310370,"gyro_rad":[0.0035456656,0.0089277253,0.0012281369],"gyro_integral_dt":4998,"accelerometer_timestamp_relative":0,"accelerometer_m_s2":[-0.0052420776,0.0234760791,-9.7214212418],"accelerometer_integral_dt":4998,"accelerometer_clipping":0}
{"timestamp":220311022,"gyro_rad":[0.0065677529,-0.0009463279,0.0001622025],"gyro_integral_dt":4998,"accelerometer_timestamp_relative":0,"accelerometer_m_s2":[-0.0093974071,-0.0502081364,-9.847193718],"accelerometer_integral_dt":4998,"accelerometer_clipping":0}
{"timestamp":220317221,"gyro_rad":[0.0025832145,0.0094726868,-0.0010389915],"gyro_integral_dt":4996,"accelerometer_timestamp_relative":0,"accelerometer_m_s2":[0.0368514098,-0.0326639712,-9.8190765381],"accelerometer_integral_dt":4996,"accelerometer_clipping":0}
{"timestamp":220318574,"gyro_rad":[0.007716218,0.0027499963,0.0009529418],"gyro_integral_dt":4992,"accelerometer_timestamp_relative":0,"accelerometer_m_s2":[0.0630130768,-0.0460835062,-9.7934331894],"accelerometer_integral_dt":4992,"accelerometer_clipping":0}
{"timestamp":220328572,"gyro_rad":[0.0037039586,-0.0007455619,-0.0024800035],"gyro_integral_dt":4996,"accelerometer_timestamp_relative":0,"accelerometer_m_s2":[0.1000103131,0.0089090113,-9.7367706299],"accelerometer_integral_dt":4996,"accelerometer_clipping":0}
{"timestamp":220329202,"gyro_rad":[0.0055621308,0.00981302,-0.000084369],"gyro_integral_dt":4996,"accelerometer_timestamp_relative":0,"accelerometer_m_s2":[0.1271882504,-0.0207457989,-9.7820339203],"accelerometer_integral_dt":4996,"accelerometer_clipping":0}
{"timestamp":220340318,"gyro_rad":[0.003397594,-0.00269874,-0.0018329212],"gyro_integral_dt":5003,"accelerometer_timestamp_relative":0,"accelerometer_m_s2":[0.1297652274,0.0843839347,-9.7925519943],"accelerometer_integral_dt":5003,"accelerometer_clipping":0}
{"timestamp":220340408,"gyro_rad":[0.0078180684,0.0115562854,0.0011196911],"gyro_integral_dt":4989,"accelerometer_timestamp_relative":0,"accelerometer_m_s2":[0.1276138574,0.0142682716,-9.8092947006],"accelerometer_integral_dt":4989,"accelerometer_clipping":0}
{"timestamp":220348903,"gyro_rad":[0.0038344101,-0.001423409,-0.0011561699],"gyro_integral_dt":4991,"accelerometer_timestamp_relative":0,"accelerometer_m_s2":[0.105798021,0.0672651976,-9.8245868683],"accelerometer_integral_dt":4991,"accelerometer_clipping":0}
{"timestamp":220350311,"gyro_rad":[0.0035574881,0.0121592274,0.0007184967],"gyro_integral_dt":5027,"accelerometer_timestamp_relative":0,"accelerometer_m_s2":[0.0454430729,0.0466036163,-9.7476472855],"accelerometer_integral_dt":5027,"accelerometer_clipping":0}
{"timestamp":220355202,"gyro_rad":[0.0061228713,0.0013383918,0.0013441917],"gyro_integral_dt":4965,"accelerometer_timestamp_relative":0,"accelerometer_m_s2":[0.0664811209,0.0855789557,-9.7253723145],"accelerometer_integral_dt":4965,"accelerometer_clipping":0}
{"timestamp":220360577,"gyro_rad":[0.001708752,0.0037858891,-0.0011316264],"gyro_integral_dt":4998,"accelerometer_timestamp_relative":0,"accelerometer_m_s2":[-0.0079439171,0.0451760963,-9.8288526535],"accelerometer_integral_dt":4998,"accelerometer_clipping":0}
{"timestamp":220370356,"gyro_rad":[0.0058791274,0.0095518613,0.0016251188],"gyro_integral_dt":4993,"accelerometer_timestamp_relative":0,"accelerometer_m_s2":[0.0219380595,0.0471167415,-9.8267936707],"accelerometer_integral_dt":4993,"accelerometer_clipping":0}
{"timestamp":220371551,"gyro_rad":[0.0018244822,-0.0038132526,-0.0012879493],"gyro_integral_dt":4995,"accelerometer_timestamp_relative":0,"accelerometer_m_s2":[-0.0411744006,0.0038550247,-9.810915947],"accelerometer_integral_dt":4995,"accelerometer_clipping":0}
{"timestamp":220373766,"gyro_rad":[0.0073104547,0.0121891517,0.0016187264],"gyro_integral_dt":4997,"accelerometer_timestamp_relative":0,"accelerometer_m_s2":[-0.0254581515,-0.0030543678,-9.7539463043],"accelerometer_integral_dt":4997,"accelerometer_clipping":0}
{"timestamp":220381023,"gyro_rad":[0.0033054177,-0.0036942584,-0.0015311138],"gyro_integral_dt":4994,"accelerometer_timestamp_relative":0,"accelerometer_m_s2":[0.0058035692,-0.0270837061,-9.7174158096],"accelerometer_integral_dt":4994,"accelerometer_clipping":0}
{"timestamp":220390027,"gyro_rad":[0.0028930684,0.0088895354,-0.0012508421],"gyro_integral_dt":4996,"accelerometer_timestamp_relative":0,"accelerometer_m_s2":[0.0086441394,-0.0259991344,-9.8127450943],"accelerometer_integral_dt":4996,"accelerometer_clipping":0}
{"timestamp":220390842,"gyro_rad":[0.0064145322,0.0021142692,-0.0003139504],"gyro_integral_dt":4996,"accelerometer_timestamp_relative":0,"accelerometer_m_s2":[0.0136665842,-0.0358878113,-9.824429512],"accelerometer_integral_dt":4996,"accelerometer_clipping":0}
{"timestamp":220398101,"gyro_rad":[0.0031711152,0.0050707674,-0.0016145338],"gyro_integral_dt":4994,"accelerometer_timestamp_relative":0,"accelerometer_m_s2":[0.0585143529,-0.0644142255,-9.7796239853],"accelerometer_integral_dt":4994,"accelerometer_clipping":0}
{"timestamp":220400487,"gyro_rad":[0.0070082685,0.0034009754,0.0010645044],"gyro_integral_dt":5000,"accelerometer_timestamp_relative":0,"accelerometer_m_s2":[0.0754912198,0.0056451694,-9.7858219147],"accelerometer_integral_dt":5000,"accelerometer_clipping":0}
{"timestamp":220410174,"gyro_rad":[0.0032571261,-0.0010614179,-0.0024414104],"gyro_integral_dt":4992,"accelerometer_timestamp_relative":0,"accelerometer_m_s2":[0.1268758178,-0.0191299971,-9.7123918533],"accelerometer_integral_dt":4992,"accelerometer_clipping":0}
{"timestamp":220409612,"gyro_rad":[0.0064357878,0.0108604236,0.000353834],"gyro_integral_dt":4994,"accelerometer_timestamp_relative":0,"accelerometer_m_s2":[0.1115426347,0.0317381658,-9.7922019958],"accelerometer_integral_dt":4994,"accelerometer_clipping":0}
{"timestamp":220418659,"gyro_rad":[0.005983829,-0.0017951209,-0.0012608821],"gyro_integral_dt":4995,"accelerometer_timestamp_relative":0,"accelerometer_m_s2":[0.1224329993,0.0627865717,-9.8195753098],"accelerometer_integral_dt":4995,"accelerometer_clipping":0}
{"timestamp":220420007,"gyro_rad":[0.0060297805,0.0116952509,0.0003924923],"gyro_integral_dt":4997,"accelerometer_timestamp_relative":0,"accelerometer_m_s2":[0.1273273379,0.0464523509,-9.8185129166],"accelerometer_integral_dt":4997,"accelerometer_clipping":0}
{"timestamp":220429463,"gyro_rad":[0.0045867837,-0.0000683039,-0.0013253252],"gyro_integral_dt":4994,"accelerometer_timestamp_relative":0,"accelerometer_m_s2":[0.0834832862,0.0798467249,-9.8027362823],"accelerometer_integral_dt":4994,"accelerometer_clipping":0}
{"timestamp":220430495,"gyro_rad":[0.0031019496,0.0084532499,-0.0010866702],"gyro_integral_dt":4997,"accelerometer_timestamp_relative":0,"accelerometer_m_s2":[0.0594095774,0.0561903641,-9.7090425491],"accelerometer_integral_dt":4997,"accelerometer_clipping":0}
{"timestamp":220438201,"gyro_rad":[0.0063088229,0.0026528796,0.0011711116],"gyro_integral_dt":4999,"accelerometer_timestamp_relative":0,"accelerometer_m_s2":[0.027701607,0.0682231486,-9.7732439041],"accelerometer_integral_dt":4999,"accelerometer_clipping":0}
{"timestamp":220437912,"gyro_rad":[0.000188889,0.0028441362,-0.0012863904],"gyro_integral_dt":4990,"accelerometer_timestamp_relative":0,"accelerometer_m_s2":[-0.0212869607,0.0316681005,-9.837053299],"accelerometer_integral_dt":4990,"accelerometer_clipping":0}
{"timestamp":220442247,"gyro_rad":[0.0043046339,0.0090713715,0.0018630049],"gyro_integral_dt":4995,"accelerometer_timestamp_relative":0,"accelerometer_m_s2":[0.0064181788,0.0182022788,-9.8033037186],"accelerometer_integral_dt":4995,"accelerometer_clipping":0}
{"timestamp":220451064,"gyro_rad":[0.0044829515,-0.0028438005,-0.0029126653],"gyro_integral_dt":5000,"accelerometer_timestamp_relative":0,"accelerometer_m_s2":[-0.0298524015,0.0157325827,-9.7931480408],"accelerometer_integral_dt":5000,"accelerometer_clipping":0}
{"timestamp":220458185,"gyro_rad":[0.0059103081,0.0136768054,0.0021968889],"gyro_integral_dt":4991,"accelerometer_timestamp_relative":0,"accelerometer_m_s2":[-0.0204568617,-0.0342863277,-9.7140951157],"accelerometer_integral_dt":4991,"accelerometer_clipping":0}
