{"timestamp":188435957,"gyro_rad":[0.0092261015,0.0082862014,0.0004855928],"gyro_integral_dt":4994,"accelerometer_timestamp_relative":0,"accelerometer_m_s2":[0.0952915996,0.1002714634,-9.7546634674],"accelerometer_integral_dt":4994,"accelerometer_clipping":0}
{"timestamp":188446462,"gyro_rad":[0.004158441,-0.0051974561,-0.0002250612],"gyro_integral_dt":4995,"accelerometer_timestamp_relative":0,"accelerometer_m_s2":[0.0080689285,0.1169272214,-9.8332281113],"accelerometer_integral_dt":4995,"accelerometer_clipping":0}
{"timestamp":188446969,"gyro_rad":[-0.004266778,0.0118493242,0.0007863101],"gyro_integral_dt":4997,"accelerometer_timestamp_relative":0,"accelerometer_m_s2":[0.0046169721,0.0483051874,-9.8096704483],"accelerometer_integral_dt":4997,"accelerometer_clipping":0}
{"timestamp":188458632,"gyro_rad":[0.0032539852,0.0007363182,0.0008814196],"gyro_integral_dt":4991,"accelerometer_timestamp_relative":0,"accelerometer_m_s2":[-0.016734045,0.0267984942,-9.7580928802],"accelerometer_integral_dt":4991,"accelerometer_clipping":0}
{"timestamp":188457310,"gyro_rad":[0.0056715976,0.0028521081,-0.0017382764],"gyro_integral_dt":4995,"accelerometer_timestamp_relative":0,"accelerometer_m_s2":[-0.0544350967,-0.0063617867,-9.7754688263],"accelerometer_integral_dt":4995,"accelerometer_clipping":0}
{"timestamp":188467246,"gyro_rad":[0.0064978744,0.0053658942,0.0013884801],"gyro_integral_dt":4997,"accelerometer_timestamp_relative":0,"accelerometer_m_s2":[-0.0408477038,-0.009774291,-9.7877731323],"accelerometer_integral_dt":4997,"accelerometer_clipping":0}
{"timestamp":188464635,"gyro_rad":[-0.0032398794,-0.0007599752,-0.0016385448],"gyro_integral_dt":4995,"accelerometer_timestamp_relative":0,"accelerometer_m_s2":[-0.0159563627,-0.0570108816,-9.8190155029],"accelerometer_integral_dt":4995,"accelerometer_clipping":0}
{"timestamp":188477505,"gyro_rad":[0.006611554,0.0107270097,0.0024754649],"gyro_integral_dt":4996,"accelerometer_timestamp_relative":0,"accelerometer_m_s2":[-0.0301223919,-0.0409451425,-9.7645235062],"accelerometer_integral_dt":4996,"accelerometer_clipping":0}
{"timestamp":188476812,"gyro_rad":[0.008009186,-0.0026660729,-0.0018535405],"gyro_integral_dt":4996,"accelerometer_timestamp_relative":0,"accelerometer_m_s2":[0.0430463068,-0.0850075558,-9.7562007904],"accelerometer_integral_dt":4996,"accelerometer_clipping":0}
{"timestamp":188482184,"gyro_rad":[0.0020885316,0.0066801249,0.0002942256],"gyro_integral_dt":4994,"accelerometer_timestamp_relative":0,"accelerometer_m_s2":[0.0600661077,-0.0442682505,-9.806684494],"accelerometer_integral_dt":4994,"accelerometer_clipping":0}
{"timestamp":188481265,"gyro_rad":[0.0048570242,0.0013791366,-0.0004019959],"gyro_integral_dt":4994,"accelerometer_timestamp_relative":0,"accelerometer_m_s2":[0.0929812863,0.0049466849,-9.7926998138],"accelerometer_integral_dt":4994,"accelerometer_clipping":0}
{"timestamp":188490232,"gyro_rad":[0.0050358181,0.0031302865,-0.0009990135],"gyro_integral_dt":4994,"accelerometer_timestamp_relative":0,"accelerometer_m_s2":[0.1427219659,-0.0095220525,-9.7520971298],"accelerometer_integral_dt":4994,"accelerometer_clipping":0}
{"timestamp":188489750,"gyro_rad":[0.0118724676,0.0035713012,0.0005910508],"gyro_integral_dt":4997,"accelerometer_timestamp_relative":0,"accelerometer_m_s2":[0.1147218496,0.1003300399,-9.8072128296],"accelerometer_integral_dt":4997,"accelerometer_clipping":0}
{"timestamp":188507919,"gyro_rad":[0.0007103561,-0.0006544123,-0.0033521648],"gyro_integral_dt":4996,"accelerometer_timestamp_relative":0,"accelerometer_m_s2":[0.1381158084,0.0401255004,-9.7849569321],"accelerometer_integral_dt":4996,"accelerometer_clipping":0}
{"timestamp":188506732,"gyro_rad":[0.0030358331,0.0109740878,0.0008378218],"gyro_integral_dt":4993,"accelerometer_timestamp_relative":0,"accelerometer_m_s2":[0.0983479619,0.1069774181,-9.8005857468],"accelerometer_integral_dt":4993,"accelerometer_clipping":0}
{"timestamp":188508236,"gyro_rad":[0.0045511858,-0.0019885516,-0.001777492],"gyro_integral_dt":4993,"accelerometer_timestamp_relative":0,"accelerometer_m_s2":[0.0787738264,0.0720889866,-9.7582092285],"accelerometer_integral_dt":4993,"accelerometer_clipping":0}
{"timestamp":188509493,"gyro_rad":[0.0095956754,0.0064477092,0.0010742346],"gyro_integral_dt":5000,"accelerometer_timestamp_relative":0,"accelerometer_m_s2":[0.0601662956,0.1201926991,-9.7666835785],"accelerometer_integral_dt":5000,"accelerometer_clipping":0}
{"timestamp":188526677,"gyro_rad":[0.0009367098,0.0005030305,-0.0001839184],"gyro_integral_dt":4994,"accelerometer_timestamp_relative":0,"accelerometer_m_s2":[-0.0133912973,0.0521854721,-9.8505573273],"accelerometer_integral_dt":4994,"accelerometer_clipping":0}
{"timestamp":188525472,"gyro_rad":[-0.0016162195,0.0088728936,-0.0001541191],"gyro_integral_dt":4995,"accelerometer_timestamp_relative":0,"accelerometer_m_s2":[-0.001434297,0.0394572243,-9.7306089401],"accelerometer_integral_dt":4995,"accelerometer_clipping":0}
{"timestamp":188525779,"gyro_rad":[0.0091162371,0.0016081486,0.0006733577],"gyro_integral_dt":4997,"accelerometer_timestamp_relative":0,"accelerometer_m_s2":[-0.0553881824,0.0200385023,-9.8127441406],"accelerometer_integral_dt":4997,"accelerometer_clipping":0}
{"timestamp":188534032,"gyro_rad":[0.0044647539,0.0012571358,-0.0003552298],"gyro_integral_dt":4994,"accelerometer_timestamp_relative":0,"accelerometer_m_s2":[-0.0319106467,-0.0260797832,-9.7767429352],"accelerometer_integral_dt":4994,"accelerometer_clipping":0}
{"timestamp":188541085,"gyro_rad":[0.0009002245,0.0081202816,0.0014314796],"gyro_integral_dt":4992,"accelerometer_timestamp_relative":0,"accelerometer_m_s2":[-0.0266291276,-0.0181618109,-9.7906093597],"accelerometer_integral_dt":4992,"accelerometer_clipping":0}
{"timestamp":188544257,"gyro_rad":[-0.0005816219,-0.0043987026,-0.001858402],"gyro_integral_dt":4997,"accelerometer_timestamp_relative":0,"accelerometer_m_s2":[0.0075096628,-0.0836122632,-9.7872438431],"accelerometer_integral_dt":4997,"accelerometer_clipping":0}
{"timestamp":188548710,"gyro_rad":[0.0100809727,0.0142113185,0.0014803179],"gyro_integral_dt":4994,"accelerometer_timestamp_relative":0,"accelerometer_m_s2":[-0.0624925941,-0.0652526617,-9.783367157],"accelerometer_integral_dt":4994,"accelerometer_clipping":0}
{"timestamp":188556469,"gyro_rad":[0.0050433665,-0.006974767,-0.0013758776],"gyro_integral_dt":4995,"accelerometer_timestamp_relative":0,"accelerometer_m_s2":[0.0829428658,-0.0581225492,-9.7865524292],"accelerometer_integral_dt":4995,"accelerometer_clipping":0}
{"timestamp":188556074,"gyro_rad":[0.0009130084,0.0092330901,0.0002797132],"gyro_integral_dt":4994,"accelerometer_timestamp_relative":0,"accelerometer_m_s2":[0.0302740112,0.0032049532,-9.8242111206],"accelerometer_integral_dt":4994,"accelerometer_clipping":0}
{"timestamp":188565904,"gyro_rad":[0.0054348405,0.002376209,-0.0016410707],"gyro_integral_dt":4996,"accelerometer_timestamp_relative":0,"accelerometer_m_s2":[0.1541571468,-0.0339946896,-9.7535123825],"accelerometer_integral_dt":4996,"accelerometer_clipping":0}
{"timestamp":188568098,"gyro_rad":[0.0050867056,0.0008223365,-0.001745243],"gyro_integral_dt":4997,"accelerometer_timestamp_relative":0,"accelerometer_m_s2":[0.0946530476,0.0859628022,-9.7565736771],"accelerometer_integral_dt":4997,"accelerometer_clipping":0}
{"timestamp":188568959,"gyro_rad":[0.0096239923,0.0055785216,0.0010413856],"gyro_integral_dt":4993,"accelerometer_timestamp_relative":0,"accelerometer_m_s2":[0.1326963753,0.0568702668,-9.8229990005],"accelerometer_integral_dt":4993,"accelerometer_clipping":0}
{"timestamp":188586369,"gyro_rad":[-0.0035636597,-0.0007284699,-0.0016191447],"gyro_integral_dt":4997,"accelerometer_timestamp_relative":0,"accelerometer_m_s2":[0.1332785487,0.0876556933,-9.788230896],"accelerometer_integral_dt":4997,"accelerometer_clipping":0}
{"timestamp":188585616,"gyro_rad":[0.0067484914,0.014385852,0.0014604522],"gyro_integral_dt":5002,"accelerometer_timestamp_relative":0,"accelerometer_m_s2":[0.0661273077,0.0716108903,-9.7993488312],"accelerometer_integral_dt":5002,"accelerometer_clipping":0}
{"timestamp":188586865,"gyro_rad":[0.0054253135,-0.0054994067,-0.0035640097],"gyro_integral_dt":4983,"accelerometer_timestamp_relative":0,"accelerometer_m_s2":[0.0717842877,0.0733300894,-9.7466773987],"accelerometer_integral_dt":4983,"accelerometer_clipping":0}
{"timestamp":188588638,"gyro_rad":[0.0067819087,0.0098049901,0.0000715657],"gyro_integral_dt":4999,"accelerometer_timestamp_relative":0,"accelerometer_m_s2":[0.0016937535,0.0976382419,-9.813785553],"accelerometer_integral_dt":4999,"accelerometer_clipping":0}
{"timestamp":188596208,"gyro_rad":[-0.0018333491,0.001055132,-0.0004235153],"gyro_integral_dt":4994,"accelerometer_timestamp_relative":0,"accelerometer_m_s2":[0.0112162288,0.0498324856,-9.7801771164],"accelerometer_integral_dt":4994,"accelerometer_clipping":0}
{"timestamp":188603605,"gyro_rad":[0.0014339807,0.0066678561,-0.0000108283],"gyro_integral_dt":4997,"accelerometer_timestamp_relative":0,"accelerometer_m_s2":[-0.0600633733,0.0189055949,-9.7556257248],"accelerometer_integral_dt":4997,"accelerometer_clipping":0}
{"timestamp":188604908,"gyro_rad":[0.0096517792,0.0062938943,0.0012982348],"gyro_integral_dt":5003,"accelerometer_timestamp_relative":0,"accelerometer_m_s2":[-0.0338193774,-0.0326605812,-9.8008298874],"accelerometer_integral_dt":5003,"accelerometer_clipping":0}
{"timestamp":188616097,"gyro_rad":[0.0006844837,0.0001991453,-0.0003626292],"gyro_integral_dt":4985,"accelerometer_timestamp_relative":0,"accelerometer_m_s2":[-0.037111517,-0.0255147964,-9.7548780441],"accelerometer_integral_dt":4985,"accelerometer_clipping":0}
{"timestamp":188617180,"gyro_rad":[0.0000331559,0.0092681032,0.0015080657],"gyro_integral_dt":5019,"accelerometer_timestamp_relative":0,"accelerometer_m_s2":[-0.0181355122,-0.0465859324,-9.8047475815],"accelerometer_integral_dt":5019,"accelerometer_clipping":0}
{"timestamp":188624442,"gyro_rad":[0.0033100955,-0.0037302189,-0.0019449344],"gyro_integral_dt":4979,"accelerometer_timestamp_relative":0,"accelerometer_m_s2":[-0.0212182235,-0.0614512824,-9.745054245],"accelerometer_integral_dt":4979,"accelerometer_clipping":0}
{"timestamp":188625909,"gyro_rad":[0.0107512763,0.0102655776,0.0018824998],"gyro_integral_dt":4987,"accelerometer_timestamp_relative":0,"accelerometer_m_s2":[0.0502882451,-0.034234114,-9.7927026749],"accelerometer_integral_dt":4987,"accelerometer_clipping":0}
{"timestamp":188629812,"gyro_rad":[0.0028015238,-0.0058689849,-0.0017704356],"gyro_integral_dt":4995,"accelerometer_timestamp_relative":0,"accelerometer_m_s2":[0.0706206933,-0.0360408351,-9.8134155273],"accelerometer_integral_dt":4995,"accelerometer_clipping":0}
{"timestamp":188636609,"gyro_rad":[0.0022850696,0.0107340403,0.0004725573],"gyro_integral_dt":4995,"accelerometer_timestamp_relative":0,"accelerometer_m_s2":[0.0807838961,-0.021694269,-9.799161911],"accelerometer_integral_dt":4995,"accelerometer_clipping":0}
{"timestamp":188645220,"gyro_rad":[0.006305668,0.0006106084,0.0007560176],"gyro_integral_dt":4994,"accelerometer_timestamp_relative":0,"accelerometer_m_s2":[0.1146866977,-0.0091504082,-9.7515506744],"accelerometer_integral_dt":4994,"accelerometer_clipping":0}
{"timestamp":188646308,"gyro_rad":[0.0080902614,0.001899083,-0.0015077463],"gyro_integral_dt":4997,"accelerometer_timestamp_relative":0,"accelerometer_m_s2":[0.11300271,0.1024462134,-9.7819395065],"accelerometer_integral_dt":4997,"accelerometer_clipping":0}
{"timestamp":188650781,"gyro_rad":[0.0051345648,0.0068113077,0.0008799281],"gyro_integral_dt":4995,"accelerometer_timestamp_relative":0,"accelerometer_m_s2":[0.1382750869,0.0459944122,-9.818198204],"accelerometer_integral_dt":4995,"accelerometer_clipping":0}
{"timestamp":188656198,"gyro_rad":[-0.0007629879,-0.0023239926,-0.0009699597],"gyro_integral_dt":4996,"accelerometer_timestamp_relative":0,"accelerometer_m_s2":[0.094881326,0.1318228096,-9.8163080215],"accelerometer_integral_dt":4996,"accelerometer_clipping":0}
{"timestamp":188658666,"gyro_rad":[0.0068642753,0.0122964587,0.0009210545],"gyro_integral_dt":4994,"accelerometer_timestamp_relative":0,"accelerometer_m_s2":[0.0774821937,0.0624314584,-9.7380638123],"accelerometer_integral_dt":4994,"accelerometer_clipping":0}
{"timestamp":188666949,"gyro_rad":[0.007753626,-0.0088354927,-0.0019922389],"gyro_integral_dt":4995,"accelerometer_timestamp_relative":0,"accelerometer_m_s2":[0.0606168956,0.1251412183,-9.7496881485],"accelerometer_integral_dt":4995,"accelerometer_clipping":0}
{"timestamp":188675247,"gyro_rad":[-0.0002655355,0.0113363806,0.000170891],"gyro_integral_dt":4995,"accelerometer_timestamp_relative":0,"accelerometer_m_s2":[0.0023538105,0.0656649917,-9.8482074738],"accelerometer_integral_dt":4995,"accelerometer_clipping":0}
{"timestamp":188675796,"gyro_rad":[-0.0011561315,0.0004416614,-0.0009194072],"gyro_integral_dt":4995,"accelerometer_timestamp_relative":0,"accelerometer_m_s2":[0.0103544043,0.0649125874,-9.7460155487],"accelerometer_integral_dt":4995,"accelerometer_clipping":0}
{"timestamp":188678690,"gyro_rad":[0.0054541309,0.0051922384,-0.0003527105],"gyro_integral_dt":4994,"accelerometer_timestamp_relative":0,"accelerometer_m_s2":[-0.072522074,0.0128901908,-9.8089952469],"accelerometer_integral_dt":4994,"accelerometer_clipping":0}
{"timestamp":188704473,"gyro_rad":[0.0075506228,0.0048601283,0.002187296],"gyro_integral_dt":4996,"accelerometer_timestamp_relative":0,"accelerometer_m_s2":[-0.0105998944,-0.0236340128,-9.7539205551],"accelerometer_integral_dt":4996,"accelerometer_clipping":0}
{"timestamp":188707415,"gyro_rad":[-0.0032643524,-0.001915162,-0.0018281123],"gyro_integral_dt":4995,"accelerometer_timestamp_relative":0,"accelerometer_m_s2":[-0.0288560577,-0.0389533341,-9.7773036957],"accelerometer_integral_dt":4995,"accelerometer_clipping":0}
{"timestamp":188707888,"gyro_rad":[0.0050479644,0.0090905353,0.0022063619],"gyro_integral_dt":4996,"accelerometer_timestamp_relative":0,"accelerometer_m_s2":[-0.0089574074,-0.0756073147,-9.8052253723],"accelerometer_integral_dt":4996,"accelerometer_clipping":0}
{"timestamp":188706544,"gyro_rad":[0.0065908288,-0.0028058921,-0.0012471407],"gyro_integral_dt":4994,"accelerometer_timestamp_relative":0,"accelerometer_m_s2":[-0.0296177287,-0.0917894021,-9.7661123276],"accelerometer_integral_dt":4994,"accelerometer_clipping":0}
{"timestamp":188717257,"gyro_rad":[0.0066869534,0.007625727,0.0008361625],"gyro_integral_dt":5002,"accelerometer_timestamp_relative":0,"accelerometer_m_s2":[0.0885804519,-0.0564057343,-9.7739934921],"accelerometer_integral_dt":5002,"accelerometer_clipping":0}
{"timestamp":188716402,"gyro_rad":[0.0028713287,-0.0026241192,-0.0002274602],"gyro_integral_dt":4995,"accelerometer_timestamp_relative":0,"accelerometer_m_s2":[0.0439564213,-0.0173432641,-9.8069028854],"accelerometer_integral_dt":4995,"accelerometer_clipping":0}
{"timestamp":188717706,"gyro_rad":[0.0026856372,0.0072910376,-0.0007874753],"gyro_integral_dt":4992,"accelerometer_timestamp_relative":0,"accelerometer_m_s2":[0.1338282228,-0.0247905254,-9.7629795074],"accelerometer_integral_dt":4992,"accelerometer_clipping":0}
{"timestamp":188725171,"gyro_rad":[0.0098947417,0.0018817515,0.0010859803],"gyro_integral_dt":4999,"accelerometer_timestamp_relative":0,"accelerometer_m_s2":[0.0999106616,0.0875695199,-9.7717952728],"accelerometer_integral_dt":4999,"accelerometer_clipping":0}
{"timestamp":188735195,"gyro_rad":[0.0049829972,-0.0002324243,-0.001964085],"gyro_integral_dt":4987,"accelerometer_timestamp_relative":0,"accelerometer_m_s2":[0.0939262658,0.0706399456,-9.8081245422],"accelerometer_integral_dt":4987,"accelerometer_clipping":0}
{"timestamp":188734969,"gyro_rad":[0.0008298056,0.0086443042,0.0014857046],"gyro_integral_dt":4998,"accelerometer_timestamp_relative":0,"accelerometer_m_s2":[0.1192680672,0.0870382339,-9.7977371216],"accelerometer_integral_dt":4998,"accelerometer_clipping":0}
{"timestamp":188735320,"gyro_rad":[0.0037854044,0.0010489031,-0.0016997789],"gyro_integral_dt":4992,"accelerometer_timestamp_relative":0,"accelerometer_m_s2":[0.0534218773,0.0935264677,-9.7714185715],"accelerometer_integral_dt":4992,"accelerometer_clipping":0}
{"timestamp":188737378,"gyro_rad":[0.0099443812,0.0087030092,0.0019473035],"gyro_integral_dt":4998,"accelerometer_timestamp_relative":0,"accelerometer_m_s2":[0.0762645826,0.0829880312,-9.7506322861],"accelerometer_integral_dt":4998,"accelerometer_clipping":0}
{"timestamp":188755581,"gyro_rad":[0.0050569731,-0.0046045599,-0.0013352829],"gyro_integral_dt":4993,"accelerometer_timestamp_relative":0,"accelerometer_m_s2":[-0.0052275988,0.1016940325,-9.8242292404],"accelerometer_integral_dt":4993,"accelerometer_clipping":0}
{"timestamp":188754677,"gyro_rad":[-0.0029960151,0.0119694956,0.000164002],"gyro_integral_dt":4998,"accelerometer_timestamp_relative":0,"accelerometer_m_s2":[0.0151956072,0.0385024138,-9.7763710022],"accelerometer_integral_dt":4998,"accelerometer_clipping":0}
{"timestamp":188754861,"gyro_rad":[0.004439868,0.0002244066,0.0002372659],"gyro_integral_dt":4994,"accelerometer_timestamp_relative":0,"accelerometer_m_s2":[-0.0584058873,0.0315636545,-9.7689580917],"accelerometer_integral_dt":4994,"accelerometer_clipping":0}
{"timestamp":188760383,"gyro_rad":[0.0052586766,0.0038717738,-0.0014702722],"gyro_integral_dt":4992,"accelerometer_timestamp_relative":0,"accelerometer_m_s2":[-0.0531052202,-0.0035066337,-9.8028755188],"accelerometer_integral_dt":4992,"accelerometer_clipping":0}
{"timestamp":188767570,"gyro_rad":[0.0043950123,0.004935021,0.00262665],"gyro_integral_dt":4996,"accelerometer_timestamp_relative":0,"accelerometer_m_s2":[-0.0252391845,-0.035079021,-9.7672309875],"accelerometer_integral_dt":4996,"accelerometer_clipping":0}
{"timestamp":188774617,"gyro_rad":[-0.00324042,-0.0028058146,-0.0013201068],"gyro_integral_dt":4994,"accelerometer_timestamp_relative":0,"accelerometer_m_s2":[-0.0136496313,-0.0501122773,-9.8205299377],"accelerometer_integral_dt":4994,"accelerometer_clipping":0}
{"timestamp":188776697,"gyro_rad":[0.0072402665,0.0109482547,0.0024046476],"gyro_integral_dt":4995,"accelerometer_timestamp_relative":0,"accelerometer_m_s2":[-0.0252506491,-0.04931885,-9.7760448456],"accelerometer_integral_dt":4995,"accelerometer_clipping":0}
{"timestamp":188785731,"gyro_rad":[0.0083393706,-0.003890181,-0.0012168556],"gyro_integral_dt":4997,"accelerometer_timestamp_relative":0,"accelerometer_m_s2":[0.0586755835,-0.07105387,-9.7581329346],"accelerometer_integral_dt":4997,"accelerometer_clipping":0}
{"timestamp":188785923,"gyro_rad":[0.0038848768,0.0066841999,0.0004820989],"gyro_integral_dt":4991,"accelerometer_timestamp_relative":0,"accelerometer_m_s2":[0.0610556044,-0.0424714833,-9.8224954605],"accelerometer_integral_dt":4991,"accelerometer_clipping":0}
{"timestamp":188789833,"gyro_rad":[0.0030920648,0.0021967352,-0.0002870072],"gyro_integral_dt":4997,"accelerometer_timestamp_relative":0,"accelerometer_m_s2":[0.1108951718,0.0107759601,-9.771355629],"accelerometer_integral_dt":4997,"accelerometer_clipping":0}
{"timestamp":188794714,"gyro_rad":[0.0045304047,0.0035131988,-0.0021507482],"gyro_integral_dt":4996,"accelerometer_timestamp_relative":0,"accelerometer_m_s2":[0.1060852185,-0.0075083897,-9.7462501526],"accelerometer_integral_dt":4996,"accelerometer_clipping":0}
{"timestamp":188796131,"gyro_rad":[0.0110719232,0.0032426547,0.0008857935],"gyro_integral_dt":4994,"accelerometer_timestamp_relative":0,"accelerometer_m_s2":[0.1225710958,0.0963692963,-9.794254303],"accelerometer_integral_dt":4994,"accelerometer_clipping":0}
{"timestamp":188804518,"gyro_rad":[-0.0006599182,-0.0010221703,-0.0013780191],"gyro_integral_dt":4995,"accelerometer_timestamp_relative":0,"accelerometer_m_s2":[0.1407778114,0.059053272,-9.7895708084],"accelerometer_integral_dt":4995,"accelerometer_clipping":0}
{"timestamp":188814828,"gyro_rad":[0.003253764,0.0113663515,0.0016094539],"gyro_integral_dt":4993,"accelerometer_timestamp_relative":0,"accelerometer_m_s2":[0.0761227831,0.1046193466,-9.801484108],"accelerometer_integral_dt":4993,"accelerometer_clipping":0}
{"timestamp":188815098,"gyro_rad":[0.00479483,-0.0015971191,-0.0026894815],"gyro_integral_dt":5008,"accelerometer_timestamp_relative":0,"accelerometer_m_s2":[0.0775141865,0.0773239732,-9.7582063675],"accelerometer_integral_dt":5008,"accelerometer_clipping":0}
{"timestamp":188824734,"gyro_rad":[0.0087291757,0.0068723131,0.0014994876],"gyro_integral_dt":4984,"accelerometer_timestamp_relative":0,"accelerometer_m_s2":[0.0498380028,0.1271372736,-9.7545967102],"accelerometer_integral_dt":4984,"accelerometer_clipping":0}
{"timestamp":188825499,"gyro_rad":[0.0023132216,0.0004391136,-0.0008497703],"gyro_integral_dt":4999,"accelerometer_timestamp_relative":0,"accelerometer_m_s2":[0.0070350892,0.0419134907,-9.8283586502],"accelerometer_integral_dt":4999,"accelerometer_clipping":0}
{"timestamp":188828117,"gyro_rad":[-0.0021717816,0.0079018492,-0.0005315861],"gyro_integral_dt":4992,"accelerometer_timestamp_relative":0,"accelerometer_m_s2":[-0.0119323339,0.028108811,-9.7476892471],"accelerometer_integral_dt":4992,"accelerometer_clipping":0}
{"timestamp":188845218,"gyro_rad":[0.0077269422,0.0014386544,-0.00057348],"gyro_integral_dt":4996,"accelerometer_timestamp_relative":0,"accelerometer_m_s2":[-0.0708869472,0.0152978199,-9.80327034],"accelerometer_integral_dt":4996,"accelerometer_clipping":0}
{"timestamp":188844151,"gyro_rad":[0.0043928754,0.0005430548,-0.0005389953],"gyro_integral_dt":4993,"accelerometer_timestamp_relative":0,"accelerometer_m_s2":[-0.0400313064,-0.0286886804,-9.7568740845],"accelerometer_integral_dt":4993,"accelerometer_clipping":0}
{"timestamp":188843452,"gyro_rad":[0.0018558475,0.0098768026,0.0016610974],"gyro_integral_dt":4996,"accelerometer_timestamp_relative":0,"accelerometer_m_s2":[-0.048476465,-0.0417623147,-9.7848482132],"accelerometer_integral_dt":4996,"accelerometer_clipping":0}
{"timestamp":188860200,"gyro_rad":[-0.0018781461,-0.0039170538,-0.0013541399],"gyro_integral_dt":4996,"accelerometer_timestamp_relative":0,"accelerometer_m_s2":[-0.0167741571,-0.0603963323,-9.7548284531],"accelerometer_integral_dt":4996,"accelerometer_clipping":0}
{"timestamp":188859691,"gyro_rad":[0.0114648361,0.0127035277,0.0020060819],"gyro_integral_dt":4991,"accelerometer_timestamp_relative":0,"accelerometer_m_s2":[-0.019167142,-0.0289830249,-9.7996749878],"accelerometer_integral_dt":4991,"accelerometer_clipping":0}
{"timestamp":188860774,"gyro_rad":[0.0055254432,-0.0060539627,-0.0016769465],"gyro_integral_dt":4999,"accelerometer_timestamp_relative":0,"accelerometer_m_s2":[0.0908062384,-0.0654729456,-9.806552887],"accelerometer_integral_dt":4999,"accelerometer_clipping":0}
{"timestamp":188864695,"gyro_rad":[0.0013369058,0.0100665689,0.000901951],"gyro_integral_dt":4994,"accelerometer_timestamp_relative":0,"accelerometer_m_s2":[0.0420740433,0.0207418445,-9.7988386154],"accelerometer_integral_dt":4994,"accelerometer_clipping":0}
{"timestamp":188875550,"gyro_rad":[0.0049935961,0.0007534199,-0.0010917288],"gyro_integral_dt":4995,"accelerometer_timestamp_relative":0,"accelerometer_m_s2":[0.1242449284,-0.0284329113,-9.7652711868],"accelerometer_integral_dt":4995,"accelerometer_clipping":0}
{"timestamp":188882135,"gyro_rad":[0.0069286539,0.0024306208,-0.0014035486],"gyro_integral_dt":4995,"accelerometer_timestamp_relative":0,"accelerometer_m_s2":[0.1100261211,0.0727160126,-9.7578029633],"accelerometer_integral_dt":4995,"accelerometer_clipping":0}
{"timestamp":188884315,"gyro_rad":[0.0086884405,0.0059375381,0.0012858369],"gyro_integral_dt":4993,"accelerometer_timestamp_relative":0,"accelerometer_m_s2":[0.1259938776,0.0597361512,-9.8087558746],"accelerometer_integral_dt":4993,"accelerometer_clipping":0}
{"timestamp":188884453,"gyro_rad":[-0.0033178444,-0.0015422213,-0.0016178857],"gyro_integral_dt":4997,"accelerometer_timestamp_relative":0,"accelerometer_m_s2":[0.0990170985,0.0981988534,-9.797785759],"accelerometer_integral_dt":4997,"accelerometer_clipping":0}
{"timestamp":188895229,"gyro_rad":[0.0066628517,0.0138622802,0.0015724655],"gyro_integral_dt":4993,"accelerometer_timestamp_relative":0,"accelerometer_m_s2":[0.0790552497,0.0791601315,-9.7923946381],"accelerometer_integral_dt":4993,"accelerometer_clipping":0}
{"timestamp":188895408,"gyro_rad":[0.0055177757,-0.0067568705,-0.001858519],"gyro_integral_dt":4997,"accelerometer_timestamp_relative":0,"accelerometer_m_s2":[0.0794038549,0.0980041325,-9.7560958862],"accelerometer_integral_dt":4997,"accelerometer_clipping":0}
{"timestamp":188904065,"gyro_rad":[0.0059186658,0.0117782159,0.000103788],"gyro_integral_dt":4996,"accelerometer_timestamp_relative":0,"accelerometer_m_s2":[-0.0111230453,0.1134660691,-9.831530571],"accelerometer_integral_dt":4996,"accelerometer_clipping":0}
{"timestamp":188905241,"gyro_rad":[-0.0023027882,-0.0004961323,-0.0002552483],"gyro_integral_dt":4997,"accelerometer_timestamp_relative":0,"accelerometer_m_s2":[0.018334223,0.0330073908,-9.7447242737],"accelerometer_integral_dt":4997,"accelerometer_clipping":0}
{"timestamp":188915744,"gyro_rad":[0.0033538535,0.0058254311,-0.0014400274],"gyro_integral_dt":4992,"accelerometer_timestamp_relative":0,"accelerometer_m_s2":[-0.0597564317,0.044200357,-9.7854003906],"accelerometer_integral_dt":4992,"accelerometer_clipping":0}
{"timestamp":188916248,"gyro_rad":[0.0104448982,0.0038941426,0.0010898809],"gyro_integral_dt":4995,"accelerometer_timestamp_relative":0,"accelerometer_m_s2":[-0.0008139665,-0.0175502505,-9.8097419739],"accelerometer_integral_dt":4995,"accelerometer_clipping":0}
{"timestamp":188923929,"gyro_rad":[-0.0002309543,-0.0000161427,-0.0022994417],"gyro_integral_dt":4995,"accelerometer_timestamp_relative":0,"accelerometer_m_s2":[-0.0257937722,-0.0188750625,-9.7562294006],"accelerometer_integral_dt":4995,"accelerometer_clipping":0}
{"timestamp":188924764,"gyro_rad":[0.0024135786,0.0094167236,0.000597342],"gyro_integral_dt":4995,"accelerometer_timestamp_relative":0,"accelerometer_m_s2":[0.0019220632,-0.0806883499,-9.805598259],"accelerometer_integral_dt":4995,"accelerometer_clipping":0}
{"timestamp":188935265,"gyro_rad":[0.0037643993,-0.0025750322,-0.0024256587],"gyro_integral_dt":4998,"accelerometer_timestamp_relative":0,"accelerometer_m_s2":[-0.0448688976,-0.061522983,-9.7532072067],"accelerometer_integral_dt":4998,"accelerometer_clipping":0}
{"timestamp":188935921,"gyro_rad":[0.0088043883,0.0101589095,-0.0009218208],"gyro_integral_dt":4992,"accelerometer_timestamp_relative":0,"accelerometer_m_s2":[0.0582350455,-0.0714720488,-9.7866268158],"accelerometer_integral_dt":4992,"accelerometer_clipping":0}
{"timestamp":188938286,"gyro_rad":[0.0012329575,-0.0067482241,-0.0018303753],"gyro_integral_dt":4993,"accelerometer_timestamp_relative":0,"accelerometer_m_s2":[0.0527616963,-0.0335961282,-9.8175096512],"accelerometer_integral_dt":4993,"accelerometer_clipping":0}
{"timestamp":188949854,"gyro_rad":[0.0022399288,0.0110768117,-0.0005157126],"gyro_integral_dt":4997,"accelerometer_timestamp_relative":0,"accelerometer_m_s2":[0.0907689035,-0.0171017814,-9.7702150345],"accelerometer_integral_dt":4997,"accelerometer_clipping":0}
{"timestamp":188950396,"gyro_rad":[0.0068007535,-0.001269452,0.0003633051],"gyro_integral_dt":4996,"accelerometer_timestamp_relative":0,"accelerometer_m_s2":[0.117860727,-0.0030044366,-9.7449150085],"accelerometer_integral_dt":4996,"accelerometer_clipping":0}
{"timestamp":188955914,"gyro_rad":[0.0073185125,0.0014267039,-0.0009476329],"gyro_integral_dt":4995,"accelerometer_timestamp_relative":0,"accelerometer_m_s2":[0.0944387391,0.0831052512,-9.8033857346],"accelerometer_integral_dt":4995,"accelerometer_clipping":0}
{"timestamp":188958830,"gyro_rad":[0.0041621891,0.0067652264,0.0015108709],"gyro_integral_dt":4993,"accelerometer_timestamp_relative":0,"accelerometer_m_s2":[0.1590061784,0.0570893288,-9.8198690414],"accelerometer_integral_dt":4993,"accelerometer_clipping":0}
{"timestamp":188968230,"gyro_rad":[0.0000921906,-0.000240174,-0.0017960417],"gyro_integral_dt":4994,"accelerometer_timestamp_relative":0,"accelerometer_m_s2":[0.0796736628,0.1037837937,-9.7863969803],"accelerometer_integral_dt":4994,"accelerometer_clipping":0}
{"timestamp":188968084,"gyro_rad":[0.0065006628,0.0122565581,0.0016186732],"gyro_integral_dt":5001,"accelerometer_timestamp_relative":0,"accelerometer_m_s2":[0.0846985057,0.0539677553,-9.7563810349],"accelerometer_integral_dt":5001,"accelerometer_clipping":0}
{"timestamp":188976191,"gyro_rad":[0.0078092343,-0.0083554992,-0.0010094421],"gyro_integral_dt":4995,"accelerometer_timestamp_relative":0,"accelerometer_m_s2":[0.0342367999,0.1225393936,-9.7536935806],"accelerometer_integral_dt":4995,"accelerometer_clipping":0}
{"timestamp":188984866,"gyro_rad":[-0.0003167376,0.0114842635,0.0015273317],"gyro_integral_dt":4993,"accelerometer_timestamp_relative":0,"accelerometer_m_s2":[-0.006506613,0.0479001477,-9.8717355728],"accelerometer_integral_dt":4993,"accelerometer_clipping":0}
{"timestamp":188989438,"gyro_rad":[0.0006507886,0.00063558,-0.0007229135],"gyro_integral_dt":4995,"accelerometer_timestamp_relative":0,"accelerometer_m_s2":[-0.0010635785,0.0470097773,-9.7512636185],"accelerometer_integral_dt":4995,"accelerometer_clipping":0}
{"timestamp":188989464,"gyro_rad":[0.0050249686,0.0045795618,-0.0011818524],"gyro_integral_dt":4997,"accelerometer_timestamp_relative":0,"accelerometer_m_s2":[-0.066147238,-0.0055174986,-9.7891893387],"accelerometer_integral_dt":4997,"accelerometer_clipping":0}
{"timestamp":188995972,"gyro_rad":[0.0080605745,0.0028378968,0.0012337876],"gyro_integral_dt":4992,"accelerometer_timestamp_relative":0,"accelerometer_m_s2":[-0.0292723607,-0.0463200584,-9.7527198792],"accelerometer_integral_dt":4992,"accelerometer_clipping":0}
{"timestamp":189004872,"gyro_rad":[-0.0033142241,-0.0010078987,-0.0026729195],"gyro_integral_dt":4995,"accelerometer_timestamp_relative":0,"accelerometer_m_s2":[-0.0720558017,-0.0179370288,-9.7908973694],"accelerometer_integral_dt":4995,"accelerometer_clipping":0}
{"timestamp":189004638,"gyro_rad":[0.0038217858,0.0092049139,0.001575917],"gyro_integral_dt":4995,"accelerometer_timestamp_relative":0,"accelerometer_m_s2":[-0.0116655724,-0.0773483813,-9.7967386246],"accelerometer_integral_dt":4995,"accelerometer_clipping":0}
{"timestamp":189013895,"gyro_rad":[0.0068186256,-0.0027084569,-0.0024452028],"gyro_integral_dt":4998,"accelerometer_timestamp_relative":0,"accelerometer_m_s2":[-0.0192743689,-0.0400396772,-9.7421092987],"accelerometer_integral_dt":4998,"accelerometer_clipping":0}
{"timestamp":189014166,"gyro_rad":[0.0074038445,0.0079246927,0.0009059941],"gyro_integral_dt":4992,"accelerometer_timestamp_relative":0,"accelerometer_m_s2":[0.0854673758,-0.0517098792,-9.7940883636],"accelerometer_integral_dt":4992,"accelerometer_clipping":0}
{"timestamp":189019972,"gyro_rad":[0.0023770442,-0.0029761151,-0.001550458],"gyro_integral_dt":4996,"accelerometer_timestamp_relative":0,"accelerometer_m_s2":[0.0692707077,-0.0103276577,-9.8060970306],"accelerometer_integral_dt":4996,"accelerometer_clipping":0}
{"timestamp":189025376,"gyro_rad":[0.0033756117,0.0083648069,-0.0003977085],"gyro_integral_dt":4995,"accelerometer_timestamp_relative":0,"accelerometer_m_s2":[0.1381416619,-0.0340274386,-9.7819414139],"accelerometer_integral_dt":4995,"accelerometer_clipping":0}
{"timestamp":189035245,"gyro_rad":[0.0092656976,0.0014982941,-0.001141479],"gyro_integral_dt":4994,"accelerometer_timestamp_relative":0,"accelerometer_m_s2":[0.1145543978,0.0804870874,-9.7691106796],"accelerometer_integral_dt":4994,"accelerometer_clipping":0}
{"timestamp":189043118,"gyro_rad":[0.0045782919,0.0010078002,-0.0025374915],"gyro_integral_dt":4996,"accelerometer_timestamp_relative":0,"accelerometer_m_s2":[0.1241457686,0.0802654028,-9.8035802841],"accelerometer_integral_dt":4996,"accelerometer_clipping":0}
{"timestamp":189044537,"gyro_rad":[0.0002745197,0.0081084017,0.0006077131],"gyro_integral_dt":4994,"accelerometer_timestamp_relative":0,"accelerometer_m_s2":[0.0966844335,0.0729985684,-9.7985591888],"accelerometer_integral_dt":4994,"accelerometer_clipping":0}
{"timestamp":189045138,"gyro_rad":[0.0025735761,-0.0001215802,-0.0024551216],"gyro_integral_dt":4995,"accelerometer_timestamp_relative":0,"accelerometer_m_s2":[0.0617944673,0.0921370685,-9.7913961411],"accelerometer_integral_dt":4995,"accelerometer_clipping":0}
{"timestamp":189055051,"gyro_rad":[0.0088938503,0.0088583548,0.0009645023],"gyro_integral_dt":4995,"accelerometer_timestamp_relative":0,"accelerometer_m_s2":[0.0742560551,0.0877396911,-9.7605953217],"accelerometer_integral_dt":4995,"accelerometer_clipping":0}
{"timestamp":189055530,"gyro_rad":[0.0034878638,-0.0036072766,-0.0013475458],"gyro_integral_dt":4996,"accelerometer_timestamp_relative":0,"accelerometer_m_s2":[-0.0071059796,0.1061416939,-9.8069200516],"accelerometer_integral_dt":4996,"accelerometer_clipping":0}
{"timestamp":189060417,"gyro_rad":[-0.0035400824,0.0102712316,-0.0003421278],"gyro_integral_dt":4992,"accelerometer_timestamp_relative":0,"accelerometer_m_s2":[0.0206921473,0.0325871818,-9.7678146362],"accelerometer_integral_dt":4992,"accelerometer_clipping":0}
{"timestamp":189075780,"gyro_rad":[0.0055763097,0.0004866736,-0.0000789342],"gyro_integral_dt":4997,"accelerometer_timestamp_relative":0,"accelerometer_m_s2":[-0.0784003213,0.0017479331,-9.7605676651],"accelerometer_integral_dt":4997,"accelerometer_clipping":0}
{"timestamp":189076130,"gyro_rad":[0.0052203219,0.0042742975,-0.0005649588],"gyro_integral_dt":4998,"accelerometer_timestamp_relative":0,"accelerometer_m_s2":[-0.053658288,-0.0125057697,-9.828953743],"accelerometer_integral_dt":4998,"accelerometer_clipping":0}
{"timestamp":189084825,"gyro_rad":[0.0048742006,0.0065066447,0.0005059421],"gyro_integral_dt":4992,"accelerometer_timestamp_relative":0,"accelerometer_m_s2":[-0.0460534878,-0.0252435356,-9.7649555206],"accelerometer_integral_dt":4992,"accelerometer_clipping":0}
{"timestamp":189084440,"gyro_rad":[-0.0036808446,-0.0023698227,-0.0023204549],"gyro_integral_dt":4995,"accelerometer_timestamp_relative":0,"accelerometer_m_s2":[0.0047737565,-0.0672240406,-9.7767019272],"accelerometer_integral_dt":4995,"accelerometer_clipping":0}
{"timestamp":189095433,"gyro_rad":[0.008665124,0.0118643828,0.0017792338],"gyro_integral_dt":4993,"accelerometer_timestamp_relative":0,"accelerometer_m_s2":[-0.0466223173,-0.0399838649,-9.76583004],"accelerometer_integral_dt":4993,"accelerometer_clipping":0}
{"timestamp":189096352,"gyro_rad":[0.0075100902,-0.0024222063,-0.0011676553],"gyro_integral_dt":4999,"accelerometer_timestamp_relative":0,"accelerometer_m_s2":[0.0561033711,-0.0735595599,-9.7619771957],"accelerometer_integral_dt":4999,"accelerometer_clipping":0}
{"timestamp":189096552,"gyro_rad":[0.002560813,0.0080827503,0.000501783],"gyro_integral_dt":4993,"accelerometer_timestamp_relative":0,"accelerometer_m_s2":[0.0409458652,-0.0013593925,-9.8328847885],"accelerometer_integral_dt":4993,"accelerometer_clipping":0}
{"timestamp":189103229,"gyro_rad":[0.0047663352,0.0015269235,-0.0012491163],"gyro_integral_dt":4996,"accelerometer_timestamp_relative":0,"accelerometer_m_s2":[0.1294819862,-0.0317041762,-9.7633628845],"accelerometer_integral_dt":4996,"accelerometer_clipping":0}
{"timestamp":189125411,"gyro_rad":[0.0047016554,0.0053798459,-0.0018655824],"gyro_integral_dt":4994,"accelerometer_timestamp_relative":0,"accelerometer_m_s2":[0.1070103124,0.019842878,-9.7535657883],"accelerometer_integral_dt":4994,"accelerometer_clipping":0}
{"timestamp":189125022,"gyro_rad":[0.0100709768,0.0037362948,0.001273371],"gyro_integral_dt":4996,"accelerometer_timestamp_relative":0,"accelerometer_m_s2":[0.1158503741,0.0648484305,-9.8114967346],"accelerometer_integral_dt":4996,"accelerometer_clipping":0}
{"timestamp":189125651,"gyro_rad":[-0.0008517752,-0.0009609962,-0.0020129173],"gyro_integral_dt":4995,"accelerometer_timestamp_relative":0,"accelerometer_m_s2":[0.1210581139,0.0858475268,-9.7989044189],"accelerometer_integral_dt":4995,"accelerometer_clipping":0}
{"timestamp":189124929,"gyro_rad":[0.0035045156,0.0099946698,0.0003229904],"gyro_integral_dt":4995,"accelerometer_timestamp_relative":0,"accelerometer_m_s2":[0.0873593241,0.0962994695,-9.8082103729],"accelerometer_integral_dt":4995,"accelerometer_clipping":0}
{"timestamp":189125952,"gyro_rad":[0.0056718797,-0.0004104409,-0.001799273],"gyro_integral_dt":4995,"accelerometer_timestamp_relative":0,"accelerometer_m_s2":[0.0813047588,0.0727145299,-9.748336792],"accelerometer_integral_dt":4995,"accelerometer_clipping":0}
{"timestamp":189129495,"gyro_rad":[0.0084868418,0.0076933922,0.0016128188],"gyro_integral_dt":4995,"accelerometer_timestamp_relative":0,"accelerometer_m_s2":[0.0652564764,0.117771484,-9.7742204666],"accelerometer_integral_dt":4995,"accelerometer_clipping":0}
{"timestamp":189144266,"gyro_rad":[-0.0009970068,-0.0003041466,-0.0016484582],"gyro_integral_dt":5002,"accelerometer_timestamp_relative":0,"accelerometer_m_s2":[0.0249097534,0.0645116568,-9.8399477005],"accelerometer_integral_dt":5002,"accelerometer_clipping":0}
{"timestamp":189144173,"gyro_rad":[-0.0022051833,0.0093611106,0.0002589003],"gyro_integral_dt":4988,"accelerometer_timestamp_relative":0,"accelerometer_m_s2":[0.0055449088,0.0272442717,-9.7396621704],"accelerometer_integral_dt":4988,"accelerometer_clipping":0}
{"timestamp":189144829,"gyro_rad":[0.0085498905,0.0014916946,-0.0002209763],"gyro_integral_dt":4994,"accelerometer_timestamp_relative":0,"accelerometer_m_s2":[-0.0578140616,0.0309809521,-9.7981309891],"accelerometer_integral_dt":4994,"accelerometer_clipping":0}
{"timestamp":189154971,"gyro_rad":[0.0015887263,0.0007234836,-0.0001355975],"gyro_integral_dt":4996,"accelerometer_timestamp_relative":0,"accelerometer_m_s2":[-0.0215051211,-0.0462977923,-9.7552843094],"accelerometer_integral_dt":4996,"accelerometer_clipping":0}
{"timestamp":189155829,"gyro_rad":[-0.0000896167,0.0085228132,0.0015463767],"gyro_integral_dt":4996,"accelerometer_timestamp_relative":0,"accelerometer_m_s2":[-0.0248047411,0.0089717982,-9.7857255936],"accelerometer_integral_dt":4996,"accelerometer_clipping":0}
{"timestamp":189160951,"gyro_rad":[0.0007882103,-0.0028920837,-0.002389709],"gyro_integral_dt":4994,"accelerometer_timestamp_relative":0,"accelerometer_m_s2":[-0.0031472663,-0.0839191228,-9.7763414383],"accelerometer_integral_dt":4994,"accelerometer_clipping":0}
{"timestamp":189163417,"gyro_rad":[0.0096310312,0.0132526532,0.0010975025],"gyro_integral_dt":4995,"accelerometer_timestamp_relative":0,"accelerometer_m_s2":[-0.0351135135,-0.0275189783,-9.7949752808],"accelerometer_integral_dt":4995,"accelerometer_clipping":0}
{"timestamp":189176486,"gyro_rad":[0.0032557175,-0.0076203067,-0.0010677174],"gyro_integral_dt":4995,"accelerometer_timestamp_relative":0,"accelerometer_m_s2":[0.0860629901,-0.0485839956,-9.782160759],"accelerometer_integral_dt":4995,"accelerometer_clipping":0}
{"timestamp":189176894,"gyro_rad":[0.0023234684,0.0105287256,0.0013397587],"gyro_integral_dt":5004,"accelerometer_timestamp_relative":0,"accelerometer_m_s2":[0.0651509464,-0.0016958596,-9.7922115326],"accelerometer_integral_dt":5004,"accelerometer_clipping":0}
{"timestamp":189182775,"gyro_rad":[0.0052539906,-0.0009682995,0.0001356835],"gyro_integral_dt":4986,"accelerometer_timestamp_relative":0,"accelerometer_m_s2":[0.1470472515,-0.0325941555,-9.7452926636],"accelerometer_integral_dt":4986,"accelerometer_clipping":0}
{"timestamp":189195221,"gyro_rad":[0.0089065162,0.0044588088,0.0012039208],"gyro_integral_dt":4995,"accelerometer_timestamp_relative":0,"accelerometer_m_s2":[0.1460807174,0.0498028621,-9.8348903656],"accelerometer_integral_dt":4995,"accelerometer_clipping":0}
{"timestamp":189209657,"gyro_rad":[-0.0035476591,-0.0029703586,-0.0024207679],"gyro_integral_dt":4995,"accelerometer_timestamp_relative":0,"accelerometer_m_s2":[0.1014837176,0.1070928648,-9.7963924408],"accelerometer_integral_dt":4995,"accelerometer_clipping":0}
{"timestamp":189209726,"gyro_rad":[0.007089695,0.0137417857,0.0009319671],"gyro_integral_dt":4998,"accelerometer_timestamp_relative":0,"accelerometer_m_s2":[0.0923525989,0.098970212,-9.7747764587],"accelerometer_integral_dt":4998,"accelerometer_clipping":0}
{"timestamp":189210575,"gyro_rad":[0.007419189,-0.0069259307,-0.0017493919],"gyro_integral_dt":4993,"accelerometer_timestamp_relative":0,"accelerometer_m_s2":[0.0745408311,0.1002068147,-9.7460412979],"accelerometer_integral_dt":4993,"accelerometer_clipping":0}
{"timestamp":189209743,"gyro_rad":[0.0036520923,0.0111719398,0.0008282379],"gyro_integral_dt":4994,"accelerometer_timestamp_relative":0,"accelerometer_m_s2":[0.0199630316,0.0965748131,-9.8593559265],"accelerometer_integral_dt":4994,"accelerometer_clipping":0}
{"timestamp":189216193,"gyro_rad":[-0.0034869674,-0.0000924624,-0.0008428799],"gyro_integral_dt":4996,"accelerometer_timestamp_relative":0,"accelerometer_m_s2":[0.0213717949,0.0388233736,-9.7492055893],"accelerometer_integral_dt":4996,"accelerometer_clipping":0}
{"timestamp":189225075,"gyro_rad":[0.003096109,0.0048820074,-0.000395883],"gyro_integral_dt":4994,"accelerometer_timestamp_relative":0,"accelerometer_m_s2":[-0.0680096596,0.038227845,-9.7881221771],"accelerometer_integral_dt":4994,"accelerometer_clipping":0}
{"timestamp":189225969,"gyro_rad":[0.0104759298,0.0026091582,0.0009729528],"gyro_integral_dt":4996,"accelerometer_timestamp_relative":0,"accelerometer_m_s2":[-0.0257775206,-0.0199594218,-9.7954959869],"accelerometer_integral_dt":4996,"accelerometer_clipping":0}
{"timestamp":189235021,"gyro_rad":[0.0010886047,-0.0012658383,-0.0017272007],"gyro_integral_dt":4992,"accelerometer_timestamp_relative":0,"accelerometer_m_s2":[-0.0321768187,-0.0155123575,-9.7652816772],"accelerometer_integral_dt":4992,"accelerometer_clipping":0}
{"timestamp":189243979,"gyro_rad":[0.0022365253,0.0092532923,0.0007419567],"gyro_integral_dt":4995,"accelerometer_timestamp_relative":0,"accelerometer_m_s2":[-0.00413532,-0.07016965,-9.8308868408],"accelerometer_integral_dt":4995,"accelerometer_clipping":0}
{"timestamp":189245235,"gyro_rad":[0.0036927036,-0.0039255992,-0.001764018],"gyro_integral_dt":4997,"accelerometer_timestamp_relative":0,"accelerometer_m_s2":[-0.013209668,-0.0604695231,-9.7398633957],"accelerometer_integral_dt":4997,"accelerometer_clipping":0}
{"timestamp":189254939,"gyro_rad":[0.0091785612,0.0097670276,0.0018337558],"gyro_integral_dt":4994,"accelerometer_timestamp_relative":0,"accelerometer_m_s2":[0.0503878891,-0.0431179591,-9.8051052094],"accelerometer_integral_dt":4994,"accelerometer_clipping":0}
{"timestamp":189254501,"gyro_rad":[0.0023268103,-0.006656318,-0.0008699995],"gyro_integral_dt":4996,"accelerometer_timestamp_relative":0,"accelerometer_m_s2":[0.0408881269,-0.0286907908,-9.79662323],"accelerometer_integral_dt":4996,"accelerometer_clipping":0}
{"timestamp":189255186,"gyro_rad":[0.0022170008,0.0108327502,-0.0007138948],"gyro_integral_dt":4995,"accelerometer_timestamp_relative":0,"accelerometer_m_s2":[0.1008465588,0.0077151614,-9.7881641388],"accelerometer_integral_dt":4995,"accelerometer_clipping":0}
{"timestamp":189258356,"gyro_rad":[0.0094381934,0.0005893089,0.000366341],"gyro_integral_dt":4993,"accelerometer_timestamp_relative":0,"accelerometer_m_s2":[0.1051467136,0.0066443128,-9.7510299683],"accelerometer_integral_dt":4993,"accelerometer_clipping":0}
{"timestamp":189269926,"gyro_rad":[0.0057785609,0.0017049348,0.0002356961],"gyro_integral_dt":4997,"accelerometer_timestamp_relative":0,"accelerometer_m_s2":[0.1024062485,0.0884223059,-9.7845506668],"accelerometer_integral_dt":4997,"accelerometer_clipping":0}
{"timestamp":189269568,"gyro_rad":[0.0030439431,0.0065882164,0.0022277089],"gyro_integral_dt":4995,"accelerometer_timestamp_relative":0,"accelerometer_m_s2":[0.1307043582,0.0649965033,-9.7947845459],"accelerometer_integral_dt":4995,"accelerometer_clipping":0}
{"timestamp":189281943,"gyro_rad":[0.0000955052,-0.0006936693,-0.0017206365],"gyro_integral_dt":4995,"accelerometer_timestamp_relative":0,"accelerometer_m_s2":[0.0702554509,0.1129260287,-9.7806396484],"accelerometer_integral_dt":4995,"accelerometer_clipping":0}
{"timestamp":189282276,"gyro_rad":[0.0069090519,0.0107039539,0.0017321475],"gyro_integral_dt":4996,"accelerometer_timestamp_relative":0,"accelerometer_m_s2":[0.0769336224,0.0651401132,-9.7605113983],"accelerometer_integral_dt":4996,"accelerometer_clipping":0}
{"timestamp":189295594,"gyro_rad":[0.0082634473,-0.0060554878,-0.0016679388],"gyro_integral_dt":4995,"accelerometer_timestamp_relative":0,"accelerometer_m_s2":[0.0414474383,0.1377325207,-9.7615394592],"accelerometer_integral_dt":4995,"accelerometer_clipping":0}
{"timestamp":189295311,"gyro_rad":[0.000280564,0.0133677311,0.000002107],"gyro_integral_dt":4994,"accelerometer_timestamp_relative":0,"accelerometer_m_s2":[-0.0079525011,0.04150353,-9.8606987],"accelerometer_integral_dt":4994,"accelerometer_clipping":0}
{"timestamp":189305077,"gyro_rad":[0.0012412198,-0.0004336945,0.0012651418],"gyro_integral_dt":4996,"accelerometer_timestamp_relative":0,"accelerometer_m_s2":[-0.0066743656,0.0360756665,-9.7249288559],"accelerometer_integral_dt":4996,"accelerometer_clipping":0}
{"timestamp":189305505,"gyro_rad":[0.005624067,0.0055145761,-0.0006183739],"gyro_integral_dt":4994,"accelerometer_timestamp_relative":0,"accelerometer_m_s2":[-0.0671558976,0.006685291,-9.7901573181],"accelerometer_integral_dt":4994,"accelerometer_clipping":0}
{"timestamp":189314855,"gyro_rad":[0.0069446517,0.002525581,0.0016006029],"gyro_integral_dt":4995,"accelerometer_timestamp_relative":0,"accelerometer_m_s2":[-0.0173971169,-0.0342769995,-9.7777309418],"accelerometer_integral_dt":4995,"accelerometer_clipping":0}
{"timestamp":189315035,"gyro_rad":[-0.0029683779,0.0002416617,-0.000715849],"gyro_integral_dt":4995,"accelerometer_timestamp_relative":0,"accelerometer_m_s2":[-0.0647317842,-0.0354082361,-9.7961864471],"accelerometer_integral_dt":4995,"accelerometer_clipping":0}
{"timestamp":189315732,"gyro_rad":[0.0044490341,0.0091460068,0.0015879647],"gyro_integral_dt":4993,"accelerometer_timestamp_relative":0,"accelerometer_m_s2":[0.0028791558,-0.0624159202,-9.7940559387],"accelerometer_integral_dt":4993,"accelerometer_clipping":0}
{"timestamp":189321475,"gyro_rad":[0.0069336332,-0.0032905373,-0.0013396982],"gyro_integral_dt":4998,"accelerometer_timestamp_relative":0,"accelerometer_m_s2":[-0.0251184776,-0.0481547378,-9.7415084839],"accelerometer_integral_dt":4998,"accelerometer_clipping":0}
{"timestamp":189321782,"gyro_rad":[0.0054121697,0.0083302399,0.0009370545],"gyro_integral_dt":4994,"accelerometer_timestamp_relative":0,"accelerometer_m_s2":[0.0740966201,-0.0587461367,-9.7982759476],"accelerometer_integral_dt":4994,"accelerometer_clipping":0}
{"timestamp":189325910,"gyro_rad":[0.0029053336,-0.0012465437,-0.0009723488],"gyro_integral_dt":4995,"accelerometer_timestamp_relative":0,"accelerometer_m_s2":[0.0519592799,-0.0104507599,-9.8177728653],"accelerometer_integral_dt":4995,"accelerometer_clipping":0}
{"timestamp":189333858,"gyro_rad":[0.0036920763,0.007929231,-0.0009605896],"gyro_integral_dt":4996,"accelerometer_timestamp_relative":0,"accelerometer_m_s2":[0.1219635978,-0.032494083,-9.7578544617],"accelerometer_integral_dt":4996,"accelerometer_clipping":0}
{"timestamp":189353858,"gyro_rad":[0.0104241557,0.000524897,-0.0003049389],"gyro_integral_dt":4994,"accelerometer_timestamp_relative":0,"accelerometer_m_s2":[0.1126450896,0.085406445,-9.7638015747],"accelerometer_integral_dt":4994,"accelerometer_clipping":0}
{"timestamp":189355073,"gyro_rad":[0.0043209144,0.0009470166,-0.0025712503],"gyro_integral_dt":4996,"accelerometer_timestamp_relative":0,"accelerometer_m_s2":[0.101948984,0.068630293,-9.8163051605],"accelerometer_integral_dt":4996,"accelerometer_clipping":0}
{"timestamp":189354185,"gyro_rad":[0.0006716106,0.0094591854,0.0003358572],"gyro_integral_dt":4995,"accelerometer_timestamp_relative":0,"accelerometer_m_s2":[0.1052002907,0.0742688328,-9.8179636002],"accelerometer_integral_dt":4995,"accelerometer_clipping":0}
{"timestamp":189355264,"gyro_rad":[0.0036009697,-0.0009505391,-0.0019199094],"gyro_integral_dt":4995,"accelerometer_timestamp_relative":0,"accelerometer_m_s2":[0.0597800836,0.0942993835,-9.7866277695],"accelerometer_integral_dt":4995,"accelerometer_clipping":0}
{"timestamp":189365231,"gyro_rad":[0.0091956127,0.0081993928,0.0011300938],"gyro_integral_dt":4996,"accelerometer_timestamp_relative":0,"accelerometer_m_s2":[0.0924937874,0.0832295716,-9.7405605316],"accelerometer_integral_dt":4996,"accelerometer_clipping":0}
{"timestamp":189365750,"gyro_rad":[0.0048208241,-0.0041098781,-0.00174118],"gyro_integral_dt":5000,"accelerometer_timestamp_relative":0,"accelerometer_m_s2":[0.0057580839,0.0955222994,-9.8337869644],"accelerometer_integral_dt":5000,"accelerometer_clipping":0}
{"timestamp":189365397,"gyro_rad":[-0.0028425956,0.0126970112,0.0003167493],"gyro_integral_dt":4988,"accelerometer_timestamp_relative":0,"accelerometer_m_s2":[0.004188274,0.0413144082,-9.7791891098],"accelerometer_integral_dt":4988,"accelerometer_clipping":0}
{"timestamp":189384119,"gyro_rad":[0.006364191,-0.0012127766,0.0017179105],"gyro_integral_dt":5007,"accelerometer_timestamp_relative":0,"accelerometer_m_s2":[-0.0578866899,0.0139612202,-9.7640151978],"accelerometer_integral_dt":5007,"accelerometer_clipping":0}
{"timestamp":189384149,"gyro_rad":[0.0066683227,0.0049076374,-0.0002706253],"gyro_integral_dt":4984,"accelerometer_timestamp_relative":0,"accelerometer_m_s2":[-0.0369632393,0.0044566556,-9.8089523315],"accelerometer_integral_dt":4984,"accelerometer_clipping":0}
{"timestamp":189384837,"gyro_rad":[0.0027982725,0.0060517872,0.000437736],"gyro_integral_dt":4997,"accelerometer_timestamp_relative":0,"accelerometer_m_s2":[-0.0220090486,-0.0263123121,-9.7498216629],"accelerometer_integral_dt":4997,"accelerometer_clipping":0}
{"timestamp":189388869,"gyro_rad":[-0.0020008266,-0.0020506463,-0.0003032699],"gyro_integral_dt":4993,"accelerometer_timestamp_relative":0,"accelerometer_m_s2":[-0.0110849272,-0.0530210957,-9.793428421],"accelerometer_integral_dt":4993,"accelerometer_clipping":0}
{"timestamp":189399175,"gyro_rad":[0.008054602,0.0105804969,0.0020234315],"gyro_integral_dt":4998,"accelerometer_timestamp_relative":0,"accelerometer_m_s2":[-0.0414232686,-0.0619898587,-9.7937908173],"accelerometer_integral_dt":4998,"accelerometer_clipping":0}
{"timestamp":189399795,"gyro_rad":[0.0054354928,-0.0045783203,-0.0020382225],"gyro_integral_dt":4992,"accelerometer_timestamp_relative":0,"accelerometer_m_s2":[0.0775309578,-0.0482439809,-9.7527236938],"accelerometer_integral_dt":4992,"accelerometer_clipping":0}
{"timestamp":189405366,"gyro_rad":[0.001597168,0.0064787935,0.0008980663],"gyro_integral_dt":4998,"accelerometer_timestamp_relative":0,"accelerometer_m_s2":[0.0234036483,-0.0265240427,-9.819893837],"accelerometer_integral_dt":4998,"accelerometer_clipping":0}
{"timestamp":189414106,"gyro_rad":[0.0044773612,0.0014629657,-0.0007401031],"gyro_integral_dt":4992,"accelerometer_timestamp_relative":0,"accelerometer_m_s2":[0.1142692864,-0.0193477347,-9.7337942123],"accelerometer_integral_dt":4992,"accelerometer_clipping":0}
{"timestamp":189415004,"gyro_rad":[0.0039118682,0.00452021,-0.0023752698],"gyro_integral_dt":4998,"accelerometer_timestamp_relative":0,"accelerometer_m_s2":[0.0828778893,0.0078162216,-9.7686357498],"accelerometer_integral_dt":4998,"accelerometer_clipping":0}
{"timestamp":189419749,"gyro_rad":[0.0096777044,0.0040243715,0.00043428],"gyro_integral_dt":4991,"accelerometer_timestamp_relative":0,"accelerometer_m_s2":[0.0978879854,0.1132208109,-9.8145389557],"accelerometer_integral_dt":4991,"accelerometer_clipping":0}
{"timestamp":189424352,"gyro_rad":[-0.0015655,-0.0009300069,-0.002757678],"gyro_integral_dt":4997,"accelerometer_timestamp_relative":0,"accelerometer_m_s2":[0.154923439,0.0399303958,-9.7857217789],"accelerometer_integral_dt":4997,"accelerometer_clipping":0}
{"timestamp":189429757,"gyro_rad":[0.0040368685,0.0110993292,0.0008323445],"gyro_integral_dt":4996,"accelerometer_timestamp_relative":0,"accelerometer_m_s2":[0.089801088,0.1300467402,-9.8000564575],"accelerometer_integral_dt":4996,"accelerometer_clipping":0}
{"timestamp":189445887,"gyro_rad":[0.0050612646,-0.0011626343,-0.0031236629],"gyro_integral_dt":5002,"accelerometer_timestamp_relative":0,"accelerometer_m_s2":[0.077349931,0.0805400386,-9.741194725],"accelerometer_integral_dt":5002,"accelerometer_clipping":0}
{"timestamp":189445174,"gyro_rad":[0.0083052153,0.0065800971,0.0007004237],"gyro_integral_dt":4987,"accelerometer_timestamp_relative":0,"accelerometer_m_s2":[0.0672477409,0.1411761492,-9.7806186676],"accelerometer_integral_dt":4987,"accelerometer_clipping":0}
{"timestamp":189455684,"gyro_rad":[-0.0010200688,0.0002304745,-0.0005250394],"gyro_integral_dt":4998,"accelerometer_timestamp_relative":0,"accelerometer_m_s2":[-0.012940458,0.0452167094,-9.8428382874],"accelerometer_integral_dt":4998,"accelerometer_clipping":0}
{"timestamp":189454965,"gyro_rad":[-0.0016543794,0.0104490798,-0.0002116254],"gyro_integral_dt":4992,"accelerometer_timestamp_relative":0,"accelerometer_m_s2":[-0.0269021336,0.0381606966,-9.7431640625],"accelerometer_integral_dt":4992,"accelerometer_clipping":0}
{"timestamp":189466611,"gyro_rad":[0.0120095005,0.003057756,-0.0004502341],"gyro_integral_dt":4995,"accelerometer_timestamp_relative":0,"accelerometer_m_s2":[-0.0749305412,0.0041767601,-9.8045368195],"accelerometer_integral_dt":4995,"accelerometer_clipping":0}
{"timestamp":189466641,"gyro_rad":[0.0033083367,0.0008777165,-0.0015291491],"gyro_integral_dt":4996,"accelerometer_timestamp_relative":0,"accelerometer_m_s2":[-0.0049601342,-0.0317599699,-9.7654056549],"accelerometer_integral_dt":4996,"accelerometer_clipping":0}
{"timestamp":189467664,"gyro_rad":[0.0014936711,0.0094692744,0.0015815658],"gyro_integral_dt":4994,"accelerometer_timestamp_relative":0,"accelerometer_m_s2":[-0.0457542017,-0.0195208192,-9.8172197342],"accelerometer_integral_dt":4994,"accelerometer_clipping":0}
{"timestamp":189468548,"gyro_rad":[-0.000021637,-0.004509402,-0.0009420618],"gyro_integral_dt":4993,"accelerometer_timestamp_relative":0,"accelerometer_m_s2":[-0.0033112704,-0.0743737444,-9.7572908401],"accelerometer_integral_dt":4993,"accelerometer_clipping":0}
{"timestamp":189479188,"gyro_rad":[0.0125266099,0.0129443984,0.0019388159],"gyro_integral_dt":4997,"accelerometer_timestamp_relative":0,"accelerometer_m_s2":[-0.0233424567,-0.0322991945,-9.7744340897],"accelerometer_integral_dt":4997,"accelerometer_clipping":0}
{"timestamp":189486038,"gyro_rad":[0.0041632112,-0.007490668,-0.0008416579],"gyro_integral_dt":4995,"accelerometer_timestamp_relative":0,"accelerometer_m_s2":[0.1088180915,-0.0366639271,-9.8069820404],"accelerometer_integral_dt":4995,"accelerometer_clipping":0}
{"timestamp":189492602,"gyro_rad":[0.0015023511,0.0111523233,0.0004632505],"gyro_integral_dt":4995,"accelerometer_timestamp_relative":0,"accelerometer_m_s2":[0.0522735193,0.018951878,-9.8312425613],"accelerometer_integral_dt":4995,"accelerometer_clipping":0}
{"timestamp":189491604,"gyro_rad":[0.0060717859,0.0018801789,-0.0006137306],"gyro_integral_dt":4995,"accelerometer_timestamp_relative":0,"accelerometer_m_s2":[0.1312469095,-0.0269997809,-9.7544288635],"accelerometer_integral_dt":4995,"accelerometer_clipping":0}
{"timestamp":189499289,"gyro_rad":[0.0055042077,0.0036280814,-0.0002921119],"gyro_integral_dt":4995,"accelerometer_timestamp_relative":0,"accelerometer_m_s2":[0.0890062749,0.0843608901,-9.7491559982],"accelerometer_integral_dt":4995,"accelerometer_clipping":0}
{"timestamp":189499446,"gyro_rad":[0.0077287913,0.0045522866,0.0003072721],"gyro_integral_dt":4994,"accelerometer_timestamp_relative":0,"accelerometer_m_s2":[0.1294822544,0.0380605869,-9.8252067566],"accelerometer_integral_dt":4994,"accelerometer_clipping":0}
{"timestamp":189515451,"gyro_rad":[-0.0025735949,-0.0011914381,-0.0023394655],"gyro_integral_dt":4997,"accelerometer_timestamp_relative":0,"accelerometer_m_s2":[0.1170711666,0.0783634707,-9.8063821793],"accelerometer_integral_dt":4997,"accelerometer_clipping":0}
{"timestamp":189514839,"gyro_rad":[0.0057375683,0.0138164768,0.0003940728],"gyro_integral_dt":4992,"accelerometer_timestamp_relative":0,"accelerometer_m_s2":[0.0748657063,0.0639292225,-9.7818613052],"accelerometer_integral_dt":4992,"accelerometer_clipping":0}
{"timestamp":189524738,"gyro_rad":[0.0069027632,-0.0086525064,-0.0035248755],"gyro_integral_dt":4999,"accelerometer_timestamp_relative":0,"accelerometer_m_s2":[0.0595840923,0.1197636873,-9.7543373108],"accelerometer_integral_dt":4999,"accelerometer_clipping":0}
{"timestamp":189525192,"gyro_rad":[0.005006751,0.0119110597,0.0002187328],"gyro_integral_dt":4998,"accelerometer_timestamp_relative":0,"accelerometer_m_s2":[0.0165983234,0.0961254463,-9.8444271088],"accelerometer_integral_dt":4998,"accelerometer_clipping":0}
{"timestamp":189525940,"gyro_rad":[-0.0036348498,0.0008189169,-0.0008680686],"gyro_integral_dt":4990,"accelerometer_timestamp_relative":0,"accelerometer_m_s2":[0.0006542989,0.0511590391,-9.7589769363],"accelerometer_integral_dt":4990,"accelerometer_clipping":0}
{"timestamp":189535156,"gyro_rad":[0.0048800646,0.0077282758,0.0004102112],"gyro_integral_dt":4995,"accelerometer_timestamp_relative":0,"accelerometer_m_s2":[-0.053330183,0.0380808599,-9.7691888809],"accelerometer_integral_dt":4995,"accelerometer_clipping":0}
{"timestamp":189534898,"gyro_rad":[0.0094407573,0.0027068371,0.0020789427],"gyro_integral_dt":4995,"accelerometer_timestamp_relative":0,"accelerometer_m_s2":[-0.0172773879,-0.0227247402,-9.7988243103],"accelerometer_integral_dt":4995,"accelerometer_clipping":0}
{"timestamp":189543693,"gyro_rad":[0.0007994291,0.0004329708,-0.0015683069],"gyro_integral_dt":4996,"accelerometer_timestamp_relative":0,"accelerometer_m_s2":[-0.0294623096,-0.0196385551,-9.7554244995],"accelerometer_integral_dt":4996,"accelerometer_clipping":0}
{"timestamp":189544594,"gyro_rad":[0.0010160238,0.0093508074,0.0011153127],"gyro_integral_dt":4999,"accelerometer_timestamp_relative":0,"accelerometer_m_s2":[-0.031752985,-0.0626784936,-9.8264722824],"accelerometer_integral_dt":4999,"accelerometer_clipping":0}
{"timestamp":189554725,"gyro_rad":[0.0041063684,-0.003591361,-0.0027492701],"gyro_integral_dt":4990,"accelerometer_timestamp_relative":0,"accelerometer_m_s2":[-0.0395935513,-0.0443537161,-9.740858078],"accelerometer_integral_dt":4990,"accelerometer_clipping":0}
{"timestamp":189556024,"gyro_rad":[0.0110094715,0.0132230418,0.0015193284],"gyro_integral_dt":5004,"accelerometer_timestamp_relative":0,"accelerometer_m_s2":[0.0519967526,-0.0585628711,-9.7680482864],"accelerometer_integral_dt":5004,"accelerometer_clipping":0}
{"timestamp":189564417,"gyro_rad":[0.0036537363,-0.0069071883,-0.0009015434],"gyro_integral_dt":4983,"accelerometer_timestamp_relative":0,"accelerometer_m_s2":[0.0390971676,-0.0237630066,-9.814458847],"accelerometer_integral_dt":4983,"accelerometer_clipping":0}
{"timestamp":189565447,"gyro_rad":[0.0033752951,0.0116765685,0.0008996624],"gyro_integral_dt":4999,"accelerometer_timestamp_relative":0,"accelerometer_m_s2":[0.1188809946,-0.0024161078,-9.7853240967],"accelerometer_integral_dt":4999,"accelerometer_clipping":0}
{"timestamp":189568849,"gyro_rad":[0.0084847128,-0.0007892782,-0.0002202716],"gyro_integral_dt":4994,"accelerometer_timestamp_relative":0,"accelerometer_m_s2":[0.120972842,0.0136505812,-9.7379169464],"accelerometer_integral_dt":4994,"accelerometer_clipping":0}
{"timestamp":189574688,"gyro_rad":[0.0068838256,0.0029013341,-0.0020250187],"gyro_integral_dt":4997,"accelerometer_timestamp_relative":0,"accelerometer_m_s2":[0.1050335765,0.0905787125,-9.7903823853],"accelerometer_integral_dt":4997,"accelerometer_clipping":0}
