{"timestamp":293461022,"gyro_rad":[0.0056246491,0.0067158225,0.0005940478],"gyro_integral_dt":4998,"accelerometer_timestamp_relative":0,"accelerometer_m_s2":[-0.0424914584,-0.025592437,-9.8117551804],"accelerometer_integral_dt":4998,"accelerometer_clipping":0}
{"timestamp":293460918,"gyro_rad":[-0.0005348288,0.0015399482,-0.0018416666],"gyro_integral_dt":4992,"accelerometer_timestamp_relative":0,"accelerometer_m_s2":[-0.0012631227,-0.0045054215,-9.7558002472],"accelerometer_integral_dt":4992,"accelerometer_clipping":0}
{"timestamp":293463903,"gyro_rad":[0.0047355355,0.0092264898,0.0015372995],"gyro_integral_dt":4996,"accelerometer_timestamp_relative":0,"accelerometer_m_s2":[-0.0261876862,-0.0430278704,-9.7645950317],"accelerometer_integral_dt":4996,"accelerometer_clipping":0}
{"timestamp":293471299,"gyro_rad":[0.004348062,-0.0035160936,-0.0019897404],"gyro_integral_dt":4995,"accelerometer_timestamp_relative":0,"accelerometer_m_s2":[0.0323273055,-0.0275251865,-9.7718153],"accelerometer_integral_dt":4995,"accelerometer_clipping":0}
{"timestamp":293478629,"gyro_rad":[0.0040255897,0.0112999063,0.0010761588],"gyro_integral_dt":4996,"accelerometer_timestamp_relative":0,"accelerometer_m_s2":[0.0189477708,-0.0692866147,-9.8074121475],"accelerometer_integral_dt":4996,"accelerometer_clipping":0}
{"timestamp":293478974,"gyro_rad":[0.0052252412,-0.001673799,-0.0020335454],"gyro_integral_dt":4995,"accelerometer_timestamp_relative":0,"accelerometer_m_s2":[0.0938865617,-0.0334365256,-9.7550840378],"accelerometer_integral_dt":4995,"accelerometer_clipping":0}
{"timestamp":293487380,"gyro_rad":[0.0032094738,0.007051243,-0.0005894804],"gyro_integral_dt":4999,"accelerometer_timestamp_relative":0,"accelerometer_m_s2":[0.1015331075,-0.074568525,-9.7991342545],"accelerometer_integral_dt":4999,"accelerometer_clipping":0}
{"timestamp":293491610,"gyro_rad":[0.0090100113,0.0039857337,-0.0004297458],"gyro_integral_dt":4989,"accelerometer_timestamp_relative":0,"accelerometer_m_s2":[0.1239721403,0.0179337859,-9.7927503586],"accelerometer_integral_dt":4989,"accelerometer_clipping":0}
{"timestamp":293499453,"gyro_rad":[0.0032994936,0.0021064091,-0.002438688],"gyro_integral_dt":4999,"accelerometer_timestamp_relative":0,"accelerometer_m_s2":[0.1376279145,-0.0215659756,-9.7463912964],"accelerometer_integral_dt":4999,"accelerometer_clipping":0}
{"timestamp":293501300,"gyro_rad":[0.0067336876,0.007691775,0.0006620841],"gyro_integral_dt":4993,"accelerometer_timestamp_relative":0,"accelerometer_m_s2":[0.1246801317,0.0337256044,-9.8035802841],"accelerometer_integral_dt":4993,"accelerometer_clipping":0}
{"timestamp":293510071,"gyro_rad":[0.001822394,0.0013688306,-0.0015586487],"gyro_integral_dt":4999,"accelerometer_timestamp_relative":0,"accelerometer_m_s2":[0.0685962588,0.0489371233,-9.8024892807],"accelerometer_integral_dt":4999,"accelerometer_clipping":0}
{"timestamp":293510874,"gyro_rad":[0.0088913264,0.0110793076,0.0003741612],"gyro_integral_dt":4995,"accelerometer_timestamp_relative":0,"accelerometer_m_s2":[0.0988531336,0.0599721782,-9.7644767761],"accelerometer_integral_dt":4995,"accelerometer_clipping":0}
{"timestamp":293516479,"gyro_rad":[0.0031835337,-0.0016173562,-0.0018734057],"gyro_integral_dt":4997,"accelerometer_timestamp_relative":0,"accelerometer_m_s2":[0.0023746977,0.0577355288,-9.8207702637],"accelerometer_integral_dt":4997,"accelerometer_clipping":0}
{"timestamp":293519575,"gyro_rad":[0.0036076633,0.0112879304,0.0001824659],"gyro_integral_dt":4999,"accelerometer_timestamp_relative":0,"accelerometer_m_s2":[0.0375780277,0.0585849211,-9.7936868668],"accelerometer_integral_dt":4999,"accelerometer_clipping":0}
{"timestamp":293528875,"gyro_rad":[0.0047983145,0.0020280497,0.0003622555],"gyro_integral_dt":4997,"accelerometer_timestamp_relative":0,"accelerometer_m_s2":[0.0078356229,0.0246994235,-9.7651805878],"accelerometer_integral_dt":4997,"accelerometer_clipping":0}
{"timestamp":293529901,"gyro_rad":[0.0043536671,0.0036081795,-0.000788923],"gyro_integral_dt":4996,"accelerometer_timestamp_relative":0,"accelerometer_m_s2":[-0.019709751,0.0434420556,-9.8076181412],"accelerometer_integral_dt":4996,"accelerometer_clipping":0}
{"timestamp":293538975,"gyro_rad":[0.0052308934,0.0084022917,0.0021609711],"gyro_integral_dt":4987,"accelerometer_timestamp_relative":0,"accelerometer_m_s2":[-0.0120844357,-0.008127966,-9.7933797836],"accelerometer_integral_dt":4987,"accelerometer_clipping":0}
{"timestamp":293538402,"gyro_rad":[0.0003241785,-0.0008315411,-0.0021093145],"gyro_integral_dt":4997,"accelerometer_timestamp_relative":0,"accelerometer_m_s2":[-0.0098642558,-0.0318835676,-9.7742729187],"accelerometer_integral_dt":4997,"accelerometer_clipping":0}
{"timestamp":293550040,"gyro_rad":[0.0068841148,0.0114339106,0.001560798],"gyro_integral_dt":4992,"accelerometer_timestamp_relative":0,"accelerometer_m_s2":[-0.0141112069,-0.0303407963,-9.773938179],"accelerometer_integral_dt":4992,"accelerometer_clipping":0}
{"timestamp":293550675,"gyro_rad":[0.0063010491,-0.0045236987,-0.0020827763],"gyro_integral_dt":4998,"accelerometer_timestamp_relative":0,"accelerometer_m_s2":[0.0494832322,-0.0945882872,-9.7732563019],"accelerometer_integral_dt":4998,"accelerometer_clipping":0}
{"timestamp":293559296,"gyro_rad":[0.0049966839,0.0122924121,0.0011234421],"gyro_integral_dt":4995,"accelerometer_timestamp_relative":0,"accelerometer_m_s2":[0.0344330482,-0.0214231145,-9.795258522],"accelerometer_integral_dt":4995,"accelerometer_clipping":0}
{"timestamp":293559421,"gyro_rad":[0.0055670738,-0.0030757573,-0.001540043],"gyro_integral_dt":4995,"accelerometer_timestamp_relative":0,"accelerometer_m_s2":[0.0665952191,-0.0589397661,-9.7831745148],"accelerometer_integral_dt":4995,"accelerometer_clipping":0}
{"timestamp":293568037,"gyro_rad":[0.0032095595,0.0069500236,-0.0020434128],"gyro_integral_dt":4995,"accelerometer_timestamp_relative":0,"accelerometer_m_s2":[0.0938578025,0.0135424519,-9.8217306137],"accelerometer_integral_dt":4995,"accelerometer_clipping":0}
{"timestamp":293568926,"gyro_rad":[0.0089503191,0.004839316,0.0006424999],"gyro_integral_dt":4997,"accelerometer_timestamp_relative":0,"accelerometer_m_s2":[0.1205920279,-0.0403215475,-9.7706718445],"accelerometer_integral_dt":4997,"accelerometer_clipping":0}
{"timestamp":293579829,"gyro_rad":[0.0041259052,0.0012491721,-0.0026576463],"gyro_integral_dt":4992,"accelerometer_timestamp_relative":0,"accelerometer_m_s2":[0.141925633,0.0486153439,-9.7460660934],"accelerometer_integral_dt":4992,"accelerometer_clipping":0}
{"timestamp":293580016,"gyro_rad":[0.0041469848,0.0095878644,0.0003319355],"gyro_integral_dt":4998,"accelerometer_timestamp_relative":0,"accelerometer_m_s2":[0.1024101004,-0.0207557287,-9.824836731],"accelerometer_integral_dt":4998,"accelerometer_clipping":0}
{"timestamp":293590301,"gyro_rad":[0.0057396162,-0.0012605354,-0.0023170731],"gyro_integral_dt":4996,"accelerometer_timestamp_relative":0,"accelerometer_m_s2":[0.0891820714,0.1094083712,-9.8042955399],"accelerometer_integral_dt":4996,"accelerometer_clipping":0}
{"timestamp":293590865,"gyro_rad":[0.0071454509,0.0116465455,0.0000761033],"gyro_integral_dt":4992,"accelerometer_timestamp_relative":0,"accelerometer_m_s2":[0.0766790733,0.0123381289,-9.7905950546],"accelerometer_integral_dt":4992,"accelerometer_clipping":0}
{"timestamp":293600197,"gyro_rad":[0.0051958323,-0.0014001065,-0.0014345035],"gyro_integral_dt":4996,"accelerometer_timestamp_relative":0,"accelerometer_m_s2":[0.033557903,0.1253361851,-9.7685613632],"accelerometer_integral_dt":4996,"accelerometer_clipping":0}
{"timestamp":293601638,"gyro_rad":[0.001750981,0.0105422474,-0.0008922485],"gyro_integral_dt":4998,"accelerometer_timestamp_relative":0,"accelerometer_m_s2":[0.004964991,0.0174633637,-9.7747621536],"accelerometer_integral_dt":4998,"accelerometer_clipping":0}
{"timestamp":293611396,"gyro_rad":[0.003452366,0.0048087533,-0.0019371777],"gyro_integral_dt":4994,"accelerometer_timestamp_relative":0,"accelerometer_m_s2":[-0.0417707935,-0.0107713882,-9.8306856155],"accelerometer_integral_dt":4994,"accelerometer_clipping":0}
{"timestamp":293619914,"gyro_rad":[0.0044649621,0.0075883432,0.00175296],"gyro_integral_dt":4998,"accelerometer_timestamp_relative":0,"accelerometer_m_s2":[0.0100169433,-0.0264527127,-9.7556715012],"accelerometer_integral_dt":4998,"accelerometer_clipping":0}
{"timestamp":293630564,"gyro_rad":[-0.0011422753,-0.00247922,-0.0016588961],"gyro_integral_dt":4995,"accelerometer_timestamp_relative":0,"accelerometer_m_s2":[-0.0085759694,-0.018152779,-9.7944335938],"accelerometer_integral_dt":4995,"accelerometer_clipping":0}
{"timestamp":293630732,"gyro_rad":[0.0089894813,0.0108994571,0.0023421869],"gyro_integral_dt":4995,"accelerometer_timestamp_relative":0,"accelerometer_m_s2":[0.0481791645,-0.0662767589,-9.7541189194],"accelerometer_integral_dt":4995,"accelerometer_clipping":0}
{"timestamp":293640819,"gyro_rad":[0.0044382741,-0.0015761008,-0.0015935975],"gyro_integral_dt":4996,"accelerometer_timestamp_relative":0,"accelerometer_m_s2":[0.0201753676,-0.0706737787,-9.7659769058],"accelerometer_integral_dt":4996,"accelerometer_clipping":0}
{"timestamp":293639856,"gyro_rad":[0.0048478525,0.00902934,-0.0007769716],"gyro_integral_dt":4996,"accelerometer_timestamp_relative":0,"accelerometer_m_s2":[0.0705808103,-0.0469317101,-9.8175449371],"accelerometer_integral_dt":4996,"accelerometer_clipping":0}
{"timestamp":293651065,"gyro_rad":[0.004922797,-0.0007371844,-0.0002402142],"gyro_integral_dt":4995,"accelerometer_timestamp_relative":0,"accelerometer_m_s2":[0.0525805131,-0.0482046828,-9.8085203171],"accelerometer_integral_dt":4995,"accelerometer_clipping":0}
{"timestamp":293651243,"gyro_rad":[0.0066215131,0.0073215975,-0.0010888056],"gyro_integral_dt":4996,"accelerometer_timestamp_relative":0,"accelerometer_m_s2":[0.1059625223,-0.0188782718,-9.757522583],"accelerometer_integral_dt":4996,"accelerometer_clipping":0}
{"timestamp":293651920,"gyro_rad":[0.0086287931,0.0065639317,-0.0001788991],"gyro_integral_dt":4995,"accelerometer_timestamp_relative":0,"accelerometer_m_s2":[0.0947879553,0.0228613224,-9.7656116486],"accelerometer_integral_dt":4995,"accelerometer_clipping":0}
{"timestamp":293657657,"gyro_rad":[0.0026092606,-0.0014844842,-0.0036641415],"gyro_integral_dt":4995,"accelerometer_timestamp_relative":0,"accelerometer_m_s2":[0.1273577809,-0.0031292534,-9.7715969086],"accelerometer_integral_dt":4995,"accelerometer_clipping":0}
{"timestamp":293663756,"gyro_rad":[0.0039750063,0.0108099449,0.0007449292],"gyro_integral_dt":4998,"accelerometer_timestamp_relative":0,"accelerometer_m_s2":[0.0631449595,0.051741574,-9.7992095947],"accelerometer_integral_dt":4998,"accelerometer_clipping":0}
{"timestamp":293671834,"gyro_rad":[0.002229837,0.0118939858,0.00017076],"gyro_integral_dt":4991,"accelerometer_timestamp_relative":0,"accelerometer_m_s2":[0.039891202,0.0298688561,-9.7862958908],"accelerometer_integral_dt":4991,"accelerometer_clipping":0}
{"timestamp":293680287,"gyro_rad":[0.005917633,-0.000676091,-0.0015292473],"gyro_integral_dt":4998,"accelerometer_timestamp_relative":0,"accelerometer_m_s2":[0.0347714461,0.0819288641,-9.7909555435],"accelerometer_integral_dt":4998,"accelerometer_clipping":0}
{"timestamp":293680787,"gyro_rad":[-0.0002502908,0.0067075342,0.0000938901],"gyro_integral_dt":4994,"accelerometer_timestamp_relative":0,"accelerometer_m_s2":[0.0335134193,0.0013554269,-9.7700719833],"accelerometer_integral_dt":4994,"accelerometer_clipping":0}
{"timestamp":293689943,"gyro_rad":[0.0086182579,0.0042209686,0.0005314957],"gyro_integral_dt":4997,"accelerometer_timestamp_relative":0,"accelerometer_m_s2":[-0.0087688565,0.0330372974,-9.8107185364],"accelerometer_integral_dt":4997,"accelerometer_clipping":0}
{"timestamp":293690396,"gyro_rad":[0.0006104002,0.0043861172,-0.0020173951],"gyro_integral_dt":4995,"accelerometer_timestamp_relative":0,"accelerometer_m_s2":[-0.043001458,0.0008564566,-9.7901554108],"accelerometer_integral_dt":4995,"accelerometer_clipping":0}
{"timestamp":293697358,"gyro_rad":[0.0041275243,0.006938389,0.0015262231],"gyro_integral_dt":4994,"accelerometer_timestamp_relative":0,"accelerometer_m_s2":[0.0011975914,-0.0684053153,-9.7377920151],"accelerometer_integral_dt":4994,"accelerometer_clipping":0}
{"timestamp":293707948,"gyro_rad":[0.008689126,0.0120272031,0.0015744781],"gyro_integral_dt":4993,"accelerometer_timestamp_relative":0,"accelerometer_m_s2":[0.0506581366,-0.0956360623,-9.7874603271],"accelerometer_integral_dt":4993,"accelerometer_clipping":0}
{"timestamp":293719463,"gyro_rad":[0.0013355396,-0.0017817701,-0.0014635792],"gyro_integral_dt":5001,"accelerometer_timestamp_relative":0,"accelerometer_m_s2":[0.0257825535,-0.0449737832,-9.7797441483],"accelerometer_integral_dt":5001,"accelerometer_clipping":0}
{"timestamp":293719451,"gyro_rad":[0.0049278331,0.0067733871,-0.0006849809],"gyro_integral_dt":4993,"accelerometer_timestamp_relative":0,"accelerometer_m_s2":[0.0938111097,-0.0504000075,-9.7805900574],"accelerometer_integral_dt":4993,"accelerometer_clipping":0}
{"timestamp":293817522,"gyro_rad":[0.0100296289,0.0034033314,-0.0128401052],"gyro_integral_dt":4995,"accelerometer_timestamp_relative":0,"accelerometer_m_s2":[-0.0652802885,-0.4983690083,-9.9593467712],"accelerometer_integral_dt":4995,"accelerometer_clipping":0}
{"timestamp":293826760,"gyro_rad":[-0.0065598357,-0.0040632864,-0.0315968767],"gyro_integral_dt":4997,"accelerometer_timestamp_relative":0,"accelerometer_m_s2":[0.4615243971,0.9779097438,-9.7289400101],"accelerometer_integral_dt":4997,"accelerometer_clipping":0}
{"timestamp":293828066,"gyro_rad":[0.0105983149,0.0240915418,-0.0389391631],"gyro_integral_dt":4995,"accelerometer_timestamp_relative":0,"accelerometer_m_s2":[-0.0135386018,-0.4432592988,-9.7735862732],"accelerometer_integral_dt":4995,"accelerometer_clipping":0}
{"timestamp":293831502,"gyro_rad":[-0.0062032579,-0.0110314433,-0.0402157679],"gyro_integral_dt":4995,"accelerometer_timestamp_relative":0,"accelerometer_m_s2":[0.1513846517,0.731783092,-9.7439088821],"accelerometer_integral_dt":4995,"accelerometer_clipping":0}
{"timestamp":293841133,"gyro_rad":[0.0095140096,0.01414325,-0.0349583738],"gyro_integral_dt":4996,"accelerometer_timestamp_relative":0,"accelerometer_m_s2":[0.2940340042,-0.410233885,-9.8943061829],"accelerometer_integral_dt":4996,"accelerometer_clipping":0}
{"timestamp":293839825,"gyro_rad":[-0.0054354444,0.0098870592,-0.0280413069],"gyro_integral_dt":4995,"accelerometer_timestamp_relative":0,"accelerometer_m_s2":[-0.015845662,0.0758331418,-9.6775140762],"accelerometer_integral_dt":4995,"accelerometer_clipping":0}
{"timestamp":293851610,"gyro_rad":[0.0105057908,-0.0011946112,-0.0194186177],"gyro_integral_dt":4997,"accelerometer_timestamp_relative":0,"accelerometer_m_s2":[-0.3533615172,-0.5082845688,-9.8810358047],"accelerometer_integral_dt":4997,"accelerometer_clipping":0}
{"timestamp":293850848,"gyro_rad":[0.0042994949,0.0039373348,-0.0080070859],"gyro_integral_dt":4995,"accelerometer_timestamp_relative":0,"accelerometer_m_s2":[0.0473244824,-0.1851670295,-9.7423009872],"accelerometer_integral_dt":4995,"accelerometer_clipping":0}
{"timestamp":293861350,"gyro_rad":[0.0028745942,0.0171136558,-0.007334623],"gyro_integral_dt":4996,"accelerometer_timestamp_relative":0,"accelerometer_m_s2":[-0.0466176234,-0.3061420619,-10.0101261139],"accelerometer_integral_dt":4996,"accelerometer_clipping":0}
{"timestamp":293859725,"gyro_rad":[0.0002092393,-0.0106601352,-0.0008873726],"gyro_integral_dt":4993,"accelerometer_timestamp_relative":0,"accelerometer_m_s2":[-0.2619604468,0.0619379058,-9.3449687958],"accelerometer_integral_dt":4993,"accelerometer_clipping":0}
{"timestamp":293867244,"gyro_rad":[0.0161479264,0.0055618836,-0.0036341415],"gyro_integral_dt":4996,"accelerometer_timestamp_relative":0,"accelerometer_m_s2":[-0.0394082852,0.1126872599,-10.0330018997],"accelerometer_integral_dt":4996,"accelerometer_clipping":0}
{"timestamp":293871176,"gyro_rad":[-0.0050197025,0.0145757953,0.0010373793],"gyro_integral_dt":4995,"accelerometer_timestamp_relative":0,"accelerometer_m_s2":[0.2377886325,0.1632239074,-9.7123088837],"accelerometer_integral_dt":4995,"accelerometer_clipping":0}
{"timestamp":293880751,"gyro_rad":[0.0150340879,-0.0107944058,0.006474331],"gyro_integral_dt":4997,"accelerometer_timestamp_relative":0,"accelerometer_m_s2":[0.0703877956,0.4435741007,-9.6151924133],"accelerometer_integral_dt":4997,"accelerometer_clipping":0}
{"timestamp":293878508,"gyro_rad":[-0.0031376479,0.0069087208,0.0147187263],"gyro_integral_dt":4994,"accelerometer_timestamp_relative":0,"accelerometer_m_s2":[0.102321893,0.156084314,-10.0575256348],"accelerometer_integral_dt":4994,"accelerometer_clipping":0}
{"timestamp":293891383,"gyro_rad":[0.013882271,0.0132079851,0.0257976446],"gyro_integral_dt":4996,"accelerometer_timestamp_relative":0,"accelerometer_m_s2":[0.2825675607,0.1529748291,-9.73524189],"accelerometer_integral_dt":4996,"accelerometer_clipping":0}
{"timestamp":293890357,"gyro_rad":[0.0005190395,-0.0066758948,0.034635853],"gyro_integral_dt":4996,"accelerometer_timestamp_relative":0,"accelerometer_m_s2":[-0.1665521413,-0.28869012,-9.6991701126],"accelerometer_integral_dt":4996,"accelerometer_clipping":0}
{"timestamp":293898137,"gyro_rad":[0.0068881027,0.0128942681,0.0402788334],"gyro_integral_dt":4996,"accelerometer_timestamp_relative":0,"accelerometer_m_s2":[0.4614831507,-0.044079829,-10.0468606949],"accelerometer_integral_dt":4996,"accelerometer_clipping":0}
{"timestamp":293896819,"gyro_rad":[0.0051086629,0.0048515671,0.0304015987],"gyro_integral_dt":4996,"accelerometer_timestamp_relative":0,"accelerometer_m_s2":[-0.1019089147,-0.5350122452,-9.695400238],"accelerometer_integral_dt":4996,"accelerometer_clipping":0}
{"timestamp":293912822,"gyro_rad":[0.0135863796,0.0002921986,0.0087324055],"gyro_integral_dt":4996,"accelerometer_timestamp_relative":0,"accelerometer_m_s2":[-0.0306218751,0.0685817227,-9.7415771484],"accelerometer_integral_dt":4996,"accelerometer_clipping":0}
{"timestamp":293911709,"gyro_rad":[-0.0003532151,0.0104264151,-0.0166936424],"gyro_integral_dt":4994,"accelerometer_timestamp_relative":0,"accelerometer_m_s2":[0.0108367121,0.0374368243,-9.8508358002],"accelerometer_integral_dt":4994,"accelerometer_clipping":0}
{"timestamp":293931629,"gyro_rad":[0.0053177956,0.0018758087,-0.0244695209],"gyro_integral_dt":4995,"accelerometer_timestamp_relative":0,"accelerometer_m_s2":[0.2276525199,0.2974845767,-9.5917348862],"accelerometer_integral_dt":4995,"accelerometer_clipping":0}
{"timestamp":293929919,"gyro_rad":[0.0011147683,0.0073333532,-0.0288173743],"gyro_integral_dt":4998,"accelerometer_timestamp_relative":0,"accelerometer_m_s2":[-0.1234488189,0.5593810081,-9.9462957382],"accelerometer_integral_dt":4998,"accelerometer_clipping":0}
{"timestamp":293932463,"gyro_rad":[0.0014939557,0.0031451071,-0.0250398982],"gyro_integral_dt":4994,"accelerometer_timestamp_relative":0,"accelerometer_m_s2":[0.1001524404,0.2372840643,-9.5297756195],"accelerometer_integral_dt":4994,"accelerometer_clipping":0}
{"timestamp":293931470,"gyro_rad":[0.0004877457,0.0159183163,-0.0163345486],"gyro_integral_dt":4996,"accelerometer_timestamp_relative":0,"accelerometer_m_s2":[0.0506181903,-0.1183890328,-9.9446516037],"accelerometer_integral_dt":4996,"accelerometer_clipping":0}
{"timestamp":293941217,"gyro_rad":[-0.0012449425,-0.0153436325,-0.0138885742],"gyro_integral_dt":4996,"accelerometer_timestamp_relative":0,"accelerometer_m_s2":[-0.0023334895,-0.5916172862,-9.9581947327],"accelerometer_integral_dt":4996,"accelerometer_clipping":0}
{"timestamp":293940037,"gyro_rad":[0.0159649253,0.0244539361,-0.0053271721],"gyro_integral_dt":4993,"accelerometer_timestamp_relative":0,"accelerometer_m_s2":[0.0051796627,-0.2448820919,-9.760848999],"accelerometer_integral_dt":4993,"accelerometer_clipping":0}
{"timestamp":293951091,"gyro_rad":[0.0028264238,-0.0106812883,-0.0084817065],"gyro_integral_dt":4997,"accelerometer_timestamp_relative":0,"accelerometer_m_s2":[0.0232185591,-0.217214942,-9.8761129379],"accelerometer_integral_dt":4997,"accelerometer_clipping":0}
{"timestamp":293949997,"gyro_rad":[-0.0014713735,0.0112773655,-0.0017350328],"gyro_integral_dt":4995,"accelerometer_timestamp_relative":0,"accelerometer_m_s2":[0.0217426699,0.5725323558,-9.6600866318],"accelerometer_integral_dt":4995,"accelerometer_clipping":0}
{"timestamp":293954059,"gyro_rad":[0.0082511809,0.0023816957,0.005714566],"gyro_integral_dt":4998,"accelerometer_timestamp_relative":0,"accelerometer_m_s2":[0.0048660128,0.2667315304,-9.3520698547],"accelerometer_integral_dt":4998,"accelerometer_clipping":0}
{"timestamp":293961216,"gyro_rad":[-0.0022416869,-0.0022353788,0.0102817658],"gyro_integral_dt":4992,"accelerometer_timestamp_relative":0,"accelerometer_m_s2":[0.2506459653,0.3422713876,-9.8942489624],"accelerometer_integral_dt":4992,"accelerometer_clipping":0}
{"timestamp":293964905,"gyro_rad":[0.0049323794,0.012148899,0.0168713704],"gyro_integral_dt":5003,"accelerometer_timestamp_relative":0,"accelerometer_m_s2":[-0.2543502748,-0.576141715,-10.0416059494],"accelerometer_integral_dt":5003,"accelerometer_clipping":0}
{"timestamp":293969149,"gyro_rad":[0.0100410506,0.0027609428,0.0131510524],"gyro_integral_dt":4988,"accelerometer_timestamp_relative":0,"accelerometer_m_s2":[0.3338080943,-0.3386022747,-10.0622282028],"accelerometer_integral_dt":4988,"accelerometer_clipping":0}
{"timestamp":293981078,"gyro_rad":[0.006883685,0.0046485295,0.015093212],"gyro_integral_dt":4997,"accelerometer_timestamp_relative":0,"accelerometer_m_s2":[0.1618132144,-0.6952288747,-9.8518772125],"accelerometer_integral_dt":4997,"accelerometer_clipping":0}
{"timestamp":293980024,"gyro_rad":[0.00396886,0.0016576127,0.0159711353],"gyro_integral_dt":4994,"accelerometer_timestamp_relative":0,"accelerometer_m_s2":[0.0372270085,0.550165534,-9.6092367172],"accelerometer_integral_dt":4994,"accelerometer_clipping":0}
{"timestamp":293991644,"gyro_rad":[0.0037708462,0.00881493,0.0180972274],"gyro_integral_dt":5007,"accelerometer_timestamp_relative":0,"accelerometer_m_s2":[-0.0602566972,0.409734875,-9.4555196762],"accelerometer_integral_dt":5007,"accelerometer_clipping":0}
{"timestamp":293991290,"gyro_rad":[0.0007193292,-0.0008839105,0.0100296624],"gyro_integral_dt":4985,"accelerometer_timestamp_relative":0,"accelerometer_m_s2":[-0.105012171,0.5044977665,-9.5804138184],"accelerometer_integral_dt":4985,"accelerometer_clipping":0}
{"timestamp":293991461,"gyro_rad":[0.0026793163,0.005769453,0.0032735886],"gyro_integral_dt":4996,"accelerometer_timestamp_relative":0,"accelerometer_m_s2":[-0.1214267612,-0.3136746287,-9.9657669067],"accelerometer_integral_dt":4996,"accelerometer_clipping":0}
{"timestamp":294000171,"gyro_rad":[0.0135498773,0.0064404886,-0.0103525901],"gyro_integral_dt":4994,"accelerometer_timestamp_relative":0,"accelerometer_m_s2":[0.0783851519,-0.3437711596,-10.2267160416],"accelerometer_integral_dt":4994,"accelerometer_clipping":0}
{"timestamp":294011402,"gyro_rad":[0.0013948304,0.0076158,-0.018245941],"gyro_integral_dt":4995,"accelerometer_timestamp_relative":0,"accelerometer_m_s2":[0.2250111848,-0.7177847028,-9.9998855591],"accelerometer_integral_dt":4995,"accelerometer_clipping":0}
{"timestamp":294008982,"gyro_rad":[0.00385139,-0.0009489162,-0.0136162797],"gyro_integral_dt":4997,"accelerometer_timestamp_relative":0,"accelerometer_m_s2":[0.0707229227,0.3834893703,-9.4501218796],"accelerometer_integral_dt":4997,"accelerometer_clipping":0}
{"timestamp":294023503,"gyro_rad":[0.0045523588,0.002600133,-0.0124590434],"gyro_integral_dt":4993,"accelerometer_timestamp_relative":0,"accelerometer_m_s2":[-0.0067236503,0.5455390811,-9.4659576416],"accelerometer_integral_dt":4993,"accelerometer_clipping":0}
{"timestamp":294022183,"gyro_rad":[-0.003286351,0.0053418917,-0.0064559057],"gyro_integral_dt":4996,"accelerometer_timestamp_relative":0,"accelerometer_m_s2":[-0.189051345,0.6525890827,-9.5537652969],"accelerometer_integral_dt":4996,"accelerometer_clipping":0}
{"timestamp":294042331,"gyro_rad":[0.0096949292,0.0007996691,-0.0159060955],"gyro_integral_dt":4998,"accelerometer_timestamp_relative":0,"accelerometer_m_s2":[-0.0067485226,-0.3313377798,-9.975982666],"accelerometer_integral_dt":4998,"accelerometer_clipping":0}
{"timestamp":294041803,"gyro_rad":[0.0046584383,0.006087827,-0.0239222217],"gyro_integral_dt":4993,"accelerometer_timestamp_relative":0,"accelerometer_m_s2":[0.1817620397,-0.626938045,-10.2589025497],"accelerometer_integral_dt":4993,"accelerometer_clipping":0}
{"timestamp":294044101,"gyro_rad":[0.0135002714,0.0041370951,-0.0212603081],"gyro_integral_dt":4998,"accelerometer_timestamp_relative":0,"accelerometer_m_s2":[0.2428503484,-0.3465019464,-10.1264562607],"accelerometer_integral_dt":4998,"accelerometer_clipping":0}
{"timestamp":294042244,"gyro_rad":[-0.0038214792,0.0081116213,-0.011949461],"gyro_integral_dt":4994,"accelerometer_timestamp_relative":0,"accelerometer_m_s2":[0.2971837223,0.1638516635,-9.3757648468],"accelerometer_integral_dt":4994,"accelerometer_clipping":0}
{"timestamp":294052255,"gyro_rad":[0.0075788829,0.0052901926,0.0056774388],"gyro_integral_dt":4994,"accelerometer_timestamp_relative":0,"accelerometer_m_s2":[0.0288656894,0.7079139948,-9.4095249176],"accelerometer_integral_dt":4994,"accelerometer_clipping":0}
{"timestamp":294050885,"gyro_rad":[-0.0026297295,-0.0061705066,0.0128976069],"gyro_integral_dt":5000,"accelerometer_timestamp_relative":0,"accelerometer_m_s2":[-0.1351572275,0.4917730987,-9.5927352905],"accelerometer_integral_dt":5000,"accelerometer_clipping":0}
{"timestamp":294065316,"gyro_rad":[0.004023897,0.0149638755,0.0090634674],"gyro_integral_dt":4992,"accelerometer_timestamp_relative":0,"accelerometer_m_s2":[-0.0087498389,-0.2443687916,-9.9574108124],"accelerometer_integral_dt":4992,"accelerometer_clipping":0}
{"timestamp":294064244,"gyro_rad":[0.0057509118,-0.0005644358,0.0007498227],"gyro_integral_dt":4995,"accelerometer_timestamp_relative":0,"accelerometer_m_s2":[0.0368236452,-0.7028825879,-10.580945015],"accelerometer_integral_dt":4995,"accelerometer_clipping":0}
{"timestamp":294065154,"gyro_rad":[0.011752421,0.0077547296,0.007837099],"gyro_integral_dt":4998,"accelerometer_timestamp_relative":0,"accelerometer_m_s2":[0.1533981711,-0.338683933,-9.7434434891],"accelerometer_integral_dt":4998,"accelerometer_clipping":0}
{"timestamp":294064443,"gyro_rad":[0.0016342117,0.0057689142,0.0156266596],"gyro_integral_dt":4993,"accelerometer_timestamp_relative":0,"accelerometer_m_s2":[0.2920728624,0.3293194473,-9.5537843704],"accelerometer_integral_dt":4993,"accelerometer_clipping":0}
{"timestamp":294080668,"gyro_rad":[-0.0014997374,0.0055111935,0.0251893885],"gyro_integral_dt":4996,"accelerometer_timestamp_relative":0,"accelerometer_m_s2":[-0.0590800121,0.6606932282,-9.3148269653],"accelerometer_integral_dt":4996,"accelerometer_clipping":0}
{"timestamp":294082713,"gyro_rad":[0.0049291481,0.0033957772,0.0256918613],"gyro_integral_dt":4997,"accelerometer_timestamp_relative":0,"accelerometer_m_s2":[-0.4222684503,0.2867186069,-9.4207363129],"accelerometer_integral_dt":4997,"accelerometer_clipping":0}
{"timestamp":294083940,"gyro_rad":[0.0063866298,-0.001454178,0.0067979801],"gyro_integral_dt":4993,"accelerometer_timestamp_relative":0,"accelerometer_m_s2":[-0.1002218798,-0.4093732536,-10.2352561951],"accelerometer_integral_dt":4993,"accelerometer_clipping":0}
{"timestamp":294087832,"gyro_rad":[0.0028490457,0.0149762621,-0.0039065774],"gyro_integral_dt":4996,"accelerometer_timestamp_relative":0,"accelerometer_m_s2":[0.0456761122,-0.8472752571,-10.4916210175],"accelerometer_integral_dt":4996,"accelerometer_clipping":0}
{"timestamp":294093039,"gyro_rad":[0.0082360758,-0.0093563395,-0.0102816289],"gyro_integral_dt":4995,"accelerometer_timestamp_relative":0,"accelerometer_m_s2":[0.1850833148,-0.3128957748,-9.7180833817],"accelerometer_integral_dt":4995,"accelerometer_clipping":0}
{"timestamp":294098246,"gyro_rad":[0.0047652237,0.0126280133,0.0005815031],"gyro_integral_dt":4995,"accelerometer_timestamp_relative":0,"accelerometer_m_s2":[0.3394741416,0.3572816849,-9.3489246368],"accelerometer_integral_dt":4995,"accelerometer_clipping":0}
{"timestamp":294111481,"gyro_rad":[0.0003725812,0.0004745409,0.001326944],"gyro_integral_dt":4996,"accelerometer_timestamp_relative":0,"accelerometer_m_s2":[-0.2397355586,0.5667875409,-9.3204984665],"accelerometer_integral_dt":4996,"accelerometer_clipping":0}
{"timestamp":294109836,"gyro_rad":[0.002936407,0.006755434,-0.0024873237],"gyro_integral_dt":4997,"accelerometer_timestamp_relative":0,"accelerometer_m_s2":[-0.1309091747,0.2713185549,-9.6110563278],"accelerometer_integral_dt":4997,"accelerometer_clipping":0}
{"timestamp":294114697,"gyro_rad":[0.0112531148,-0.0023270987,-0.0192951187],"gyro_integral_dt":4995,"accelerometer_timestamp_relative":0,"accelerometer_m_s2":[0.0034155368,-0.6455820799,-10.210562706],"accelerometer_integral_dt":4995,"accelerometer_clipping":0}
{"timestamp":294120566,"gyro_rad":[0.0001104354,0.0089514572,-0.0352313891],"gyro_integral_dt":4995,"accelerometer_timestamp_relative":0,"accelerometer_m_s2":[0.2128050774,-0.622997582,-10.6694793701],"accelerometer_integral_dt":4995,"accelerometer_clipping":0}
{"timestamp":294130246,"gyro_rad":[0.0160841681,0.0037189214,-0.0210568123],"gyro_integral_dt":4995,"accelerometer_timestamp_relative":0,"accelerometer_m_s2":[0.4823405743,0.0114378417,-9.5500411987],"accelerometer_integral_dt":4995,"accelerometer_clipping":0}
{"timestamp":294129079,"gyro_rad":[-0.0000740786,-0.0032575931,-0.0082132854],"gyro_integral_dt":4997,"accelerometer_timestamp_relative":0,"accelerometer_m_s2":[0.3446808755,0.7607899904,-9.1749982834],"accelerometer_integral_dt":4997,"accelerometer_clipping":0}
{"timestamp":294138428,"gyro_rad":[-0.0105247954,0.017730996,-0.0002214124],"gyro_integral_dt":4996,"accelerometer_timestamp_relative":0,"accelerometer_m_s2":[-0.2932578027,0.7446288466,-9.4217128754],"accelerometer_integral_dt":4996,"accelerometer_clipping":0}
{"timestamp":294140607,"gyro_rad":[0.0142069124,-0.0063052615,-0.0008564066],"gyro_integral_dt":4994,"accelerometer_timestamp_relative":0,"accelerometer_m_s2":[-0.0598646067,0.0471216291,-9.724448204],"accelerometer_integral_dt":4994,"accelerometer_clipping":0}
{"timestamp":294145547,"gyro_rad":[0.0039260392,0.0073659108,-0.0082845148],"gyro_integral_dt":4994,"accelerometer_timestamp_relative":0,"accelerometer_m_s2":[0.0157629792,-0.4975576103,-10.4611473083],"accelerometer_integral_dt":4994,"accelerometer_clipping":0}
{"timestamp":294144344,"gyro_rad":[0.0022414415,0.0156693012,-0.010506779],"gyro_integral_dt":4999,"accelerometer_timestamp_relative":0,"accelerometer_m_s2":[0.1138577387,-0.5075374842,-10.3947057724],"accelerometer_integral_dt":4999,"accelerometer_clipping":0}
{"timestamp":294152256,"gyro_rad":[0.0066900444,-0.0103178099,0.0048538391],"gyro_integral_dt":4997,"accelerometer_timestamp_relative":0,"accelerometer_m_s2":[0.2870919108,0.3001216948,-9.399348259],"accelerometer_integral_dt":4997,"accelerometer_clipping":0}
{"timestamp":294160911,"gyro_rad":[0.0041968408,0.0157367084,0.0254422911],"gyro_integral_dt":4991,"accelerometer_timestamp_relative":0,"accelerometer_m_s2":[0.0977677852,0.6466716528,-9.2139215469],"accelerometer_integral_dt":4991,"accelerometer_clipping":0}
{"timestamp":294162261,"gyro_rad":[-0.0179811884,0.0029561776,0.0263704136],"gyro_integral_dt":5009,"accelerometer_timestamp_relative":0,"accelerometer_m_s2":[-0.3437792361,0.3406395316,-9.4819612503],"accelerometer_integral_dt":5009,"accelerometer_clipping":0}
{"timestamp":294168385,"gyro_rad":[0.0250044521,-0.0004246395,0.0204599891],"gyro_integral_dt":4988,"accelerometer_timestamp_relative":0,"accelerometer_m_s2":[-0.3707838356,-0.1448235363,-9.8578958511],"accelerometer_integral_dt":4988,"accelerometer_clipping":0}
{"timestamp":294178082,"gyro_rad":[-0.0038199986,0.0148426201,0.003389986],"gyro_integral_dt":4999,"accelerometer_timestamp_relative":0,"accelerometer_m_s2":[0.2409942299,-0.6200768948,-10.2613391876],"accelerometer_integral_dt":4999,"accelerometer_clipping":0}
{"timestamp":294191870,"gyro_rad":[0.0270366855,-0.0017806371,0.0117607601],"gyro_integral_dt":4992,"accelerometer_timestamp_relative":0,"accelerometer_m_s2":[0.3604695201,0.46060884,-9.3077030182],"accelerometer_integral_dt":4992,"accelerometer_clipping":0}
{"timestamp":294191449,"gyro_rad":[-0.0089404378,0.0028615089,0.0155033628],"gyro_integral_dt":4996,"accelerometer_timestamp_relative":0,"accelerometer_m_s2":[-0.0171163641,0.579669416,-9.0194664001],"accelerometer_integral_dt":4996,"accelerometer_clipping":0}
{"timestamp":294192189,"gyro_rad":[-0.0064525763,0.0050832764,0.012779044],"gyro_integral_dt":4996,"accelerometer_timestamp_relative":0,"accelerometer_m_s2":[-0.2052270025,0.0034525453,-9.5313329697],"accelerometer_integral_dt":4996,"accelerometer_clipping":0}
{"timestamp":294208713,"gyro_rad":[0.0220544338,-0.0036389267,-0.0122496886],"gyro_integral_dt":4995,"accelerometer_timestamp_relative":0,"accelerometer_m_s2":[-0.0677193105,-0.2175515145,-10.4612760544],"accelerometer_integral_dt":4995,"accelerometer_clipping":0}
{"timestamp":294211449,"gyro_rad":[0.0023432393,0.0216601081,-0.0244650841],"gyro_integral_dt":4996,"accelerometer_timestamp_relative":0,"accelerometer_m_s2":[0.2905504107,-0.882735908,-10.3794059753],"accelerometer_integral_dt":4996,"accelerometer_clipping":0}
{"timestamp":294210577,"gyro_rad":[-0.003720792,-0.0107743256,-0.0241268575],"gyro_integral_dt":4995,"accelerometer_timestamp_relative":0,"accelerometer_m_s2":[0.1195471585,-0.2729583979,-9.7331171036],"accelerometer_integral_dt":4995,"accelerometer_clipping":0}
{"timestamp":294221195,"gyro_rad":[0.0301772337,0.0074912338,-0.0040949043],"gyro_integral_dt":4997,"accelerometer_timestamp_relative":0,"accelerometer_m_s2":[0.5629560351,0.7851955295,-9.5248241425],"accelerometer_integral_dt":4997,"accelerometer_clipping":0}
{"timestamp":294220716,"gyro_rad":[-0.020097224,0.0117231719,-0.0045685559],"gyro_integral_dt":4992,"accelerometer_timestamp_relative":0,"accelerometer_m_s2":[-0.1638272405,0.6915786266,-9.107129097],"accelerometer_integral_dt":4992,"accelerometer_clipping":0}
{"timestamp":294229944,"gyro_rad":[0.0031251383,-0.0001584309,-0.0111199105],"gyro_integral_dt":4998,"accelerometer_timestamp_relative":0,"accelerometer_m_s2":[-0.254915297,0.116016522,-9.3614425659],"accelerometer_integral_dt":4998,"accelerometer_clipping":0}
{"timestamp":294229847,"gyro_rad":[0.0164514743,0.0002165499,-0.0204322506],"gyro_integral_dt":4998,"accelerometer_timestamp_relative":0,"accelerometer_m_s2":[-0.2219665349,-0.3931299746,-10.7812700272],"accelerometer_integral_dt":4998,"accelerometer_clipping":0}
{"timestamp":294234156,"gyro_rad":[0.004276508,0.0144627728,-0.0273106992],"gyro_integral_dt":4990,"accelerometer_timestamp_relative":0,"accelerometer_m_s2":[0.3330355287,-0.6779625416,-10.4462423325],"accelerometer_integral_dt":4990,"accelerometer_clipping":0}
{"timestamp":294233527,"gyro_rad":[0.0031803697,0.0052358839,-0.009401815],"gyro_integral_dt":4998,"accelerometer_timestamp_relative":0,"accelerometer_m_s2":[0.1720956713,0.3496775031,-9.4511528015],"accelerometer_integral_dt":4998,"accelerometer_clipping":0}
{"timestamp":294250153,"gyro_rad":[0.0050119716,-0.0067523671,0.0153368972],"gyro_integral_dt":5005,"accelerometer_timestamp_relative":0,"accelerometer_m_s2":[0.3092982173,0.5593891144,-9.2242240906],"accelerometer_integral_dt":5005,"accelerometer_clipping":0}
{"timestamp":294249845,"gyro_rad":[-0.0112925917,0.018602116,0.0217463206],"gyro_integral_dt":4985,"accelerometer_timestamp_relative":0,"accelerometer_m_s2":[-0.28982687,0.5252148509,-9.1254024506],"accelerometer_integral_dt":4985,"accelerometer_clipping":0}
{"timestamp":294250662,"gyro_rad":[0.0210774448,-0.0062745125,0.007973697],"gyro_integral_dt":4995,"accelerometer_timestamp_relative":0,"accelerometer_m_s2":[-0.3442154229,-0.0298112798,-10.0184202194],"accelerometer_integral_dt":4995,"accelerometer_clipping":0}
{"timestamp":294259104,"gyro_rad":[-0.0033246379,0.0071984427,0.0012824388],"gyro_integral_dt":5004,"accelerometer_timestamp_relative":0,"accelerometer_m_s2":[0.076322116,-0.8773676157,-10.6842298508],"accelerometer_integral_dt":5004,"accelerometer_clipping":0}
{"timestamp":294259893,"gyro_rad":[0.0033304556,0.0081149256,0.0024983038],"gyro_integral_dt":4996,"accelerometer_timestamp_relative":0,"accelerometer_m_s2":[0.1619459391,-0.4529762864,-10.0782384872],"accelerometer_integral_dt":4996,"accelerometer_clipping":0}
{"timestamp":294268274,"gyro_rad":[0.0189773403,-0.001282486,0.0173910223],"gyro_integral_dt":4985,"accelerometer_timestamp_relative":0,"accelerometer_m_s2":[0.5030673146,0.4213161767,-9.4606819153],"accelerometer_integral_dt":4985,"accelerometer_clipping":0}
{"timestamp":294269346,"gyro_rad":[0.0035963394,0.0048497329,0.0288378876],"gyro_integral_dt":4996,"accelerometer_timestamp_relative":0,"accelerometer_m_s2":[0.1777547449,0.6197491884,-9.1483287811],"accelerometer_integral_dt":4996,"accelerometer_clipping":0}
{"timestamp":294279774,"gyro_rad":[-0.0207060594,0.0022086776,0.0202453602],"gyro_integral_dt":4995,"accelerometer_timestamp_relative":0,"accelerometer_m_s2":[-0.4109836519,0.1418720931,-9.3280105591],"accelerometer_integral_dt":4995,"accelerometer_clipping":0}
{"timestamp":294281303,"gyro_rad":[0.0299550705,0.0037347144,0.0062933071],"gyro_integral_dt":4996,"accelerometer_timestamp_relative":0,"accelerometer_m_s2":[-0.1055309772,-0.2281338125,-10.3125419617],"accelerometer_integral_dt":4996,"accelerometer_clipping":0}
{"timestamp":294290397,"gyro_rad":[-0.0014829206,0.0035864599,-0.016949201],"gyro_integral_dt":4997,"accelerometer_timestamp_relative":0,"accelerometer_m_s2":[0.1993489414,-0.9190824628,-10.6053161621],"accelerometer_integral_dt":4997,"accelerometer_clipping":0}
{"timestamp":294291314,"gyro_rad":[0.0014557991,0.0147323068,-0.0047826567],"gyro_integral_dt":4996,"accelerometer_timestamp_relative":0,"accelerometer_m_s2":[0.1430778503,-0.1784129143,-9.8277082443],"accelerometer_integral_dt":4996,"accelerometer_clipping":0}
{"timestamp":294299101,"gyro_rad":[0.0203561578,-0.0127664935,0.0030688515],"gyro_integral_dt":5004,"accelerometer_timestamp_relative":0,"accelerometer_m_s2":[0.4722616076,0.5782402754,-9.1641721725],"accelerometer_integral_dt":5004,"accelerometer_clipping":0}
{"timestamp":294299362,"gyro_rad":[-0.0125101469,0.0219625849,0.003452752],"gyro_integral_dt":4986,"accelerometer_timestamp_relative":0,"accelerometer_m_s2":[-0.1873927265,0.7283027172,-9.3091392517],"accelerometer_integral_dt":4986,"accelerometer_clipping":0}
{"timestamp":294308717,"gyro_rad":[-0.001160673,-0.0043280036,-0.0066637439],"gyro_integral_dt":4994,"accelerometer_timestamp_relative":0,"accelerometer_m_s2":[-0.3699815571,-0.1035193652,-9.4394483566],"accelerometer_integral_dt":4994,"accelerometer_clipping":0}
{"timestamp":294314621,"gyro_rad":[0.0180644579,-0.0026557709,-0.0232937895],"gyro_integral_dt":4998,"accelerometer_timestamp_relative":0,"accelerometer_m_s2":[-0.2746983171,-0.4868366122,-10.6522665024],"accelerometer_integral_dt":4998,"accelerometer_clipping":0}
{"timestamp":294314209,"gyro_rad":[0.0026762979,0.0232551806,-0.0276463013],"gyro_integral_dt":4992,"accelerometer_timestamp_relative":0,"accelerometer_m_s2":[0.3232369125,-0.8381335735,-10.5106649399],"accelerometer_integral_dt":4992,"accelerometer_clipping":0}
{"timestamp":294320100,"gyro_rad":[0.0052520935,-0.0094735948,-0.0210655071],"gyro_integral_dt":4996,"accelerometer_timestamp_relative":0,"accelerometer_m_s2":[0.1637532562,0.321841538,-9.409371376],"accelerometer_integral_dt":4996,"accelerometer_clipping":0}
{"timestamp":294321591,"gyro_rad":[0.0032345471,0.0030451845,0.0054367604],"gyro_integral_dt":4997,"accelerometer_timestamp_relative":0,"accelerometer_m_s2":[0.3951462209,0.399738729,-9.1454200745],"accelerometer_integral_dt":4997,"accelerometer_clipping":0}
{"timestamp":294331890,"gyro_rad":[0.0005175931,0.0082842549,0.0076011037],"gyro_integral_dt":5001,"accelerometer_timestamp_relative":0,"accelerometer_m_s2":[-0.270919323,0.7114903331,-9.3545150757],"accelerometer_integral_dt":5001,"accelerometer_clipping":0}
{"timestamp":294336616,"gyro_rad":[0.0009963819,0.0054141199,-0.009160175],"gyro_integral_dt":4988,"accelerometer_timestamp_relative":0,"accelerometer_m_s2":[-0.2592816949,-0.3004952073,-9.8119907379],"accelerometer_integral_dt":4988,"accelerometer_clipping":0}
{"timestamp":294341355,"gyro_rad":[0.0098145287,-0.0033811431,-0.0119966045],"gyro_integral_dt":4998,"accelerometer_timestamp_relative":0,"accelerometer_m_s2":[0.0396934189,-0.6808058023,-10.7078304291],"accelerometer_integral_dt":4998,"accelerometer_clipping":0}
{"timestamp":294342303,"gyro_rad":[-0.0003731804,0.0126329605,-0.0041091763],"gyro_integral_dt":4998,"accelerometer_timestamp_relative":0,"accelerometer_m_s2":[0.2963856161,-0.4548210502,-10.3314151764],"accelerometer_integral_dt":4998,"accelerometer_clipping":0}
{"timestamp":294359873,"gyro_rad":[0.0216346383,-0.0002954472,0.0118578887],"gyro_integral_dt":4991,"accelerometer_timestamp_relative":0,"accelerometer_m_s2":[0.6006935835,0.5836215615,-9.089758873],"accelerometer_integral_dt":4991,"accelerometer_clipping":0}
{"timestamp":294359634,"gyro_rad":[-0.0060253362,0.0045284797,0.0214466322],"gyro_integral_dt":5003,"accelerometer_timestamp_relative":0,"accelerometer_m_s2":[0.0777832195,0.7322995067,-9.3237934113],"accelerometer_integral_dt":5003,"accelerometer_clipping":0}
{"timestamp":294360693,"gyro_rad":[-0.0177500919,0.0107507156,0.027946664],"gyro_integral_dt":4988,"accelerometer_timestamp_relative":0,"accelerometer_m_s2":[-0.296741128,0.2487692535,-9.2863254547],"accelerometer_integral_dt":4988,"accelerometer_clipping":0}
{"timestamp":294367667,"gyro_rad":[0.0368843079,-0.0076585729,0.0058323862],"gyro_integral_dt":4997,"accelerometer_timestamp_relative":0,"accelerometer_m_s2":[-0.0396721549,-0.1876328588,-10.3237314224],"accelerometer_integral_dt":4997,"accelerometer_clipping":0}
{"timestamp":294370873,"gyro_rad":[-0.0060188659,0.0223631039,-0.0070734005],"gyro_integral_dt":5000,"accelerometer_timestamp_relative":0,"accelerometer_m_s2":[-0.0328631848,-0.715931952,-10.847743988],"accelerometer_integral_dt":5000,"accelerometer_clipping":0}
{"timestamp":294380586,"gyro_rad":[0.0021116806,-0.0022400673,0.0066165533],"gyro_integral_dt":4994,"accelerometer_timestamp_relative":0,"accelerometer_m_s2":[0.3319281638,-0.3434631824,-9.5645885468],"accelerometer_integral_dt":4994,"accelerometer_clipping":0}
{"timestamp":294381443,"gyro_rad":[0.0137021272,-0.0040909518,0.0173071083],"gyro_integral_dt":4995,"accelerometer_timestamp_relative":0,"accelerometer_m_s2":[0.2703274786,0.7429051399,-9.2367839813],"accelerometer_integral_dt":4995,"accelerometer_clipping":0}
{"timestamp":294386300,"gyro_rad":[-0.0042250664,0.0213108175,0.0172762722],"gyro_integral_dt":4991,"accelerometer_timestamp_relative":0,"accelerometer_m_s2":[-0.2639483809,0.7467403412,-9.2947978973],"accelerometer_integral_dt":4991,"accelerometer_clipping":0}
{"timestamp":294389690,"gyro_rad":[-0.005637154,-0.0058823759,-0.0019036229],"gyro_integral_dt":4997,"accelerometer_timestamp_relative":0,"accelerometer_m_s2":[-0.3678592741,-0.3352970183,-9.3977918625],"accelerometer_integral_dt":4997,"accelerometer_clipping":0}
{"timestamp":294399952,"gyro_rad":[0.0161135886,0.0065356032,-0.011156355],"gyro_integral_dt":4999,"accelerometer_timestamp_relative":0,"accelerometer_m_s2":[-0.3588866293,-0.5648887753,-10.9832334518],"accelerometer_integral_dt":4999,"accelerometer_clipping":0}
{"timestamp":294411546,"gyro_rad":[0.0042417245,0.0055547161,-0.026867982],"gyro_integral_dt":4991,"accelerometer_timestamp_relative":0,"accelerometer_m_s2":[0.3946706355,-0.794696331,-10.1249008179],"accelerometer_integral_dt":4991,"accelerometer_clipping":0}
{"timestamp":294409719,"gyro_rad":[0.0073969765,0.0104825804,-0.0143039022],"gyro_integral_dt":4996,"accelerometer_timestamp_relative":0,"accelerometer_m_s2":[0.1007291004,0.1519588381,-9.5048913956],"accelerometer_integral_dt":4996,"accelerometer_clipping":0}
{"timestamp":294411737,"gyro_rad":[0.0038844489,-0.0094470475,0.0039023922],"gyro_integral_dt":4996,"accelerometer_timestamp_relative":0,"accelerometer_m_s2":[0.3673654795,0.3403651118,-9.2540054321],"accelerometer_integral_dt":4996,"accelerometer_clipping":0}
{"timestamp":294418940,"gyro_rad":[-0.0036408766,0.0153215518,-0.0028563703],"gyro_integral_dt":4996,"accelerometer_timestamp_relative":0,"accelerometer_m_s2":[-0.1412835419,0.753905654,-9.0653867722],"accelerometer_integral_dt":4996,"accelerometer_clipping":0}
{"timestamp":294427763,"gyro_rad":[0.0106326044,-0.0031098926,-0.0165833421],"gyro_integral_dt":4994,"accelerometer_timestamp_relative":0,"accelerometer_m_s2":[-0.4571519494,-0.4272708297,-10.1986408234],"accelerometer_integral_dt":4994,"accelerometer_clipping":0}
{"timestamp":294428356,"gyro_rad":[-0.0002993812,0.0012343579,-0.0276666302],"gyro_integral_dt":4997,"accelerometer_timestamp_relative":0,"accelerometer_m_s2":[0.3295098245,-0.644431591,-10.5781259537],"accelerometer_integral_dt":4997,"accelerometer_clipping":0}
{"timestamp":294441988,"gyro_rad":[0.0102050258,0.0163455866,-0.0132988365],"gyro_integral_dt":4999,"accelerometer_timestamp_relative":0,"accelerometer_m_s2":[0.3381980956,-0.4968648851,-10.1342000961],"accelerometer_integral_dt":4999,"accelerometer_clipping":0}
{"timestamp":294447856,"gyro_rad":[0.0207211748,-0.0111109335,-0.0015999503],"gyro_integral_dt":4995,"accelerometer_timestamp_relative":0,"accelerometer_m_s2":[0.4259798825,0.7314621806,-9.1806316376],"accelerometer_integral_dt":4995,"accelerometer_clipping":0}
{"timestamp":294450911,"gyro_rad":[-0.0180469602,0.016142793,0.0169261005],"gyro_integral_dt":4993,"accelerometer_timestamp_relative":0,"accelerometer_m_s2":[0.1112248972,0.6407916546,-9.2874794006],"accelerometer_integral_dt":4993,"accelerometer_clipping":0}
{"timestamp":294449237,"gyro_rad":[-0.0005075584,0.0005306799,0.0156886317],"gyro_integral_dt":4995,"accelerometer_timestamp_relative":0,"accelerometer_m_s2":[-0.2622234225,0.4025510252,-9.4074668884],"accelerometer_integral_dt":4995,"accelerometer_clipping":0}
{"timestamp":294450997,"gyro_rad":[0.0253410507,0.0041341633,0.0034330063],"gyro_integral_dt":4994,"accelerometer_timestamp_relative":0,"accelerometer_m_s2":[-0.1597633213,-0.1983639598,-10.2672252655],"accelerometer_integral_dt":4994,"accelerometer_clipping":0}
{"timestamp":294458985,"gyro_rad":[-0.0027286636,0.0073818858,-0.005983247],"gyro_integral_dt":4995,"accelerometer_timestamp_relative":0,"accelerometer_m_s2":[0.1409424692,-0.6965731978,-10.7203769684],"accelerometer_integral_dt":4995,"accelerometer_clipping":0}
{"timestamp":294465204,"gyro_rad":[-0.0045240126,0.0113198003,0.0080905892],"gyro_integral_dt":4998,"accelerometer_timestamp_relative":0,"accelerometer_m_s2":[0.2587984204,-0.2408897132,-9.8036327362],"accelerometer_integral_dt":4998,"accelerometer_clipping":0}
{"timestamp":294464023,"gyro_rad":[0.0218771715,-0.0094120577,0.0290280618],"gyro_integral_dt":4992,"accelerometer_timestamp_relative":0,"accelerometer_m_s2":[0.3109826744,0.8042986989,-9.0176563263],"accelerometer_integral_dt":4992,"accelerometer_clipping":0}
{"timestamp":294471160,"gyro_rad":[-0.0099576004,0.0175157916,0.0226309616],"gyro_integral_dt":4998,"accelerometer_timestamp_relative":0,"accelerometer_m_s2":[-0.2548821568,0.7081609964,-9.4899969101],"accelerometer_integral_dt":4998,"accelerometer_clipping":0}
{"timestamp":294479520,"gyro_rad":[-0.0077879778,0.0075228796,0.0136188008],"gyro_integral_dt":4995,"accelerometer_timestamp_relative":0,"accelerometer_m_s2":[-0.4526583254,-0.2865695357,-9.6359786987],"accelerometer_integral_dt":4995,"accelerometer_clipping":0}
{"timestamp":294481613,"gyro_rad":[0.0215658639,-0.0133922789,-0.004630636],"gyro_integral_dt":4997,"accelerometer_timestamp_relative":0,"accelerometer_m_s2":[-0.0135567635,-0.6421496272,-10.420592308],"accelerometer_integral_dt":4997,"accelerometer_clipping":0}
{"timestamp":294486218,"gyro_rad":[0.007304132,0.0204242282,-0.0120631056],"gyro_integral_dt":4994,"accelerometer_timestamp_relative":0,"accelerometer_m_s2":[0.2208842784,-0.6389883161,-10.4365758896],"accelerometer_integral_dt":4994,"accelerometer_clipping":0}
{"timestamp":294492366,"gyro_rad":[-0.0009778232,0.0011176477,-0.0021808615],"gyro_integral_dt":4997,"accelerometer_timestamp_relative":0,"accelerometer_m_s2":[0.2794115245,-0.0590584911,-9.6429195404],"accelerometer_integral_dt":4997,"accelerometer_clipping":0}
{"timestamp":294498341,"gyro_rad":[0.0069680912,-0.0024537442,0.0096581001],"gyro_integral_dt":4995,"accelerometer_timestamp_relative":0,"accelerometer_m_s2":[0.1836939901,0.5948364735,-8.9819974899],"accelerometer_integral_dt":4995,"accelerometer_clipping":0}
{"timestamp":294510895,"gyro_rad":[-0.0003793832,0.0106452964,0.0021000495],"gyro_integral_dt":4993,"accelerometer_timestamp_relative":0,"accelerometer_m_s2":[-0.0447088219,0.5974599719,-9.2899694443],"accelerometer_integral_dt":4993,"accelerometer_clipping":0}
{"timestamp":294510229,"gyro_rad":[0.0022292463,-0.0029232269,-0.0206088331],"gyro_integral_dt":4997,"accelerometer_timestamp_relative":0,"accelerometer_m_s2":[-0.3576024175,-0.49207142,-10.0364427567],"accelerometer_integral_dt":4997,"accelerometer_clipping":0}
{"timestamp":294512059,"gyro_rad":[0.0085629784,0.0112481471,-0.0275002904],"gyro_integral_dt":4999,"accelerometer_timestamp_relative":0,"accelerometer_m_s2":[0.0916553363,-0.6587822437,-10.7098817825],"accelerometer_integral_dt":4999,"accelerometer_clipping":0}
{"timestamp":294518556,"gyro_rad":[0.0010470264,-0.0032033473,-0.0231072344],"gyro_integral_dt":5000,"accelerometer_timestamp_relative":0,"accelerometer_m_s2":[0.3921921253,-0.4629385173,-9.9609270096],"accelerometer_integral_dt":5000,"accelerometer_clipping":0}
{"timestamp":294521043,"gyro_rad":[0.0237264019,0.0111854048,-0.0077760587],"gyro_integral_dt":4992,"accelerometer_timestamp_relative":0,"accelerometer_m_s2":[0.4105550349,0.7034338117,-9.2871856689],"accelerometer_integral_dt":4992,"accelerometer_clipping":0}
{"timestamp":294528731,"gyro_rad":[-0.0077414922,0.0003624777,0.0075955358],"gyro_integral_dt":4992,"accelerometer_timestamp_relative":0,"accelerometer_m_s2":[-0.1621029526,0.4957343638,-9.5290489197],"accelerometer_integral_dt":4992,"accelerometer_clipping":0}
{"timestamp":294530494,"gyro_rad":[-0.0035575205,0.0090078069,0.0003711966],"gyro_integral_dt":4992,"accelerometer_timestamp_relative":0,"accelerometer_m_s2":[-0.1899610758,0.6324882507,-9.0325374603],"accelerometer_integral_dt":4992,"accelerometer_clipping":0}
{"timestamp":294537791,"gyro_rad":[0.0125915632,-0.0005064484,-0.012809597],"gyro_integral_dt":4996,"accelerometer_timestamp_relative":0,"accelerometer_m_s2":[-0.1509494334,-0.6605947614,-10.3042860031],"accelerometer_integral_dt":4996,"accelerometer_clipping":0}
{"timestamp":294549485,"gyro_rad":[0.0113087045,0.0012877143,-0.0146209253],"gyro_integral_dt":4997,"accelerometer_timestamp_relative":0,"accelerometer_m_s2":[-0.1062057316,-0.4267528355,-10.8791790009],"accelerometer_integral_dt":4997,"accelerometer_clipping":0}
{"timestamp":294550183,"gyro_rad":[-0.0015044466,0.0193875376,0.0064106593],"gyro_integral_dt":4994,"accelerometer_timestamp_relative":0,"accelerometer_m_s2":[0.443098098,-0.4111455381,-9.7651224136],"accelerometer_integral_dt":4994,"accelerometer_clipping":0}
{"timestamp":294550909,"gyro_rad":[0.0112024816,-0.016517438,0.017891949],"gyro_integral_dt":4996,"accelerometer_timestamp_relative":0,"accelerometer_m_s2":[0.2037549615,0.9320379496,-9.0032663345],"accelerometer_integral_dt":4996,"accelerometer_clipping":0}
{"timestamp":294558650,"gyro_rad":[-0.0064034993,0.0183530264,0.0246027987],"gyro_integral_dt":4995,"accelerometer_timestamp_relative":0,"accelerometer_m_s2":[-0.0347810127,0.3828999102,-9.4369564056],"accelerometer_integral_dt":4995,"accelerometer_clipping":0}
{"timestamp":294560301,"gyro_rad":[0.0087639699,-0.0044193706,0.0136618325],"gyro_integral_dt":4995,"accelerometer_timestamp_relative":0,"accelerometer_m_s2":[-0.5586194396,0.2270250171,-9.6260538101],"accelerometer_integral_dt":4995,"accelerometer_clipping":0}
{"timestamp":294568985,"gyro_rad":[0.0079227462,0.0062339627,-0.0034656841],"gyro_integral_dt":5000,"accelerometer_timestamp_relative":0,"accelerometer_m_s2":[0.22091721,-0.9729348421,-10.3196229935],"accelerometer_integral_dt":5000,"accelerometer_clipping":0}
{"timestamp":294569552,"gyro_rad":[0.0083951643,0.0077309464,-0.0054304972],"gyro_integral_dt":4991,"accelerometer_timestamp_relative":0,"accelerometer_m_s2":[0.2658311725,-0.4259194732,-10.620672226],"accelerometer_integral_dt":4991,"accelerometer_clipping":0}
{"timestamp":294577754,"gyro_rad":[0.0048469319,0.0037568018,0.0102230385],"gyro_integral_dt":4997,"accelerometer_timestamp_relative":0,"accelerometer_m_s2":[0.3036784828,-0.0337895826,-9.8097887039],"accelerometer_integral_dt":4997,"accelerometer_clipping":0}
{"timestamp":294578867,"gyro_rad":[0.0071638227,0.0009229101,0.021521477],"gyro_integral_dt":4995,"accelerometer_timestamp_relative":0,"accelerometer_m_s2":[0.2025259286,0.8543595076,-8.6055641174],"accelerometer_integral_dt":4995,"accelerometer_clipping":0}
{"timestamp":294589562,"gyro_rad":[-0.0046539544,0.0051759961,0.0072247926],"gyro_integral_dt":4996,"accelerometer_timestamp_relative":0,"accelerometer_m_s2":[0.0605093203,0.3336241841,-9.5864696503],"accelerometer_integral_dt":4996,"accelerometer_clipping":0}
{"timestamp":294589385,"gyro_rad":[0.0036626933,0.0115969311,-0.0066401176],"gyro_integral_dt":4995,"accelerometer_timestamp_relative":0,"accelerometer_m_s2":[-0.3831311166,-0.0889556706,-9.962641716],"accelerometer_integral_dt":4995,"accelerometer_clipping":0}
{"timestamp":294598745,"gyro_rad":[0.0092592593,-0.0114958305,-0.0241198074],"gyro_integral_dt":5001,"accelerometer_timestamp_relative":0,"accelerometer_m_s2":[0.1086418256,-0.9624767303,-10.5596942902],"accelerometer_integral_dt":5001,"accelerometer_clipping":0}
{"timestamp":294603638,"gyro_rad":[0.0133769019,0.0254307892,-0.0173682272],"gyro_integral_dt":4992,"accelerometer_timestamp_relative":0,"accelerometer_m_s2":[0.2513918281,-0.1547306478,-10.3949604034],"accelerometer_integral_dt":4992,"accelerometer_clipping":0}
{"timestamp":294603869,"gyro_rad":[0.006582024,-0.0044751759,-0.0021467202],"gyro_integral_dt":4993,"accelerometer_timestamp_relative":0,"accelerometer_m_s2":[0.5319749117,0.2069385797,-9.0194768906],"accelerometer_integral_dt":4993,"accelerometer_clipping":0}
{"timestamp":294614135,"gyro_rad":[-0.0104078948,0.0015738691,0.0047290442],"gyro_integral_dt":4995,"accelerometer_timestamp_relative":0,"accelerometer_m_s2":[-0.4090854824,0.9288554192,-9.1192455292],"accelerometer_integral_dt":4995,"accelerometer_clipping":0}
{"timestamp":294612460,"gyro_rad":[0.0034395354,0.0123316487,-0.0041339369],"gyro_integral_dt":4997,"accelerometer_timestamp_relative":0,"accelerometer_m_s2":[-0.153053984,0.14871566,-9.5334119797],"accelerometer_integral_dt":4997,"accelerometer_clipping":0}
{"timestamp":294620555,"gyro_rad":[0.0111755123,-0.0061277808,-0.0202377383],"gyro_integral_dt":4998,"accelerometer_timestamp_relative":0,"accelerometer_m_s2":[-0.2654626071,-0.376519531,-10.2837123871],"accelerometer_integral_dt":4998,"accelerometer_clipping":0}
{"timestamp":294627328,"gyro_rad":[0.00792793,0.0151854577,-0.0228196383],"gyro_integral_dt":5000,"accelerometer_timestamp_relative":0,"accelerometer_m_s2":[-0.0002153523,-0.8234746456,-10.7192258835],"accelerometer_integral_dt":5000,"accelerometer_clipping":0}
{"timestamp":294639828,"gyro_rad":[-0.0020964451,0.0009219912,-0.00614936],"gyro_integral_dt":4996,"accelerometer_timestamp_relative":0,"accelerometer_m_s2":[0.3481841385,-0.2214304209,-9.8041992188],"accelerometer_integral_dt":4996,"accelerometer_clipping":0}
{"timestamp":294640072,"gyro_rad":[0.0168738607,0.0027662255,0.01283349],"gyro_integral_dt":4996,"accelerometer_timestamp_relative":0,"accelerometer_m_s2":[0.1370865554,0.7240436077,-8.9326848984],"accelerometer_integral_dt":4996,"accelerometer_clipping":0}
{"timestamp":294651970,"gyro_rad":[-0.014532391,0.0001069338,0.0134769809],"gyro_integral_dt":4985,"accelerometer_timestamp_relative":0,"accelerometer_m_s2":[0.1147670969,0.5321769714,-9.2388792038],"accelerometer_integral_dt":4985,"accelerometer_clipping":0}
{"timestamp":294650480,"gyro_rad":[0.0095505705,0.0110127721,0.0077844467],"gyro_integral_dt":4996,"accelerometer_timestamp_relative":0,"accelerometer_m_s2":[-0.6648122668,0.0294203721,-9.9172420502],"accelerometer_integral_dt":4996,"accelerometer_clipping":0}
{"timestamp":294652390,"gyro_rad":[0.0103585906,-0.0028120268,-0.005377267],"gyro_integral_dt":4995,"accelerometer_timestamp_relative":0,"accelerometer_m_s2":[0.2668570876,-0.7330016494,-10.5625896454],"accelerometer_integral_dt":4995,"accelerometer_clipping":0}
{"timestamp":294659634,"gyro_rad":[0.0188851301,0.0099228891,0.0154225733],"gyro_integral_dt":4993,"accelerometer_timestamp_relative":0,"accelerometer_m_s2":[0.4691609442,0.2296475619,-9.6216259003],"accelerometer_integral_dt":4993,"accelerometer_clipping":0}
{"timestamp":294668312,"gyro_rad":[-0.0035659601,-0.0092144264,0.0254326649],"gyro_integral_dt":4997,"accelerometer_timestamp_relative":0,"accelerometer_m_s2":[0.0340794846,0.8102334142,-9.0055599213],"accelerometer_integral_dt":4997,"accelerometer_clipping":0}
{"timestamp":294669405,"gyro_rad":[-0.0063403482,0.015832603,0.0161552411],"gyro_integral_dt":4999,"accelerometer_timestamp_relative":0,"accelerometer_m_s2":[0.2011171728,0.5447371006,-9.2142000198],"accelerometer_integral_dt":4999,"accelerometer_clipping":0}
{"timestamp":294673495,"gyro_rad":[0.0116472747,0.0060919002,0.0006660864],"gyro_integral_dt":4991,"accelerometer_timestamp_relative":0,"accelerometer_m_s2":[-0.5634434819,-0.2905246019,-10.3995542526],"accelerometer_integral_dt":4991,"accelerometer_clipping":0}
{"timestamp":294679534,"gyro_rad":[0.009488292,-0.0069784769,-0.0111084944],"gyro_integral_dt":4997,"accelerometer_timestamp_relative":0,"accelerometer_m_s2":[0.2144548744,-0.6245874763,-10.4589090347],"accelerometer_integral_dt":4997,"accelerometer_clipping":0}
{"timestamp":294688430,"gyro_rad":[0.0028539666,0.0214328878,-0.0109758442],"gyro_integral_dt":4994,"accelerometer_timestamp_relative":0,"accelerometer_m_s2":[0.4128911197,-0.3975319862,-9.9319763184],"accelerometer_integral_dt":4994,"accelerometer_clipping":0}
{"timestamp":294690539,"gyro_rad":[0.0057768384,-0.0058247345,0.005362934],"gyro_integral_dt":4996,"accelerometer_timestamp_relative":0,"accelerometer_m_s2":[0.2240856737,0.3924343288,-9.3366508484],"accelerometer_integral_dt":4996,"accelerometer_clipping":0}
{"timestamp":294694037,"gyro_rad":[-0.0027595179,0.0039436361,0.0080548748],"gyro_integral_dt":4996,"accelerometer_timestamp_relative":0,"accelerometer_m_s2":[-0.0487532318,0.8907393813,-9.177573204],"accelerometer_integral_dt":4996,"accelerometer_clipping":0}
{"timestamp":294711409,"gyro_rad":[-0.0043630796,0.0105334837,-0.0049317679],"gyro_integral_dt":4996,"accelerometer_timestamp_relative":0,"accelerometer_m_s2":[-0.3789083064,0.1364994645,-9.5669279099],"accelerometer_integral_dt":4996,"accelerometer_clipping":0}
{"timestamp":294709103,"gyro_rad":[0.0141258193,0.0054220106,-0.0166713465],"gyro_integral_dt":4998,"accelerometer_timestamp_relative":0,"accelerometer_m_s2":[-0.3000251651,-0.5302632451,-10.2338666916],"accelerometer_integral_dt":4998,"accelerometer_clipping":0}
{"timestamp":294711121,"gyro_rad":[0.0067067305,-0.0096241282,-0.0297996029],"gyro_integral_dt":4992,"accelerometer_timestamp_relative":0,"accelerometer_m_s2":[0.0750905797,-0.7005260587,-10.5990152359],"accelerometer_integral_dt":4992,"accelerometer_clipping":0}
